# Time (s);Altitude (m);Vertical velocity (m/s);Vertical acceleration (m/s²);Total velocity (m/s);Total acceleration (m/s²);Position East of launch (m);Position North of launch (m);Lateral distance (m);Lateral direction (°);Lateral velocity (m/s);Lateral acceleration (m/s²);Latitude (°);Longitude (°);Gravitational acceleration (m/s²);Angle of attack (°);Roll rate (°/s);Pitch rate (°/s);Yaw rate (°/s);Mass (g);Propellant mass (g);Longitudinal moment of inertia (kg·m²);Rotational moment of inertia (kg·m²);CP location (mm);CG location (mm);Stability margin calibers (?);Mach number (?);Reynolds number (?);Thrust (N);Drag force (N);Drag coefficient (?);Axial drag coefficient (?);Friction drag coefficient (?);Pressure drag coefficient (?);Base drag coefficient (?);Normal force coefficient (?);Pitch moment coefficient (?);Yaw moment coefficient (?);Side force coefficient (?);Roll moment coefficient (?);Roll forcing coefficient (?);Roll damping coefficient (?);Pitch damping coefficient (?);Coriolis acceleration (m/s²);Reference length (mm);Reference area (cm²);Vertical orientation (zenith) (°);Lateral orientation (azimuth) (°);Wind velocity (m/s);Air temperature (°C);Air pressure (mbar);Speed of sound (m/s);Simulation time step (s);Computation time (s)
0;0;0;-2.4907;0;2.6506;0;0;0;0;0;0.90655;52;20;9.8122;110;0;0;0;14136;4498.6;6.0035;0.091656;NaN;1424.2;NaN;0.0081131;441385;92.865;-0.0041847;0.693;-0.05888;0.45283;0.16608;0.074087;NaN;NaN;NaN;NaN;NaN;NaN;NaN;NaN;0;140;153.94;70;180;NaN;14.35;1001.5;340;0.01;0.0013198
0.01;0;0;28.178;0;29.986;0;0;0;0;0;10.256;52;20;9.8122;110;0;0;0;14136;4498.6;6.0035;0.091656;NaN;1424.2;NaN;0.0079929;434844;554.21;-0.0040701;0.69447;-0.059004;0.4543;0.16608;0.074087;NaN;NaN;NaN;NaN;NaN;NaN;NaN;NaN;0;140;153.94;70;180;NaN;14.35;1001.5;340;0.01;0.0017839
0.02;0.0014092;0.28186;61.482;0.29995;65.427;-5.13E-04;0;5.13E-04;180;0.10259;22.377;52;20;9.8122;103.75;0;0;0;14132;4495;6.0025;0.091654;NaN;1424.1;NaN;0.0076162;414350;1054.9;-0.0013072;0.69924;-0.02087;0.45908;0.16608;0.074086;NaN;NaN;NaN;NaN;NaN;NaN;NaN;NaN;2.94E-05;140;153.94;70;180;NaN;14.35;1001.5;339.99;0.01;0.0025375
0.03;0.0073026;0.89686;94.809;0.95442;100.89;-0.0026579;0;0.0026579;180;0.32643;34.508;52;20;9.8122;88.776;0;0;0;14128;4490.5;6.0012;0.091651;NaN;1424;NaN;0.0072866;396418;1555.6;9.77E-07;0.70369;1.70E-05;0.46352;0.16608;0.074086;NaN;NaN;NaN;NaN;NaN;NaN;NaN;NaN;9.35E-05;140;153.94;70;180;NaN;14.35;1001.5;339.99;0.01;0.002884
0.04;0.021013;1.8452;120.05;1.9636;127.76;-0.007648;0;0.007648;180;0.67161;43.696;52;20;9.8122;66.187;0;0;0;14123;4486;6;0.091647;NaN;1423.8;NaN;0.0078393;426489;1934.6;0.0063;0.69638;0.094944;0.45621;0.16608;0.074087;NaN;NaN;NaN;NaN;NaN;NaN;NaN;NaN;1.92E-04;140;153.94;70;180;NaN;14.35;1001.5;339.99;0.01;0.0032781
0.05;0.04547;3.0462;121.83;3.2417;129.65;-0.01655;0;0.01655;180;1.1087;44.343;52;20;9.8122;45.382;0;0;0;14117;4479.7;5.9982;0.091643;NaN;1423.6;NaN;0.0099169;539518;1960.5;0.046022;0.674;0.4334;0.43383;0.16609;0.07409;NaN;NaN;NaN;NaN;NaN;NaN;NaN;NaN;3.18E-04;140;153.94;70;180;NaN;14.35;1001.5;339.99;0.01;0.0035863
0.06;0.082026;4.2652;122.15;4.539;129.99;-0.029855;0;0.029855;180;1.5524;44.458;52;20;9.8122;33.146;0;0;0;14108;4470.6;5.9956;0.091636;NaN;1423.4;NaN;0.012883;700858;1964;0.11917;0.65099;0.66506;0.4108;0.16609;0.074095;NaN;NaN;NaN;NaN;NaN;NaN;NaN;NaN;4.45E-04;140;153.94;70;180;NaN;14.349;1001.5;339.99;0.01;0.0038878
0.07;0.13079;5.4874;122.47;5.8396;130.33;-0.047603;0;0.047603;180;1.9973;44.574;52;20;9.8122;25.681;0;0;0;14098;4460.7;5.9928;0.091629;NaN;1423.1;NaN;0.016219;882388;1967.5;0.21664;0.63221;0.76271;0.39201;0.1661;0.074103;NaN;NaN;NaN;NaN;NaN;NaN;NaN;NaN;5.72E-04;140;153.94;70;180;NaN;14.349;1001.5;339.99;0.01;0.0042167
0.08;0.19179;6.7128;122.79;7.1436;130.67;-0.069805;0;0.069805;180;2.4433;44.69;52;20;9.8122;20.805;0;0;0;14088;4450.8;5.99;0.091622;NaN;1422.7;NaN;0.019746;1074234;1971;0.33264;0.61718;0.79015;0.37696;0.16611;0.074113;NaN;NaN;NaN;NaN;NaN;NaN;NaN;NaN;7.00E-04;140;153.94;70;180;NaN;14.349;1001.5;339.99;0.01;0.0045446
0.09;0.26506;7.9414;123.1;8.4511;131.01;-0.096474;0;0.096474;180;2.8904;44.806;52;20;9.8122;17.417;0;0;0;14078;4441;5.9872;0.091615;NaN;1422.4;NaN;0.023381;1272001;1974.6;0.46412;0.60496;0.7863;0.36472;0.16612;0.074126;NaN;NaN;NaN;NaN;NaN;NaN;NaN;NaN;8.28E-04;140;153.94;70;180;NaN;14.348;1001.5;339.99;0.01;0.004889
0.1;0.35063;9.1732;123.42;9.7619;131.34;-0.12762;0;0.12762;180;3.3388;44.922;52;20;9.8122;14.941;0;0;0;14068;4431.1;5.9844;0.091607;NaN;1422.1;NaN;0.027086;1473536;1978.1;0.60679;0.59481;0.76604;0.35453;0.16614;0.074141;NaN;NaN;NaN;NaN;NaN;NaN;NaN;NaN;9.57E-04;140;153.94;70;180;NaN;14.348;1001.5;339.99;0.01;0.0051967
0.11;0.44854;10.408;123.74;11.076;131.68;-0.16325;0;0.16325;180;3.7882;45.038;52;20;9.8122;13.226;0;0;0;14058;4421.2;5.9816;0.0916;NaN;1421.8;NaN;0.030828;1677095;1981.6;0.75926;0.58624;0.73996;0.34592;0.16616;0.074158;NaN;NaN;NaN;NaN;NaN;NaN;NaN;NaN;0.0010856;140;153.94;70;180;NaN;14.347;1001.5;339.99;0.01;0.0054973
0.12;0.55881;11.646;124.06;12.394;132.02;-0.20339;0;0.20339;180;4.2389;45.154;52;20;9.8122;11.88;0;0;0;14048;4411.3;5.9788;0.091593;NaN;1421.5;NaN;0.034601;1882356;1985.1;0.92391;0.57885;0.71474;0.3385;0.16618;0.074178;NaN;NaN;NaN;NaN;NaN;NaN;NaN;NaN;0.0012148;140;153.94;70;180;NaN;14.346;1001.5;339.99;0.01;0.0057924
0.13;0.68148;12.888;124.38;13.715;132.36;-0.24804;0;0.24804;180;4.6907;45.269;52;20;9.8122;10.796;0;0;0;14038;4401.4;5.976;0.091586;NaN;1421.2;NaN;0.0384;2088977;1988.7;1.1106;0.57689;0.69764;0.33649;0.1662;0.0742;NaN;NaN;NaN;NaN;NaN;NaN;NaN;NaN;0.0013443;140;153.94;70;180;NaN;14.346;1001.4;339.99;0.01;0.0060914
0.14;0.81657;14.132;124.69;15.039;132.69;-0.29721;0;0.29721;180;5.1436;45.384;52;20;9.8122;9.9059;0;0;0;14029;4391.6;5.9732;0.091579;NaN;1420.9;NaN;0.042219;2296735;1992.2;1.3177;0.57693;0.68474;0.33648;0.16623;0.074225;NaN;NaN;NaN;NaN;NaN;NaN;NaN;NaN;0.0014741;140;153.94;70;180;NaN;14.345;1001.4;339.99;0.01;0.006389
0.15;0.96413;15.38;125.01;16.367;133.03;-0.35092;0;0.35092;180;5.5977;45.499;52;20;9.8122;9.1612;0;0;0;14019;4381.7;5.9703;0.091572;NaN;1420.6;NaN;0.046057;2505480;1995.7;1.5426;0.57697;0.6736;0.33647;0.16625;0.074252;NaN;NaN;NaN;NaN;NaN;NaN;NaN;NaN;0.0016042;140;153.94;70;180;NaN;14.344;1001.4;339.99;0.01;0.0066894
0.16;1.1242;16.63;125.32;17.698;133.36;-0.40917;0;0.40917;180;6.053;45.613;52;20;9.8122;8.5771;0;0;0;14009;4371.8;5.9675;0.091564;NaN;1420.3;NaN;0.049903;2714649;1999.2;1.7872;0.57702;0.66475;0.33646;0.16628;0.074281;NaN;NaN;NaN;NaN;NaN;NaN;NaN;NaN;0.0017347;140;153.94;70;180;NaN;14.343;1001.4;339.99;0.01;0.0069858
0.17;1.2968;17.884;125.64;19.032;133.7;-0.47198;0;0.47198;180;6.5094;45.728;52;20;9.8122;8.0751;0;0;0;13999;4361.9;5.9647;0.091557;NaN;1420;NaN;0.053763;2924582;2002.8;2.0506;0.57707;0.65715;0.33644;0.16632;0.074314;NaN;NaN;NaN;NaN;NaN;NaN;NaN;NaN;0.0018655;140;153.94;70;180;NaN;14.342;1001.4;339.99;0.01;0.0072822
0.18;1.4819;19.141;125.95;20.37;134.03;-0.53936;0;0.53936;180;6.9669;45.841;52;20;9.8122;7.6391;0;0;0;13989;4352;5.9619;0.09155;NaN;1419.7;NaN;0.057636;3135229;2006.3;2.3332;0.57713;0.65059;0.33643;0.16635;0.074348;NaN;NaN;NaN;NaN;NaN;NaN;NaN;NaN;0.0019966;140;153.94;70;180;NaN;14.34;1001.3;339.99;0.01;0.007581
0.19;1.6796;20.402;126.26;21.711;134.36;-0.61132;0;0.61132;180;7.4256;45.955;52;20;9.8122;7.2569;0;0;0;13979;4342.2;5.959;0.091543;NaN;1419.3;NaN;0.061522;3346554;2009.8;2.6351;0.57719;0.64491;0.33641;0.16639;0.074385;NaN;NaN;NaN;NaN;NaN;NaN;NaN;NaN;0.002128;140;153.94;70;180;NaN;14.339;1001.3;339.99;0.01;0.0078756
0.2;1.8899;21.665;126.57;23.055;134.69;-0.68788;0;0.68788;180;7.8854;46.068;52;20;9.8122;6.9191;0;0;0;13969;4332.3;5.9562;0.091536;NaN;1419;NaN;0.06542;3558525;2013.3;2.9567;0.57725;0.63996;0.33639;0.16643;0.074425;NaN;NaN;NaN;NaN;NaN;NaN;NaN;NaN;0.0022598;140;153.94;70;180;NaN;14.338;1001.3;339.99;0.01;0.0081712
0.21;2.1129;22.931;126.88;24.403;135.02;-0.76904;0;0.76904;180;8.3463;46.181;52;20;9.8122;6.5584;0;0;0;13959;4322.4;5.9534;0.091529;NaN;1418.7;NaN;0.069347;3772062;2016.9;3.2952;0.57732;0.63477;0.33638;0.16648;0.074468;NaN;NaN;NaN;NaN;NaN;NaN;NaN;NaN;0.0023919;140;153.94;70;180;NaN;14.336;1001.3;339.99;0.01;0.0084743
0.22;2.3486;24.201;127.19;25.754;135.35;-0.85481;0;0.85481;180;8.8084;46.294;52;20;9.8122;6.2357;0;0;0;13950;4312.5;5.9505;0.091521;NaN;1418.4;NaN;0.073286;3986245;2020.4;3.6537;0.5774;0.63021;0.33636;0.16652;0.074513;NaN;NaN;NaN;NaN;NaN;NaN;NaN;NaN;0.0025243;140;153.94;70;180;NaN;14.335;1001.2;339.99;0.01;0.0087728
0.23;2.5969;25.473;127.5;27.108;135.68;-0.94521;0;0.94521;180;9.2715;46.406;52;20;9.8122;5.9451;0;0;0;13940;4302.6;5.9477;0.091514;NaN;1418.1;NaN;0.077237;4201053;2023.9;4.0324;0.57747;0.62621;0.33634;0.16657;0.07456;NaN;NaN;NaN;NaN;NaN;NaN;NaN;NaN;0.002657;140;153.94;70;180;NaN;14.333;1001.2;339.98;0.01;0.0090694
0.24;2.8581;26.749;127.81;28.466;136.01;-1.0402;0;1.0402;180;9.7359;46.518;52;20;9.8122;5.6821;0;0;0;13930;4292.8;5.9449;0.091507;NaN;1417.8;NaN;0.0812;4416468;2027.4;4.4315;0.57755;0.62268;0.33632;0.16663;0.074611;NaN;NaN;NaN;NaN;NaN;NaN;NaN;NaN;0.0027901;140;153.94;70;180;NaN;14.331;1001.2;339.98;0.01;0.0093664
0.25;3.1319;28.028;128.11;29.827;136.34;-1.1399;0;1.1399;180;10.201;46.629;52;20;9.8122;5.443;0;0;0;13920;4282.9;5.942;0.0915;NaN;1417.5;NaN;0.085173;4632475;2031;4.8512;0.57764;0.61956;0.33629;0.16668;0.074664;NaN;NaN;NaN;NaN;NaN;NaN;NaN;NaN;0.0029235;140;153.94;70;180;NaN;14.33;1001.2;339.98;0.01;0.009703
0.26;3.4186;29.31;128.42;31.191;136.66;-1.2443;0;1.2443;180;10.668;46.741;52;20;9.8122;5.209;0;0;0;13910;4273;5.9392;0.091493;NaN;1417.2;NaN;0.089164;4849408;2034.5;5.2907;0.57773;0.61658;0.33627;0.16674;0.07472;NaN;NaN;NaN;NaN;NaN;NaN;NaN;NaN;0.0030572;140;153.94;70;180;NaN;14.328;1001.1;339.98;0.01;0.010006
0.27;3.7181;30.594;128.72;32.558;136.98;-1.3533;0;1.3533;180;11.135;46.852;52;20;9.8122;4.9946;0;0;0;13900;4263.1;5.9363;0.091486;NaN;1416.8;NaN;0.093166;5066919;2038;5.7512;0.57782;0.61392;0.33625;0.1668;0.074778;NaN;NaN;NaN;NaN;NaN;NaN;NaN;NaN;0.0031912;140;153.94;70;180;NaN;14.326;1001.1;339.98;0.01;0.010302
0.28;4.0305;31.882;129.03;33.928;137.31;-1.467;0;1.467;180;11.604;46.962;52;20;9.8122;4.7974;0;0;0;13890;4253.2;5.9335;0.091478;NaN;1416.5;NaN;0.097178;5284995;2041.5;6.2328;0.57792;0.61155;0.33622;0.16686;0.07484;NaN;NaN;NaN;NaN;NaN;NaN;NaN;NaN;0.0033255;140;153.94;70;180;NaN;14.324;1001;339.98;0.01;0.010602
0.29;4.3558;33.173;129.33;35.302;137.63;-1.5854;0;1.5854;180;12.074;47.072;52;20;9.8122;4.6153;0;0;0;13880;4243.4;5.9306;0.091471;NaN;1416.2;NaN;0.1012;5503628;2045.1;6.7359;0.57803;0.60943;0.33619;0.16693;0.074904;NaN;NaN;NaN;NaN;NaN;NaN;NaN;NaN;0.0034602;140;153.94;70;180;NaN;14.322;1001;339.98;0.01;0.010899
0.3;4.694;34.467;129.63;36.679;137.95;-1.7085;0;1.7085;180;12.545;47.182;52;20;9.8122;4.4468;0;0;0;13871;4233.5;5.9278;0.091464;NaN;1415.9;NaN;0.10523;5722808;2048.6;7.2605;0.57814;0.60753;0.33617;0.167;0.07497;NaN;NaN;NaN;NaN;NaN;NaN;NaN;NaN;0.0035952;140;153.94;70;180;NaN;14.319;1001;339.98;0.01;0.011199
0.31;5.0452;35.764;128.35;38.059;138.35;-1.8363;0;1.8363;180;13.017;51.641;52;20;9.8122;4.2468;0;0;0;13861;4223.6;5.9249;0.091457;1840.4;1415.6;3.0342;0.1093;5943803;2053;7.8037;0.57825;0.60532;0.33614;0.16707;0.07504;1.3657;4.1438;2.98E-04;0;0;0;0;0;0.0037304;140;153.94;70;180;NaN;14.317;1000.9;339.98;0.015;0.011604
0.325;5.5961;37.691;128.84;40.136;138.86;-2.0374;-1.71E-07;2.0374;-180;13.792;51.807;52;20;9.8122;3.8632;0;1.0966;-1.51E-05;13848;4211.3;5.9213;0.091448;1845.1;1415.2;3.0711;0.11541;6275547;2059.6;8.6408;0.57843;0.60124;0.33609;0.16719;0.075151;1.2331;3.7861;1.35E-04;0;0;0;0;7.58E-04;0.0039369;140;153.94;70.008;180;NaN;14.314;1000.9;339.97;0.0225;0.011907
0.3475;6.4768;40.595;129.6;43.263;139.63;-2.3608;-1.10E-06;2.3608;-180;14.959;51.958;52;20;9.8121;3.3265;0;2.7681;-1.20E-04;13830;4192.7;5.9159;0.091434;1851.9;1414.6;3.124;0.12461;6775627;2069.5;9.9865;0.57872;0.59606;0.33602;0.16738;0.075328;1.0506;3.2779;3.47E-04;0;0;0;0;0.0041416;0.004248;140;153.94;70.052;180;NaN;14.308;1000.8;339.97;0.03375;0.012462
0.38125;7.9208;44.98;130.8;47.984;140.77;-2.8952;-4.10E-06;2.8952;-180;16.711;52.021;52;20;9.8121;2.7384;0;5.3191;-2.55E-04;13802;4164.9;5.9079;0.091414;1859.6;1413.7;3.1854;0.13841;7524661;2084.3;12.219;0.5792;0.59127;0.33589;0.16768;0.075619;0.85494;2.7106;-3.96E-04;0;0;0;0;0.012397;0.0047171;140;153.94;70.188;180;NaN;14.299;1000.6;339.96;0.05;0.012776
0.43125;10.334;51.547;132.72;55.041;142.41;-3.7956;-1.25E-05;3.7956;-180;19.297;51.632;52;20;9.8121;1.9986;0;9.0786;-3.30E-04;13761;4123.6;5.8958;0.091384;1869.7;1412.3;3.2665;0.15895;8639498;2101.9;15.984;0.58;0.58665;0.33569;0.1682;0.076109;0.61501;1.9815;-3.37E-04;0;0;0;0;0.027385;0.0054169;140;153.94;70.548;180;NaN;14.283;1000.3;339.95;0.05;0.013074
0.48125;13.078;58.212;134.8;62.175;143.87;-4.8245;-2.62E-05;4.8245;-180;21.843;50.282;52;20;9.8121;0.9002;-4.20E-07;12.218;-0.0016839;13711;4074.2;5.8813;0.091348;1885;1410.7;3.3879;0.18006;9784938;2119.5;20.356;0.58094;0.58236;0.33545;0.16881;0.076684;0.27092;0.87887;1.33E-04;0;0;0;0;0.038648;0.0061211;140;153.94;71.087;180;NaN;14.265;999.99;339.94;0.05;0.013373
0.53125;16.157;64.985;136.97;69.381;145.29;-5.9786;-4.62E-05;5.9786;-180;24.303;48.447;52;20;9.8121;0.019531;-3.38E-07;-13.092;-0.1517;13662;4024.8;5.8667;0.091313;1898;1409.1;3.492;0.20134;10938228;2137.2;25.427;0.58202;0.58202;0.33517;0.16951;0.077335;0.005774;0.056103;-2.44E-04;0;0;0;0;-0.035495;0.0068272;140;153.94;71.729;180;NaN;14.245;999.63;339.93;0.05;0.013673
0.58125;19.578;71.864;139.06;76.655;146.68;-7.2535;-7.39E-05;7.2535;-180;26.673;46.673;52;20;9.8121;0.53941;-5.20E-07;-11.897;-0.0069358;13612;3975.4;5.8521;0.091277;1890.8;1407.5;3.4521;0.22252;12085159;2154.8;31.137;0.58322;0.58374;0.33487;0.17029;0.078056;0.16153;0.58122;5.69E-05;0;0;0;0;-0.023998;0.0075346;140;153.94;72.362;180;NaN;14.223;999.23;339.92;0.05;0.013972
0.63125;23.346;78.845;141.06;83.994;148.03;-8.6447;-1.11E-04;8.6447;-180;28.957;44.888;52;20;9.8121;1.0489;0;-8.5861;-0.004774;13563;3926;5.8374;0.091241;1883.9;1405.8;3.4151;0.24413;13254235;2170.9;37.638;0.58457;0.58649;0.33453;0.17117;0.078865;0.31807;1.0968;-4.10E-04;0;0;0;0;-0.010386;0.0082435;140;153.94;72.885;180;NaN;14.198;998.78;339.9;0.041357;0.01427
0.67261;26.728;84.693;142.44;90.115;149.07;-9.8802;-1.52E-04;9.8802;-180;30.785;43.944;52;20;9.8121;1.2575;-4.28E-07;-3.6688;-0.003832;13518;3880.9;5.8239;0.091208;1881.4;1404.3;3.4076;0.26217;1.42E+07;2183.5;43.542;0.58581;0.58855;0.33423;0.17198;0.079598;0.3836;1.3089;-4.75E-06;0;0;0;0;-0.0016445;0.0088311;140;153.94;73.144;180;NaN;14.176;998.39;339.89;0.02999;0.014576
0.7026;29.332;88.968;143.2;94.581;149.78;-10.823;-1.87E-04;10.823;-180;32.098;43.888;52;20;9.8121;1.2145;-5.29E-07;0.50405;-0.0039685;13483;3845.6;5.8133;0.091182;1882.2;1403.1;3.4222;0.27527;14937046;2193.7;48.051;0.58677;0.58933;0.33399;0.17261;0.080163;0.37058;1.2677;-3.42E-04;0;0;0;0;2.82E-05;0.0092591;140;153.94;73.192;180;NaN;14.159;998.08;339.88;0.028046;0.014896
0.73064;31.883;92.987;143.83;98.78;150.5;-11.741;-2.25E-04;11.741;-180;33.331;44.297;52;20;9.8121;1.1057;-3.32E-07;4.5417;-0.0030916;13454;3817;5.8046;0.091162;1884;1402.1;3.4418;0.28765;15605285;2203.6;52.5;0.58771;0.58985;0.33375;0.17324;0.080722;0.33699;1.1573;-2.48E-04;0;0;0;0;0.0020937;0.0096614;140;153.94;73.121;180;NaN;14.143;997.78;339.87;0.0281;0.015278
0.75874;34.553;97.028;144.3;103.01;151.23;-12.695;-2.68E-04;12.695;-180;34.586;45.279;52;20;9.8121;0.8835;-2.87E-07;8.3451;-0.0032831;13426;3789.2;5.7963;0.091142;1887.4;1401.2;3.4726;0.30009;16276557;2214.2;57.146;0.58871;0.59009;0.33351;0.17389;0.081309;0.26831;0.92524;-1.77E-04;0;0;0;0;0.0064949;0.010067;140;153.94;72.939;180;NaN;14.125;997.47;339.86;0.032258;0.015673
0.791;37.758;101.68;144.62;107.89;152.1;-13.834;-3.24E-04;13.834;-180;36.071;47.102;52;20;9.8121;0.50537;0;11.655;-0.0024676;13396;3759.4;5.7872;0.09112;1893;1400.2;3.5204;0.3144;17047720;2228.4;62.733;0.58993;0.59039;0.33321;0.1747;0.082015;0.15246;0.52521;3.03E-04;0;0;0;0;0.011542;0.010537;140;153.94;72.612;180;NaN;14.105;997.09;339.85;0.048387;0.015992
0.83939;42.847;108.66;144.74;115.26;153.48;-15.636;-4.24E-04;15.636;-180;38.437;51.051;52;20;9.812;0.29357;0;-12.413;5.14E-04;13357;3719.6;5.7751;0.091091;1896.6;1398.8;3.5554;0.33565;18191873;2245.8;71.653;0.59184;0.592;0.33275;0.17597;0.083123;0.08837;0.32599;-4.39E-04;0;0;0;0;-0.011489;0.011253;140;153.94;72.005;180;NaN;14.071;996.5;339.83;0.05;0.016293
0.88939;48.461;115.88;144.97;122.94;154.71;-17.623;-5.45E-04;17.623;-180;41.066;54.042;52;20;9.812;0.67549;9.65E-07;-7.1483;0.002683;13308;3671;5.7602;0.091056;1891.7;1397.1;3.5327;0.35822;19405341;2259.6;81.95;0.59403;0.59485;0.33222;0.17743;0.08438;0.20555;0.72899;3.90E-04;0;0;0;0;-0.0033456;0.012006;140;153.94;71.5;180;NaN;14.035;995.84;339.8;0.028601;0.016719
0.91799;51.835;120.02;145.17;127.37;155.22;-18.82;-6.24E-04;18.82;-180;42.622;54.942;52;20;9.812;0.73654;8.32E-07;-2.7826;0.0026547;13269;3632.1;5.7483;0.091028;1891.2;1395.8;3.5387;0.37121;20102762;2269;88.186;0.59537;0.59635;0.3319;0.17833;0.08514;0.22478;0.79629;4.02E-05;0;0;0;0;-4.72E-04;0.012441;140;153.94;71.356;180;NaN;14.013;995.44;339.79;0.024343;0.017116
0.94233;54.799;123.56;145.62;131.14;155.72;-19.874;-6.96E-04;19.874;-180;43.962;55.19;52;20;9.812;0.70369;1.05E-06;1.3;0.0026888;13243;3606;5.7403;0.091009;1892;1394.9;3.5508;0.38226;20695824;2277.5;93.654;0.59655;0.59745;0.33162;0.17912;0.085809;0.21491;0.76306;2.02E-04;0;0;0;0;9.72E-05;0.012814;140;153.94;71.338;180;NaN;13.994;995.09;339.78;0.023931;0.017416
0.96626;57.798;127.04;146.31;134.87;156.21;-20.942;-7.72E-04;20.942;-180;45.277;54.728;52;20;9.812;0.55082;1.08E-06;5.0407;0.0039326;13219;3582.1;5.7329;0.090991;1894.4;1394;3.5744;0.39323;21284175;2286.8;99.215;0.59775;0.59831;0.33133;0.17993;0.086492;0.16792;0.59912;-4.63E-04;0;0;0;0;0.0013808;0.013181;140;153.94;71.415;180;NaN;13.974;994.74;339.77;0.028775;0.017721
0.99504;61.514;131.26;147.41;139.37;156.8;-22.267;-8.71E-04;22.267;-180;46.833;53.433;52;20;9.812;0.26753;1.32E-06;8.1419;0.0068156;13193;3556.1;5.7248;0.090972;1898.8;1393.1;3.6125;0.40651;21995787;2299.4;106.24;0.59961;0.59974;0.33098;0.18129;0.087344;0.081217;0.29009;-3.35E-04;0;0;0;0;0.0033713;0.013622;140;153.94;71.609;180;NaN;13.95;994.31;339.75;0.043163;0.018028
1.0382;67.318;137.65;149.29;146.14;157.67;-24.337;-0.0010346;24.337;-180;49.077;50.724;52;20;9.812;0.217;1.74E-06;-8.3127;0.001312;13158;3520.6;5.7138;0.090947;1900.2;1391.8;3.631;0.42659;2.31E+07;2315.9;117.58;0.60308;0.60316;0.33041;0.18398;0.088687;0.066;0.24296;-2.87E-04;0;0;0;0;-0.0031917;0.014283;140;153.94;71.985;180;NaN;13.912;993.63;339.73;0.05;0.018328
1.0882;74.387;145.14;150.89;154.02;158.6;-26.853;-0.0012512;26.853;-180;51.548;48.855;52;20;9.8119;0.48118;-2.39E-06;-2.0661;-0.0014815;13112;3474.6;5.6994;0.090913;1897.2;1390.2;3.6214;0.4498;2.43E+07;2329;131.58;0.60722;0.60765;0.32973;0.18717;0.090319;0.1477;0.53488;-1.77E-04;0;0;0;0;-1.77E-04;0.015045;140;153.94;72.262;-179.99;NaN;13.866;992.8;339.7;0.024538;0.018628
1.1127;77.994;148.84;151.18;157.91;158.84;-28.133;-0.001369;28.133;-180;52.743;48.727;52;20;9.8119;0.49421;-2.17E-06;2.08;2.24E-04;13075;3437.7;5.6879;0.090886;1897.4;1388.9;3.6323;0.46132;24924527;2337.3;138.83;0.60932;0.60978;0.32938;0.18878;0.091161;0.15203;0.5516;2.31E-04;0;0;0;0;1.71E-04;0.01542;140;153.94;72.262;-179.99;NaN;13.843;992.37;339.69;0.022585;0.018925
1.1353;81.394;152.25;151.36;161.49;159.16;-29.337;-0.001484;29.337;-180;53.847;49.221;52;20;9.8119;0.44547;-1.94E-06;6.0428;-1.84E-04;13052;3414.5;5.6805;0.09087;1898.5;1388;3.6459;0.47203;25495649;2344.9;145.75;0.61131;0.61169;0.32904;0.19031;0.091963;0.13714;0.4986;-1.86E-04;0;0;0;0;0.0013779;0.015766;140;153.94;72.17;-179.99;NaN;13.821;991.98;339.67;0.023843;0.019225
1.1592;85.067;155.85;150.95;165.28;159.16;-30.635;-0.0016122;30.635;-180;55.033;50.453;52;20;9.8119;0.29851;-2.28E-06;9.5468;3.15E-04;13028;3391;5.6731;0.090852;1900.9;1387.2;3.6697;0.48334;26097975;2348.6;153.23;0.61345;0.61362;0.32868;0.19194;0.092831;0.09179;0.33373;2.18E-04;0;0;0;0;0.0032806;0.016133;140;153.94;71.982;-179.99;NaN;13.797;991.54;339.66;0.033945;0.019524
1.1931;90.445;160.96;149.88;170.69;159.03;-32.532;-0.0018064;32.532;-180;56.79;53.171;52;20;9.8119;0.011486;-1.50E-06;-11.523;0.069862;12997;3360.2;5.6634;0.09083;1905.6;1386.1;3.7111;0.49938;26951184;2352.4;164.25;0.61654;0.61654;0.32815;0.19429;0.094096;0.0035205;0.017549;-4.60E-05;0;0;0;0;-0.0044781;0.016658;140;153.94;71.613;-179.99;NaN;13.762;990.91;339.64;0.05;0.019821
1.2431;98.679;168.41;148.14;178.63;158.85;-35.44;-0.0021173;35.44;-180;59.563;57.332;52;19.999;9.8119;0.45835;2.79E-06;-5.5326;0.0050448;12952;3314.5;5.6489;0.090797;1900.3;1384.4;3.6852;0.5226;28183393;2355.5;181.15;0.62112;0.62152;0.32735;0.19778;0.096;0.14244;0.526;8.82E-05;0;0;0;0;-9.43E-04;0.01744;140;153.94;71.148;-179.99;NaN;13.709;989.95;339.61;0.018374;0.020116
1.2615;101.8;171.13;148.02;181.55;158.86;-36.545;-0.0022396;36.545;-180;60.622;57.678;52;19.999;9.8119;0.46676;2.66E-06;-1.2791;0.0021137;12914;3277.3;5.637;0.09077;1900.6;1383;3.6974;0.53123;28640896;2357.2;187.64;0.62287;0.62328;0.32704;0.19909;0.09673;0.14532;0.53773;4.09E-04;0;0;0;0;-4.88E-05;0.017729;140;153.94;71.086;-179.99;NaN;13.688;989.58;339.59;0.017364;0.020416
1.2789;104.79;173.7;148.09;184.31;158.73;-37.606;-0.0023593;37.606;-180;61.619;57.121;52;19.999;9.8118;0.38314;2.86E-06;2.4695;-6.06E-04;12895;3257.8;5.6308;0.090756;1902.3;1382.3;3.7143;0.53946;29076666;2358.9;193.91;0.62454;0.62483;0.32675;0.20036;0.097437;0.11927;0.44302;1.95E-04;0;0;0;0;1.76E-04;0.018001;140;153.94;71.097;-179.99;NaN;13.669;989.23;339.58;0.020423;0.020715
1.2993;108.37;176.73;148.4;187.55;158.52;-38.876;-0.0025053;38.876;-180;62.773;55.734;52;19.999;9.8118;0.22047;2.58E-06;5.7292;-6.72E-04;12874;3237.2;5.6242;0.090741;1905.2;1381.5;3.7403;0.54913;29588442;2361.2;201.42;0.62654;0.62664;0.32639;0.20187;0.098282;0.068535;0.25545;-3.35E-05;0;0;0;0;9.16E-04;0.018321;140;153.94;71.183;-179.99;NaN;13.646;988.81;339.57;0.030634;0.021011
1.3299;113.85;181.29;149.05;192.4;158.17;-40.825;-0.0027344;40.825;-180;64.439;52.949;52;19.999;9.8118;0.06476;3.03E-06;-6.9985;-0.012301;12846;3209.4;5.6152;0.090721;1908.3;1380.5;3.7703;0.56358;30352382;2364.7;213.02;0.62957;0.62958;0.32585;0.20415;0.099573;0.020127;0.076702;-1.54E-04;0;0;0;0;-0.0012976;0.018797;140;153.94;71.39;-179.99;NaN;13.61;988.17;339.55;0.045951;0.021342
1.3759;122.34;188.15;149.55;199.66;157.65;-43.84;-0.0031007;43.84;-180;66.79;49.887;52;19.999;9.8118;0.33592;4.70E-07;-0.7418;-0.0017056;12805;3167.7;5.6018;0.09069;1906.2;1378.9;3.766;0.58522;31493955;2367.7;231.24;0.63421;0.63443;0.32501;0.20763;0.10157;0.10549;0.39768;4.10E-04;0;0;0;0;-1.35E-05;0.019502;140;153.94;71.592;-179.99;NaN;13.555;987.17;339.51;0.019272;0.021649
1.3951;126;191.04;149.44;202.69;157.54;-45.137;-0.0032625;45.137;-180;67.75;49.862;52;19.999;9.8118;0.33135;5.67E-07;3.3898;-0.003094;12769;3132.2;5.5902;0.090665;1907;1377.6;3.7813;0.59429;31971261;2369.5;239.09;0.6362;0.63641;0.32465;0.20912;0.10243;0.10426;0.39414;1.58E-04;0;0;0;0;2.74E-04;0.019796;140;153.94;71.566;-179.99;NaN;13.531;986.74;339.5;0.018826;0.02195
1.414;129.62;193.85;148.92;205.66;157.35;-46.421;-0.0034251;46.421;-180;68.697;50.803;52;19.999;9.8118;0.24077;9.18E-07;6.9815;-0.0021496;12749;3111.4;5.5835;0.09065;1909;1376.8;3.8014;0.60308;32433901;2371.5;246.83;0.63814;0.63825;0.3243;0.21057;0.10327;0.075774;0.28664;-1.63E-05;0;0;0;0;0.001128;0.020084;140;153.94;71.467;-179.99;NaN;13.507;986.32;339.48;0.025117;0.022246
1.4391;134.53;197.57;147.84;209.61;157.07;-48.163;-0.0036499;48.163;-180;70;53.048;52;19.999;9.8118;0.044898;1.04E-06;9.4483;0.0074131;12725;3087.5;5.5757;0.090632;1912.8;1375.9;3.8351;0.61478;33048290;2374.3;257.35;0.64076;0.64076;0.32382;0.21252;0.10441;0.014113;0.052532;2.63E-04;0;0;0;0;0.0019884;0.020469;140;153.94;71.254;-179.99;NaN;13.476;985.74;339.47;0.037676;0.022546
1.4767;142.08;203.11;146.1;215.52;156.65;-50.839;-0.0040046;50.839;-180;72.068;56.493;52;19.999;9.8117;0.23029;1.65E-06;-6.5512;0.0022565;12690;3053.3;5.5645;0.090607;1911.9;1374.6;3.8379;0.63224;33964010;2377.1;273.67;0.64473;0.64484;0.32309;0.21549;0.10616;0.072977;0.28103;4.61E-04;0;0;0;0;-9.04E-04;0.02105;140;153.94;70.932;-179.99;NaN;13.426;984.86;339.44;0.023265;0.022842
1.5;146.85;206.5;145.51;219.16;156.42;-52.531;-0.0042344;52.531;-180;73.395;57.38;52;19.999;9.8117;0.289;1.11E-06;-1.7823;0.0034121;12657;3020.1;5.5536;0.090583;1912.2;1373.3;3.849;0.64299;34526675;2379;284.01;0.64722;0.64739;0.32262;0.21733;0.10726;0.091942;0.3543;3.59E-04;0;0;0;0;-6.47E-05;0.021411;140;153.94;70.832;-179.99;NaN;13.395;984.3;339.42;0.017818;0.023142
1.5178;150.55;209.09;145.42;221.94;156.16;-53.848;-0.004416;53.848;-180;74.415;56.909;52;19.999;9.8117;0.24498;1.09E-06;2.0444;0.0033044;12635;2997.7;5.5462;0.090567;1913.7;1372.5;3.8657;0.65125;34958416;2380.8;292.07;0.64915;0.64928;0.32227;0.21877;0.10812;0.078035;0.30194;3.06E-04;0;0;0;0;8.30E-05;0.021687;140;153.94;70.836;-179.99;NaN;13.371;983.86;339.4;0.020363;0.023438
1.5382;154.84;212.06;145.63;225.12;155.8;-55.375;-0.0046296;55.375;-180;75.56;55.382;52;19.999;9.8117;0.12757;1.15E-06;5.2076;0.0022434;12614;2977;5.5393;0.090552;1916.3;1371.7;3.8904;0.66067;3.55E+07;2383.1;301.42;0.65138;0.65142;0.32185;0.22042;0.10911;0.040642;0.15748;1.09E-04;0;0;0;0;5.23E-04;0.022001;140;153.94;70.912;-179.99;NaN;13.344;983.36;339.39;0.030544;0.023736
1.5687;161.38;216.51;146.04;229.87;155.23;-57.708;-0.0049626;57.708;-180;77.207;52.627;52;19.999;9.8117;0.059723;1.33E-06;-5.8381;-0.0038479;12586;2949.2;5.5302;0.090532;1918.8;1370.6;3.9161;0.67464;36178304;2386.6;315.65;0.65473;0.65474;0.32122;0.2229;0.11061;0.019073;0.075756;4.38E-04;0;0;0;0;-6.31E-04;0.022467;140;153.94;71.093;-179.99;NaN;13.301;982.59;339.36;0.045816;0.024036
1.6146;171.46;223.21;146.02;236.96;154.38;-61.299;-0.0054918;61.299;-179.99;79.555;50.119;52;19.999;9.8116;0.20311;-7.69E-06;0.028331;0.0014249;12545;2907.6;5.5163;0.090502;1919.3;1369;3.931;0.69555;37266041;2389.6;337.77;0.65984;0.65992;0.32026;0.22667;0.11291;0.065443;0.25679;-1.08E-04;0;0;0;0;1.40E-08;0.023159;140;153.94;71.242;-179.99;NaN;13.236;981.41;339.32;0.020929;0.024335
1.6355;176.16;226.26;145.68;240.19;154.07;-62.975;-0.0057459;62.975;-179.99;80.603;50.171;52;19.999;9.8116;0.19415;-7.72E-06;4.1646;0.0063716;12508;2871.3;5.5042;0.090475;1920.6;1367.5;3.9506;0.70526;3.78E+07;2391.6;348.33;0.66225;0.66233;0.3198;0.22845;0.114;0.062724;0.24742;8.49E-05;0;0;0;0;2.94E-04;0.023473;140;153.94;71.198;-179.99;NaN;13.205;980.86;339.3;0.021094;0.024633
1.6566;180.97;229.33;144.78;243.44;153.68;-64.687;-0.006009;64.687;-179.99;81.673;51.542;52;19.999;9.8116;0.10063;-7.77E-06;7.4026;0.018951;12485;2848.4;5.4965;0.090459;1923.1;1366.6;3.975;0.71499;38274297;2394;359.09;0.66469;0.66471;0.31933;0.23025;0.11511;0.032546;0.12825;3.95E-04;0;0;0;0;9.03E-04;0.023789;140;153.94;71.073;-179.99;NaN;13.174;980.3;339.28;0.031641;0.024939
1.6882;188.29;233.88;142.77;248.29;152.88;-67.297;-0.0064157;67.297;-179.99;83.356;54.672;52;19.999;9.8116;0.10278;-6.04E-06;-7.1865;0.015799;12457;2819.7;5.4869;0.090438;1925;1365.5;3.9962;0.72943;39021820;2392.2;375.49;0.66837;0.66839;0.31863;0.23295;0.11678;0.033394;0.1343;2.46E-04;0;0;0;0;-8.18E-04;0.024266;140;153.94;70.826;-179.99;NaN;13.126;979.44;339.25;0.036264;0.025238
1.7245;196.87;239.02;137.23;253.81;147.74;-70.357;-0.0069036;70.357;-179.99;85.375;54.728;52;19.999;9.8116;0.19231;-6.78E-06;-0.58265;0.006504;12420;2782.7;5.4744;0.090411;1925.9;1364;4.0135;0.74582;39867337;2359.5;394.66;0.67261;0.67268;0.31782;0.23606;0.11872;0.062924;0.25293;5.84E-05;0;0;0;0;-5.15E-06;0.024814;140;153.94;70.677;-179.99;NaN;13.07;978.43;339.22;0.018396;0.025537
1.7429;201.29;241.57;135.67;256.55;145.78;-71.937;-0.0071619;71.937;-179.99;86.383;53.34;52;19.999;9.8115;0.14154;-6.80E-06;3.0402;0.0028121;12390;2753.1;5.4643;0.090389;1927.7;1362.8;4.0348;0.75392;40284162;2298.3;404.31;0.67473;0.67477;0.31741;0.23762;0.1197;0.046389;0.18659;2.42E-04;0;0;0;0;1.37E-04;0.025085;140;153.94;70.702;-179.99;NaN;13.042;977.91;339.2;0.024372;0.025839
1.7672;207.22;244.84;118.6;260.05;126.92;-74.057;-0.0075155;74.057;-179.99;87.644;45.186;52;19.999;9.8115;0.027643;-6.73E-06;5.4697;-0.0023647;12367;2730.2;5.4566;0.090373;1930.7;1361.9;4.0628;0.76419;40811110;2092.1;416.76;0.67745;0.67745;0.31689;0.23961;0.12095;0.0090712;0.03651;-1.35E-04;0;0;0;0;4.32E-04;0.025431;140;153.94;70.811;-179.99;NaN;13.003;977.22;339.18;0.036557;0.026137
1.8038;216.25;249.16;115.2;264.66;122.25;-77.291;-0.0080662;77.291;-179.99;89.229;40.919;52;19.999;9.8115;0.12143;-9.03E-06;-2.9421;-0.0043235;12337;2700.3;5.4464;0.090351;1931.3;1360.7;4.0758;0.77766;41496388;2060.2;433.42;0.68105;0.68108;0.31619;0.24225;0.12262;0.040111;0.16401;-1.31E-04;0;0;0;0;-1.21E-04;0.025883;140;153.94;70.982;-179.99;NaN;12.944;976.16;339.14;0.026021;0.026433
1.8298;222.77;252.16;113.47;267.84;120.19;-79.626;-0.0084711;79.626;-179.99;90.281;39.603;52;19.999;9.8115;0.15494;-7.52E-06;2.0357;-0.003446;12308;2671.1;5.4364;0.09033;1932.2;1359.5;4.0907;0.78719;4.20E+07;2041.3;445.46;0.68363;0.68368;0.31568;0.24414;0.12381;0.051389;0.2104;-2.32E-05;0;0;0;0;5.64E-05;0.026193;140;153.94;70.996;-179.99;NaN;12.902;975.39;339.12;0.019776;0.02674
1.8496;227.78;254.41;111.54;270.22;118.56;-81.419;-0.0087857;81.419;-179.99;91.073;40.194;52;19.999;9.8115;0.094968;-8.79E-06;5.4249;-0.0063109;12287;2650;5.4291;0.090315;1934.1;1358.7;4.1102;0.79431;4.23E+07;2020.9;454.55;0.68558;0.6856;0.31531;0.24556;0.12472;0.031543;0.1297;-3.53E-04;0;0;0;0;3.94E-04;0.026425;140;153.94;70.92;-179.99;NaN;12.869;974.81;339.1;0.029664;0.027041
1.8793;235.37;257.68;107.63;273.71;115.4;-84.139;-0.0092707;84.139;-179.99;92.296;41.651;52;19.999;9.8114;0.029063;-8.99E-06;-6.7456;-0.02432;12264;2627.2;5.4213;0.090298;1936.6;1357.7;4.1346;0.80495;42877676;1990.2;468.36;0.68851;0.68851;0.31473;0.2477;0.12608;0.009679;0.040521;-2.75E-04;0;0;0;0;-5.93E-04;0.02677;140;153.94;70.728;-179.99;NaN;12.82;973.92;339.07;0.044495;0.02734
1.9238;246.94;262.41;102.2;278.8;110.71;-88.288;-0.010036;88.288;-179.99;94.197;42.558;52;19.999;9.8114;0.14478;1.77E-06;-0.83683;-0.0062546;12230;2593;5.4095;0.090273;1937.3;1356.3;4.1496;0.82016;43641572;1964;488.57;0.69276;0.6928;0.3139;0.25079;0.12807;0.048608;0.20175;-3.34E-04;0;0;0;0;-8.79E-06;0.027276;140;153.94;70.546;-179.99;NaN;12.745;972.56;339.02;0.01896;0.02766
1.9427;251.94;264.36;101.63;280.91;109.86;-90.082;-0.010376;90.082;-179.99;95.005;41.723;52;19.999;9.8114;0.114;2.58E-06;2.9339;-0.0075346;12201;2563.7;5.3993;0.090252;1938.6;1355.1;4.168;0.82635;43950911;1946.4;496.91;0.6945;0.69453;0.31356;0.25206;0.12888;0.038348;0.15969;4.41E-04;0;0;0;0;1.06E-04;0.027487;140;153.94;70.567;-179.99;NaN;12.712;971.97;339;0.023566;0.027968
1.9663;258.2;266.76;100.29;283.49;107.36;-92.332;-0.010809;92.332;-179.99;95.957;38.311;52;19.999;9.8114;0.015738;2.88E-06;-4.8798;-0.085888;12181;2544.1;5.3925;0.090238;1941.2;1354.3;4.1919;0.83405;44334957;1923.7;507.4;0.69669;0.69669;0.31313;0.25365;0.12991;0.0053004;0.022192;-4.65E-04;0;0;0;0;-2.89E-04;0.027742;140;153.94;70.668;-179.99;NaN;12.672;971.24;338.98;0.03535;0.028267
2.0016;267.69;270.3;98.564;287.26;104.5;-95.747;-0.011469;95.747;-179.99;97.242;34.719;52;19.999;9.8113;0.14175;2.47E-06;0.54649;-0.006691;12155;2517.5;5.3833;0.090218;1941.2;1353.2;4.2002;0.84541;4.49E+07;1909.8;523.18;0.69995;0.69999;0.31249;0.25602;0.13144;0.04808;0.20242;-3.64E-04;0;0;0;0;3.53E-06;0.028112;140;153.94;70.758;-179.99;NaN;12.61;970.13;338.94;0.017743;0.02857
2.0194;272.5;272.05;97.622;289.12;103.74;-97.478;-0.011806;97.478;-179.99;97.863;35.086;52;19.999;9.8113;0.1126;2.50E-06;4.3158;-0.007004;12131;2494.4;5.3752;0.090202;1942.5;1352.2;4.2162;0.85101;45177091;1900.6;531.04;0.70157;0.70159;0.31217;0.2572;0.1322;0.038263;0.16159;-8.15E-05;0;0;0;0;2.17E-04;0.028293;140;153.94;70.714;-179.99;NaN;12.579;969.56;338.92;0.021916;0.028869
2.0413;278.49;274.17;95.365;291.38;102.23;-99.631;-0.012228;99.631;-179.99;98.652;36.822;52;19.999;9.8113;0.011551;2.61E-06;6.6312;-0.089828;12115;2477.6;5.3693;0.090189;1945;1351.5;4.2389;0.85784;45515103;1888;540.72;0.70355;0.70355;0.31177;0.25864;0.13314;0.0039288;0.016379;3.21E-05;0;0;0;0;5.05E-04;0.028516;140;153.94;70.587;-179.99;NaN;12.54;968.86;338.9;0.032874;0.02917
2.0742;287.55;277.27;91.966;294.72;99.933;-102.89;-0.012881;102.89;-179.99;99.915;39.102;52;19.998;9.8113;0.12143;-7.31E-07;-2.9552;-0.0028126;12091;2454.3;5.3611;0.090173;1945.1;1350.5;4.2467;0.86784;46006978;1875.9;555.11;0.70648;0.70652;0.31119;0.26077;0.13453;0.04157;0.17626;1.83E-04;0;0;0;0;-9.80E-05;0.028849;140;153.94;70.414;-179.99;NaN;12.481;967.8;338.86;0.019305;0.029637
2.0935;292.92;279.05;91.087;296.65;98.956;-104.83;-0.013278;104.83;-179.99;100.67;38.67;52;19.998;9.8113;0.11302;-4.22E-07;1.1606;-0.004223;12069;2432.2;5.3533;0.090157;1946.1;1349.6;4.2608;0.87359;46288778;1866.8;563.47;0.70818;0.70821;0.31086;0.262;0.13533;0.038785;0.16574;-6.06E-05;0;0;0;0;1.49E-05;0.029042;140;153.94;70.397;-179.99;NaN;12.446;967.17;338.84;0.020244;0.029936
2.1137;298.59;280.89;90.331;298.65;97.523;-106.88;-0.013706;106.88;-179.99;101.44;36.756;52;19.998;9.8112;0.048454;0;4.0878;-0.01071;12052;2415.4;5.3474;0.090144;1948;1348.9;4.279;0.87946;46575654;1855.1;572.06;0.70993;0.70993;0.31051;0.26326;0.13615;0.016652;0.070824;-3.70E-04;0;0;0;0;1.83E-04;0.029242;140;153.94;70.454;-179.99;NaN;12.409;966.5;338.82;0.030366;0.030233
2.1441;307.16;283.63;89.19;301.59;95.202;-109.97;-0.014361;109.97;-179.99;102.51;33.296;52;19.998;9.8112;0.065209;-1.70E-06;-3.3415;-0.0076058;12031;2394;5.3398;0.090129;1949.2;1348;4.294;0.88807;46994352;1840.4;584.82;0.7125;0.71251;0.31;0.26513;0.13738;0.022506;0.096676;4.78E-04;0;0;0;0;-1.20E-04;0.029533;140;153.94;70.581;-179.99;NaN;12.353;965.5;338.79;0.033557;0.030534
2.1776;316.73;286.62;87.112;304.77;92.913;-113.43;-0.015102;113.43;-179.99;103.6;32.317;52;19.998;9.8112;0.07133;-3.61E-06;1.6758;-0.0085072;12004;2366.8;5.3302;0.090109;1950.6;1346.8;4.3128;0.89741;47446777;1825.8;598.85;0.71532;0.71533;0.30944;0.26717;0.13871;0.02473;0.10699;-1.66E-04;0;0;0;0;2.95E-05;0.029845;140;153.94;70.605;-179.99;NaN;12.291;964.37;338.75;0.029676;0.030832
2.2073;325.27;289.18;84.482;307.52;91.031;-116.52;-0.015774;116.52;-179.99;104.59;33.903;52;19.998;9.8112;0.020107;-3.86E-06;-3.1725;-0.0030211;11977;2340;5.3206;0.09009;1952.7;1345.7;4.3356;0.90549;47836325;1808.7;612.18;0.719;0.719;0.30838;0.27074;0.13988;0.0069916;0.030108;1.52E-04;0;0;0;0;-1.04E-04;0.030117;140;153.94;70.521;-179.99;NaN;12.236;963.37;338.71;0.044513;0.031133
2.2518;338.23;292.89;81.025;311.53;87.601;-121.21;-0.016815;121.21;-179.99;106.12;33.301;52;19.998;9.8111;0.040599;-2.32E-06;1.2944;0.010043;11946;2308.6;5.3094;0.090067;1954.4;1344.3;4.3575;0.91728;48401142;1787.1;632.69;0.72525;0.72525;0.30643;0.27721;0.14161;0.014204;0.061849;-4.26E-04;0;0;0;0;1.68E-05;0.030518;140;153.94;70.494;-179.99;NaN;12.152;961.85;338.66;0.04907;0.031432
2.3009;352.7;296.86;78.333;315.78;84.042;-126.46;-0.018018;126.46;-179.99;107.68;30.445;52;19.998;9.8111;0.025152;-3.55E-06;0.0025296;-5.92E-05;11906;2268.9;5.2951;0.090038;1956.7;1342.6;4.3864;0.92992;49001950;1765;655.13;0.732;0.732;0.30435;0.28417;0.14348;0.0088522;0.038636;2.66E-04;0;0;0;0;0;0.03094;140;153.94;70.55;-179.99;NaN;12.057;960.16;338.61;0.05;0.031734
2.3509;367.64;300.74;74.868;319.95;80.715;-131.88;-0.019296;131.88;-179.99;109.21;30.161;52;19.998;9.811;0.0045326;5.76E-06;-1.1606;0.085496;11865;2228.2;5.2805;0.090008;1959.1;1340.8;4.4159;0.94241;49591291;1744.1;677.79;0.73873;0.73873;0.3023;0.29108;0.14536;0.0016043;0.0075819;-1.34E-04;0;0;0;0;-1.28E-05;0.031353;140;153.94;70.488;-179.99;NaN;11.96;958.4;338.55;0.05;0.032034
2.4009;382.77;304.45;71.734;323.95;77.364;-137.38;-0.020616;137.38;-179.99;110.71;28.975;52;19.998;9.811;2.22E-04;9.38E-06;-0.46769;-0.17699;11826;2188.8;5.2662;0.08998;1961.1;1339.1;4.4427;0.95441;50151802;1723.4;700.17;0.74544;0.74544;0.30032;0.29794;0.14719;7.90E-05;-3.01E-06;-3.05E-04;0;0;0;0;-2.03E-06;0.031751;140;153.94;70.458;-179.99;NaN;11.862;956.63;338.49;0.05;0.032336
2.4509;398.08;308;68.518;327.78;73.979;-142.95;-0.021997;142.95;-179.99;112.14;27.894;52;19.998;9.8109;9.30E-04;7.85E-06;1.5266;0.022168;11787;2149.7;5.2519;0.089951;1962.9;1337.4;4.4683;0.96611;50694010;1702.6;722.74;0.75237;0.75237;0.29839;0.30499;0.14899;3.33E-04;0.0016764;-4.11E-04;0;0;0;0;2.11E-05;0.032132;140;153.94;70.396;-179.99;NaN;11.762;954.83;338.43;0.05;0.032635
2.5009;413.56;311.39;65.349;331.44;70.656;-148.59;-0.023424;148.59;-179.99;113.54;26.865;52;19.998;9.8109;8.46E-04;1.13E-05;-0.28667;-0.14097;11748;2110.6;5.2376;0.089923;1964.7;1335.6;4.493;0.97709;5.12E+07;1681.8;744.33;0.75891;0.75891;0.29659;0.31163;0.1507;3.04E-04;9.20E-04;4.98E-04;0;0;0;0;-7.29E-07;0.032498;140;153.94;70.364;-179.98;NaN;11.662;953.09;338.37;0.05;0.03294
2.5509;429.21;314.63;62.181;334.94;67.33;-154.3;-0.024913;154.3;-179.99;114.86;25.824;52;19.998;9.8108;0.0011678;9.23E-06;-1.2155;-0.48806;11709;2071.5;5.2232;0.089895;1966.3;1333.9;4.5171;0.98777;51688265;1661;765.7;0.76532;0.76532;0.29483;0.3181;0.15239;4.22E-04;0.0020166;2.17E-04;0;0;0;0;-1.28E-05;0.032846;140;153.94;70.309;-179.98;NaN;11.56;951.34;338.3;0.05;0.03324
2.6009;445.02;317.7;59.123;338.27;64.068;-160.08;-0.026465;160.08;-179.99;116.15;24.683;52;19.998;9.8108;0.001486;6.60E-06;0.44066;0.043395;11669;2032.4;5.2087;0.089866;1967.8;1332.1;4.5402;0.9978;5.21E+07;1640.2;786.03;0.77137;0.77137;0.29318;0.32421;0.15398;5.39E-04;0.0023122;-1.19E-04;0;0;0;0;1.65E-06;0.03318;140;153.94;70.281;-179.98;NaN;11.457;949.58;338.24;0.05;0.033543
2.6509;460.98;320.62;56.002;341.43;60.8;-165.91;-0.028056;165.91;-179.99;117.37;23.674;52;19.998;9.8107;8.77E-04;7.02E-06;-0.39674;-0.018378;11631;1993.6;5.1943;0.089838;1969.1;1330.4;4.5625;1.0073;52561963;1620.4;807.21;0.77876;0.77876;0.29161;0.33392;0.15322;3.19E-04;0.0011161;1.30E-04;0;0;0;0;-1.32E-06;0.033497;140;153.94;70.258;-179.98;NaN;11.354;947.8;338.18;0.05;0.033841
2.7009;477.08;323.39;53.124;344.44;57.653;-171.81;-0.029703;171.81;-179.99;118.55;22.401;52;19.997;9.8107;0.0052281;1.12E-05;-0.46471;0.017965;11593;1956.1;5.1803;0.089811;1970.3;1328.7;4.5829;1.0161;52944711;1601.1;826.84;0.78546;0.78546;0.29017;0.3434;0.1519;0.0019094;0.0086066;7.66E-06;0;0;0;0;-1.78E-06;0.033798;140;153.94;70.279;-179.98;NaN;11.249;946;338.12;0.05;0.034139
2.7509;493.32;326.02;49.914;347.28;54.502;-177.77;-0.031401;177.77;-179.99;119.65;21.887;52;19.997;9.8106;0.010441;-4.97E-06;-1.2075;-0.065546;11557;1919.7;5.1666;0.089785;1971.3;1327;4.6026;1.0248;53324663;1581.7;846.8;0.79224;0.79224;0.28872;0.35292;0.1506;0.0038247;0.017686;5.34E-05;0;0;0;0;-1.18E-05;0.034083;140;153.94;70.214;-179.98;NaN;11.143;944.18;338.05;0.05;0.034439
2.8009;509.68;328.49;47.177;349.97;51.374;-183.78;-0.03317;183.78;-179.99;120.73;20.34;52;19.997;9.8106;0.0053554;-1.00E-05;0.55278;0.022314;11520;1883.3;5.1529;0.089758;1972.4;1325.3;4.6225;1.033;53668260;1562.3;865.45;0.79857;0.79857;0.28739;0.36177;0.14941;0.0019663;0.0092024;1.53E-04;0;0;0;0;2.43E-06;0.034354;140;153.94;70.206;-179.98;NaN;11.037;942.35;337.99;0.05;0.034739
2.8509;526.16;330.81;44.57;352.51;48.436;-189.84;-0.034968;189.84;-179.99;121.76;18.964;52;19.997;9.8105;0.015246;-1.09E-05;-1.3682;0.012243;11484;1846.8;5.1391;0.089732;1973.2;1323.6;4.6399;1.0401;53961305;1543.1;881.96;0.80421;0.80421;0.28621;0.36961;0.14838;0.00561;0.026038;6.26E-05;0;0;0;0;-1.47E-05;0.03461;140;153.94;70.266;-179.98;NaN;10.93;940.51;337.92;0.05;0.035037
2.9009;542.76;333.01;41.476;354.89;45.776;-195.95;-0.036827;195.95;-179.99;122.7;19.371;52;19.997;9.8105;0.022646;1.53E-05;-0.77244;0.0058586;11448;1810.7;5.1253;0.089705;1973.9;1321.9;4.6575;1.0476;54266036;1526.7;899.39;0.81011;0.81011;0.28499;0.37779;0.14733;0.0083494;0.038808;-2.85E-04;0;0;0;0;-4.62E-06;0.03485;140;153.94;70.181;-179.98;NaN;10.822;938.66;337.86;0.05;0.035334
2.9509;559.46;335.07;39.46;357.15;43.355;-202.11;-0.038735;202.11;-179.99;123.61;17.959;52;19.997;9.8104;0.0037571;1.64E-05;-1.747;0.037529;11413;1775.5;5.1119;0.08968;1975;1320.2;4.6766;1.0546;54549077;1511.3;913;0.81304;0.81304;0.28383;0.38287;0.14635;0.0013869;0.0060601;-2.95E-04;0;0;0;0;-2.33E-05;0.035078;140;153.94;70.149;-179.98;NaN;10.714;936.79;337.79;0.05;0.035637
3.0009;576.26;337.03;37.666;359.29;41.145;-208.31;-0.040699;208.31;-179.99;124.51;16.558;52;19.997;9.8104;0.015526;1.85E-05;0.41755;-0.0089341;11378;1741.1;5.0986;0.089655;1975.5;1318.6;4.6921;1.0611;54801426;1495.8;924;0.81445;0.81445;0.28276;0.38624;0.14545;0.0057399;0.026898;-4.36E-04;0;0;0;0;1.32E-06;0.035296;140;153.94;70.149;-179.98;NaN;10.604;934.92;337.73;0.05;0.035943
3.0509;593.16;338.88;35.534;361.33;39.063;-214.56;-0.042727;214.56;-179.99;125.37;16.225;52;19.997;9.8103;0.0048184;2.47E-05;-0.41683;-0.0075864;11344;1706.7;5.0853;0.08963;1976.3;1317;4.7093;1.0672;55033418;1480.4;934.34;0.81581;0.81581;0.28175;0.38944;0.14462;0.0017829;0.0084194;-2.85E-04;0;0;0;0;-1.30E-06;0.035503;140;153.94;70.128;-179.98;NaN;10.494;933.03;337.66;0.05;0.036242
3.1009;610.15;340.64;33.253;363.26;37.025;-220.85;-0.044817;220.85;-179.99;126.18;16.283;52;19.997;9.8103;0.015913;5.38E-06;-0.58876;0.035711;11309;1672.2;5.0719;0.089605;1976.7;1315.3;4.7242;1.0732;55259391;1464.9;944.56;0.81716;0.81716;0.28076;0.39259;0.14381;0.0058946;0.027991;2.41E-04;0;0;0;0;-2.56E-06;0.035699;140;153.94;70.068;-179.98;NaN;10.384;931.13;337.59;0.05;0.036542
3.1509;627.22;342.3;31.359;365.09;34.775;-227.18;-0.046954;227.18;-179.99;126.95;15.03;52;19.997;9.8102;0.0017334;-1.18E-05;-1.161;0.60517;11275;1638;5.0586;0.08958;1977.4;1313.7;4.7411;1.0789;55463950;1448;954.05;0.81843;0.81843;0.27983;0.39555;0.14305;6.42E-04;0.0027754;-1.78E-04;0;0;0;0;-9.86E-06;0.035885;140;153.94;70.054;-179.98;NaN;10.273;929.22;337.52;0.05;0.036842
3.2009;644.38;343.86;29.347;366.8;32.507;-233.54;-0.049122;233.54;-179.99;127.7;13.981;52;19.997;9.8102;0.0068474;-1.71E-05;0.94367;0.036226;11242;1604.7;5.0456;0.089556;1977.8;1312;4.7555;1.0843;55654988;1430.3;963.08;0.81966;0.81966;0.27894;0.39838;0.14234;0.0025391;0.011703;-4.86E-04;0;0;0;0;6.45E-06;0.036061;140;153.94;70.02;-179.98;NaN;10.162;927.31;337.46;0.05;0.037142
3.2509;661.61;345.31;27.268;368.41;30.334;-239.94;-0.051335;239.94;-179.99;128.41;13.291;52;19.996;9.8101;0.0057336;-1.61E-05;0.2301;-0.042162;11209;1572.2;5.0328;0.089532;1978.2;1310.5;4.7699;1.0893;55822815;1412.5;971.27;0.8208;0.8208;0.27812;0.401;0.14169;0.0021268;0.0097015;1.74E-04;0;0;0;0;3.80E-07;0.036227;140;153.94;69.99;-179.98;NaN;10.05;925.38;337.39;0.05;0.037441
3.3009;678.9;346.65;25.511;369.91;28.223;-246.38;-0.053614;246.38;-179.99;129.1;12.073;52;19.996;9.8101;0.018663;-2.15E-05;-0.85979;-0.013075;11177;1539.7;5.0199;0.089509;1978.4;1308.9;4.7826;1.0935;55951001;1394.8;977.94;0.82178;0.82178;0.27742;0.40322;0.14114;0.0069264;0.033203;-2.36E-04;0;0;0;0;-5.27E-06;0.036382;140;153.94;70.037;-179.98;NaN;9.9371;923.45;337.32;0.05;0.037741
3.3509;696.27;347.9;22.925;371.3;26.349;-252.85;-0.055918;252.85;-179.99;129.73;12.989;52;19.996;9.81;0.023985;-1.28E-05;0.54176;-0.026302;11144;1507.2;5.007;0.089485;1978.7;1307.2;4.796;1.0979;56089494;1377.3;985.09;0.82282;0.82282;0.27669;0.40556;0.14057;0.0089037;0.042506;-1.84E-04;0;0;0;0;2.08E-06;0.036526;140;153.94;69.955;-179.98;NaN;9.8243;921.51;337.25;0.049064;0.038045
3.4;713.37;349.04;21.397;372.57;24.54;-259.23;-0.058221;259.23;-179.99;130.3;12.016;52;19.996;9.81;0.014206;5.58E-06;-1.2382;-0.06822;11112;1475.1;4.9942;0.089462;1979.1;1305.7;4.8102;1.1018;56197017;1361.8;990.67;0.82345;0.82345;0.27619;0.40718;0.14008;0.005273;0.02542;-2.62E-04;0;0;0;0;-1.08E-05;0.036656;140;153.94;69.962;-179.98;NaN;9.7131;919.6;337.19;0.05;0.038344
3.45;730.85;350.12;19.928;373.78;22.767;-265.76;-0.060643;265.76;-179.99;130.86;11.01;52;19.996;9.8099;0.0026679;2.26E-05;-1.9894;-0.43448;11081;1443.8;4.9817;0.089439;1979.5;1304.1;4.8244;1.1058;5.63E+07;1347.3;996.17;0.82379;0.82379;0.27583;0.40838;0.13957;9.90E-04;0.0043583;-1.70E-04;0;0;0;0;-2.76E-05;0.036782;140;153.94;69.919;-179.98;NaN;9.5995;917.64;337.12;0.05;0.038644
3.5;748.38;351.11;18.547;374.89;21.007;-272.32;-0.063133;272.32;-179.99;131.41;9.8637;52;19.996;9.8099;0.012849;2.59E-05;1.6419;0.017005;11050;1412.8;4.9692;0.089417;1979.6;1302.5;4.8364;1.1096;56413345;1332.8;1001.3;0.82412;0.82412;0.27549;0.40954;0.13909;0.0047689;0.022642;1.33E-04;0;0;0;0;1.87E-05;0.036899;140;153.94;69.869;-179.98;NaN;9.4856;915.69;337.05;0.05;0.038943
3.55;765.95;352.01;17.507;375.93;19.488;-278.9;-0.065669;278.9;-179.99;131.95;8.5599;52;19.996;9.8098;0.033724;1.27E-05;-0.27927;0.02522;11019;1381.8;4.9567;0.089394;1979.5;1301;4.847;1.1128;56482297;1322;1005.2;0.8244;0.8244;0.2752;0.4105;0.1387;0.01252;0.061026;-4.91E-04;0;0;0;0;-5.38E-07;0.037009;140;153.94;69.879;-179.98;NaN;9.3713;913.72;336.98;0.033218;0.039246
3.5832;777.66;352.59;16.423;376.58;18.963;-283.29;-0.067391;283.29;-179.99;132.25;9.4804;52;19.996;9.8098;0.0042619;2.03E-05;2.4736;-0.046954;10994;1356.5;4.9465;0.089376;1980.1;1299.7;4.8599;1.1149;56531420;1312.4;1007.9;0.82459;0.82459;0.27501;0.41116;0.13843;0.0015812;0.0077962;-4.60E-04;0;0;0;0;4.21E-05;0.037076;140;153.94;69.822;-179.98;NaN;9.2952;912.41;336.93;0.049826;0.039547
3.633;795.24;353.39;15.319;377.5;17.387;-289.89;-0.070015;289.89;-179.99;132.74;8.2244;52;19.996;9.8097;0.023549;5.24E-05;0.52907;-0.046572;10969;1331.6;4.9363;0.089358;1980;1298.4;4.8684;1.1179;56587068;1301.3;1011.4;0.82485;0.82485;0.27474;0.41205;0.13806;0.0087384;0.043036;1.78E-04;0;0;0;0;1.92E-06;0.037175;140;153.94;69.816;-179.98;NaN;9.1809;910.45;336.86;0.04665;0.039846
3.6797;811.75;354.08;13.895;378.3;16.516;-296.1;-0.072514;296.1;-179.99;133.19;8.928;52;19.996;9.8097;0.0041482;6.43E-05;1.4148;-0.31797;10940;1302.8;4.9246;0.089337;1980.3;1296.9;4.8816;1.1202;56616217;1290.2;1013.7;0.82506;0.82506;0.27453;0.41274;0.13778;0.0015385;0.0078836;2.28E-04;0;0;0;0;1.36E-05;0.037262;140;153.94;69.802;-179.98;NaN;9.0736;908.61;336.8;0.05;0.040145
3.7297;829.47;354.78;13.143;379.1;15.245;-302.77;-0.075213;302.77;-179.99;133.6;7.7254;52;19.996;9.8096;0.016824;2.33E-05;1.0786;0.071741;10911;1273.8;4.9127;0.089316;1980.3;1295.4;4.8921;1.1228;56657649;1280.5;1016.6;0.82528;0.82528;0.27429;0.41353;0.13745;0.0062395;0.030182;7.73E-05;0;0;0;0;7.90E-06;0.037348;140;153.94;69.792;-179.97;NaN;8.9585;906.63;336.73;0.05;0.040445
3.7797;847.22;355.42;12.64;379.85;15.171;-309.46;-0.077957;309.46;-179.99;134.03;8.389;52;19.995;9.8096;0.0021111;-6.27E-05;-0.10596;-0.25626;10881;1244;4.9004;0.089294;1980.7;1293.9;4.9055;1.1257;56709300;1280.5;1019.9;0.82552;0.82552;0.27403;0.41439;0.1371;7.83E-04;0.0033625;2.78E-04;0;0;0;0;-7.58E-08;0.037429;140;153.94;69.685;-179.97;NaN;8.843;904.64;336.66;0.05;0.040746
3.8297;865.01;356.05;11.906;380.58;15.609;-316.17;-0.080775;316.17;-179.99;134.44;10.095;52;19.995;9.8095;0.043793;-2.03E-04;-0.84537;0.079936;10852;1214.5;4.8882;0.089273;1980.2;1292.3;4.9136;1.1285;56753711;1281.5;1023;0.82575;0.82575;0.27378;0.41521;0.13676;0.01624;0.079831;-1.33E-04;0;0;0;0;-4.81E-06;0.037508;140;153.94;69.569;-179.97;NaN;8.7274;902.65;336.59;0.024647;0.041057
3.8543;873.79;356.35;12.493;380.94;15.048;-319.48;-0.082171;319.48;-179.99;134.67;8.3876;52;19.995;9.8095;0.0019999;-1.99E-04;0.80147;0.89099;10830;1192.5;4.8791;0.089257;1980.8;1291.2;4.9261;1.1298;56771213;1282.3;1024.3;0.82586;0.82586;0.27366;0.41559;0.13661;7.41E-04;0.0032434;-4.39E-04;0;0;0;0;4.31E-06;0.037549;140;153.94;69.582;-179.97;NaN;8.6704;901.67;336.55;0.036971;0.041362
3.8913;886.97;356.82;12.622;381.49;14.978;-324.47;-0.084325;324.47;-179.99;134.96;8.0637;52;19.995;9.8094;0.0069134;-1.84E-04;0.41296;0.093276;10811;1174.3;4.8715;0.089243;1980.9;1290.2;4.933;1.1314;56783985;1283.4;1025.8;0.826;0.826;0.27351;0.41608;0.13641;0.002561;0.012328;2.17E-04;0;0;0;0;1.14E-06;0.037607;140;153.94;69.59;-179.98;NaN;8.5847;900.2;336.5;0.05;0.041678
3.9413;904.83;357.44;12.714;382.22;14.946;-331.23;-0.087227;331.23;-179.98;135.38;7.8578;52;19.995;9.8094;0.012028;-2.20E-04;-0.43542;0.11864;10786;1148.7;4.8608;0.089225;1980.9;1288.9;4.9429;1.1337;5.68E+07;1284.8;1027.8;0.82618;0.82618;0.27331;0.41673;0.13614;0.0044547;0.02216;9.63E-05;0;0;0;0;-1.26E-06;0.037687;140;153.94;69.596;-179.97;NaN;8.4686;898.23;336.43;0.05;0.041981
3.9913;922.72;358.06;12.495;382.95;15.054;-338;-0.090167;338;-179.98;135.81;8.3964;52;19.995;9.8093;0.0031633;-3.09E-04;0.61157;1.1273;10756;1119.3;4.8485;0.089204;1981.1;1287.3;4.9555;1.1358;5.68E+07;1285.9;1029.8;0.82637;0.82637;0.27311;0.41738;0.13588;0.001171;0.0056313;-1.30E-05;0;0;0;0;2.49E-06;0.037767;140;153.94;69.584;-179.97;NaN;8.3523;896.33;336.36;0.05;0.042279
4.0413;940.64;358.69;11.867;383.68;15.35;-344.8;-0.0932;344.8;-179.98;136.21;9.7364;52;19.995;9.8093;0.035205;-6.12E-04;0.12064;0.24535;10727;1089.8;4.8361;0.089182;1980.8;1285.7;4.9644;1.1382;56848803;1286.3;1032.2;0.82658;0.82658;0.2729;0.41809;0.13559;0.013035;0.064524;1.70E-04;0;0;0;0;9.64E-08;0.037846;140;153.94;69.527;-179.97;NaN;8.2359;894.42;336.29;0.029928;0.04258
4.0712;951.38;359.05;12.69;384.11;14.627;-348.88;-0.095034;348.88;-179.98;136.46;7.2742;52;19.995;9.8092;0.024857;-5.60E-04;-0.44496;0.18688;10703;1066.2;4.8261;0.089165;1980.9;1284.5;4.9748;1.1398;56872142;1286.6;1033.9;0.82672;0.82672;0.27276;0.41856;0.13541;0.0091993;0.045689;-4.36E-04;0;0;0;0;-1.31E-06;0.037894;140;153.94;69.554;-179.97;NaN;8.1661;893.28;336.25;0.042118;0.042882
4.1133;966.51;359.58;11.848;384.72;14.975;-354.64;-0.097667;354.64;-179.98;136.8;9.1591;52;19.995;9.8092;0.022;-5.43E-04;-0.89163;0.062803;10682;1044.9;4.817;0.08915;1981.1;1283.3;4.9838;1.142;56902750;1286.9;1036.2;0.82688;0.82688;0.27256;0.41917;0.13515;0.0081384;0.041049;-8.17E-05;0;0;0;0;-5.23E-06;0.037959;140;153.94;69.466;-179.97;NaN;8.0677;891.67;336.19;0.046698;0.04318
4.16;983.31;360.15;12.12;385.38;14.598;-361.04;-0.1006;361.04;-179.98;137.17;8.1373;52;19.995;9.8091;0.0023376;-5.68E-04;1.7896;0.61305;10656;1018.6;4.8059;0.08913;1981.4;1281.9;4.9962;1.1442;56926090;1287.3;1038.3;0.82705;0.82705;0.27236;0.4198;0.13489;8.64E-04;0.0040712;-3.45E-04;0;0;0;0;2.10E-05;0.038031;140;153.94;69.47;-179.98;NaN;7.9585;889.88;336.12;0.05;0.043486
4.21;1001.3;360.75;12.631;386.09;14.165;-367.91;-0.10376;367.91;-179.98;137.59;6.4119;52;19.995;9.8091;0.043188;-6.37E-04;1.4097;0.04921;10627;990.03;4.7936;0.08911;1980.9;1280.4;5.004;1.1466;56954782;1287.6;1040.7;0.82723;0.82724;0.27214;0.42049;0.1346;0.015968;0.080133;-3.30E-04;0;0;0;0;1.30E-05;0.038109;140;153.94;69.472;-179.97;NaN;7.8413;887.97;336.05;0.023712;0.043784
4.2337;1009.9;361.04;11.942;386.43;14.401;-371.17;-0.1053;371.17;-179.98;137.76;8.0483;52;19.995;9.8091;0.0033424;-6.33E-04;3.7206;0.66985;10605;968.24;4.7843;0.089094;1981.5;1279.2;5.0165;1.1479;56973923;1287.8;1042;0.82733;0.82733;0.27202;0.42085;0.13446;0.0012345;0.0057831;3.69E-04;0;0;0;0;9.03E-05;0.038145;140;153.94;69.402;-179.97;NaN;7.7857;887.06;336.02;0.035569;0.044081
4.2693;1022.7;361.44;11.239;386.92;14.823;-376.08;-0.1076;376.08;-179.98;138.08;9.6644;52;19.995;9.809;0.036064;-6.19E-04;-0.2327;0.0074816;10588;950.71;4.7768;0.089081;1981.1;1278.2;5.0206;1.1496;56992255;1288;1043.7;0.82746;0.82746;0.27187;0.42134;0.13426;0.013323;0.066747;-3.25E-04;0;0;0;0;-3.52E-07;0.038201;140;153.94;69.332;-179.97;NaN;7.7022;885.69;335.97;0.028294;0.044382
4.2976;1033;361.77;11.828;387.32;14.275;-379.99;-0.10946;379.99;-179.98;138.34;7.9914;52;19.994;9.809;0.0039111;-6.16E-04;-1.675;-0.04686;10569;931.83;4.7686;0.089067;1981.5;1277.2;5.0312;1.1508;5.70E+07;1288.3;1044.7;0.82756;0.82756;0.27176;0.42168;0.13411;0.0014436;0.0075668;-2.56E-04;0;0;0;0;-1.82E-05;0.038245;140;153.94;69.366;-179.97;NaN;7.6357;884.6;335.93;0.04244;0.044682
4.34;1048.3;362.28;11.448;387.91;14.384;-385.86;-0.11226;385.86;-179.98;138.65;8.7092;52;19.994;9.8089;0.013923;-6.23E-04;-0.97157;-0.022619;10548;910.91;4.7596;0.089052;1981.4;1276;5.0389;1.1528;57020881;1288.7;1046.7;0.82771;0.82771;0.27157;0.42226;0.13388;0.0051376;0.026061;-3.31E-04;0;0;0;0;-6.11E-06;0.038308;140;153.94;69.321;-179.97;NaN;7.5358;882.97;335.87;0.05;0.044981
4.39;1066.5;362.86;11.532;388.59;14.171;-392.81;-0.11564;392.81;-179.98;139.05;8.2369;52;19.994;9.8089;0.0033511;-6.65E-04;-1.9799;0.68637;10521;883.58;4.7477;0.089032;1981.6;1274.5;5.051;1.155;57037153;1289.1;1048.6;0.82789;0.82789;0.27137;0.4229;0.13362;0.0012356;0.0059141;4.28E-04;0;0;0;0;-2.53E-05;0.038383;140;153.94;69.316;-179.97;NaN;7.418;881.04;335.79;0.05;0.045279
4.44;1084.6;363.44;12.305;389.28;13.639;-399.77;-0.11904;399.77;-179.98;139.46;5.8822;52;19.994;9.8088;0.051803;-7.98E-04;1.5928;0.081659;10491;854.01;4.7348;0.089011;1981;1272.8;5.0586;1.1571;57042549;1289.2;1050.2;0.82805;0.82806;0.27119;0.42348;0.13339;0.019108;0.096583;-2.08E-04;0;0;0;0;1.63E-05;0.038459;140;153.94;69.378;-179.97;NaN;7.2999;879.11;335.72;0.019275;0.045581
4.4593;1091.6;363.67;11.281;389.54;14.162;-402.46;-0.12036;402.46;-179.98;139.6;8.5614;52;19.994;9.8088;0.012068;-7.95E-04;-3.2288;0.30992;10471;833.54;4.7258;0.088996;1981.6;1271.7;5.0705;1.1578;57043059;1288.6;1050.8;0.82811;0.82811;0.27112;0.42369;0.1333;0.0044472;0.022601;-1.26E-05;0;0;0;0;-6.69E-05;0.038487;140;153.94;69.324;-179.97;NaN;7.2544;878.36;335.7;0.028912;0.045879
4.4882;1102.2;363.98;10.691;389.93;14.446;-406.5;-0.12235;406.5;-179.98;139.88;9.7154;52;19.994;9.8088;0.040583;-7.73E-04;1.4006;0.067009;10456;819.32;4.7196;0.088986;1981.2;1270.9;5.0737;1.1589;57042387;1287.8;1051.5;0.8282;0.8282;0.27102;0.424;0.13317;0.014959;0.07552;3.51E-04;0;0;0;0;1.26E-05;0.038533;140;153.94;69.3;-179.97;NaN;7.186;877.24;335.65;0.024545;0.046176
4.5128;1111.1;364.25;11.566;390.26;13.571;-409.94;-0.12407;409.94;-179.98;140.09;7.0979;52;19.994;9.8087;0.020482;-7.68E-04;-2.5874;0.10149;10441;803.55;4.7127;0.088974;1981.5;1270;5.0821;1.1599;57044339;1286.8;1052.3;0.82828;0.82828;0.27093;0.42429;0.13306;0.0075447;0.037995;2.42E-04;0;0;0;0;-4.29E-05;0.03857;140;153.94;69.362;-179.97;NaN;7.1279;876.29;335.62;0.036818;0.046473
4.5496;1124.5;364.68;11.081;390.75;13.548;-415.1;-0.12668;415.1;-179.98;140.34;7.7962;52;19.994;9.8087;0.0022681;-7.56E-04;1.2097;0.20994;10423;785.46;4.7047;0.088961;1981.7;1269;5.0912;1.1615;5.71E+07;1285.4;1053.5;0.82838;0.82838;0.27079;0.42471;0.13288;8.35E-04;0.0038777;-7.22E-05;0;0;0;0;9.35E-06;0.038622;140;153.94;69.342;-179.97;NaN;7.0407;874.86;335.57;0.05;0.046775
4.5996;1142.8;365.23;11.189;391.41;13.045;-422.13;-0.13024;422.13;-179.98;140.74;6.7075;52;19.994;9.8086;0.02565;-7.93E-04;0.80978;0.039581;10397;759.86;4.6934;0.088943;1981.5;1267.5;5.0996;1.1636;5.71E+07;1284;1055.2;0.82851;0.82852;0.27059;0.42529;0.13264;0.009439;0.047703;2.65E-04;0;0;0;0;4.17E-06;0.038695;140;153.94;69.346;-179.97;NaN;6.9221;872.92;335.49;0.038522;0.047073
4.6381;1156.8;365.64;10.533;391.9;13.24;-427.55;-0.13303;427.55;-179.98;141.05;8.0212;52;19.994;9.8086;0.0064458;-7.83E-04;0.11216;0.0015289;10371;733.75;4.6818;0.088924;1981.7;1266;5.1121;1.1651;57061390;1282.6;1056.3;0.82861;0.82861;0.27045;0.4257;0.13246;0.00237;0.012528;3.43E-04;0;0;0;0;7.99E-08;0.03875;140;153.94;69.31;-179.97;NaN;6.8306;871.43;335.44;0.05;0.047371
4.6881;1175.1;366.18;10.071;392.54;13.095;-434.61;-0.13668;434.61;-179.98;141.42;8.3704;52;19.994;9.8085;0.016746;-7.87E-04;-1.3254;0.011735;10345;707.65;4.6701;0.088905;1981.6;1264.5;5.122;1.1674;57077627;1281.1;1058.3;0.82876;0.82876;0.27024;0.42632;0.1322;0.006154;0.031999;4.42E-04;0;0;0;0;-1.11E-05;0.038819;140;153.94;69.254;-179.97;NaN;6.7117;869.48;335.37;0.05;0.047669
4.7381;1193.4;366.7;9.9518;393.15;12.779;-441.7;-0.14037;441.7;-179.98;141.79;8.016;52;19.994;9.8085;0.010257;-7.88E-04;-2.7936;0.068252;10315;678.16;4.6569;0.088883;1981.7;1262.8;5.1348;1.1695;5.71E+07;1279.5;1059.8;0.8289;0.8289;0.27006;0.42687;0.13197;0.0037664;0.019513;-4.36E-05;0;0;0;0;-4.92E-05;0.038888;140;153.94;69.245;-179.97;NaN;6.5926;867.53;335.29;0.05;0.047968
4.7881;1211.8;367.21;10.964;393.76;11.879;-448.8;-0.14411;448.8;-179.98;142.15;4.5722;52;19.993;9.8084;0.06759;-8.28E-04;3.8836;0.037282;10286;648.7;4.6437;0.088862;1981;1261.1;5.1418;1.1715;57080717;1278.2;1061.2;0.82903;0.82904;0.26987;0.42742;0.13174;0.024829;0.12753;1.40E-04;0;0;0;0;9.49E-05;0.038955;140;153.94;69.306;-179.97;NaN;6.4733;865.58;335.22;0.014185;0.048268
4.8023;1217;367.36;9.839;393.93;12.429;-450.81;-0.14517;450.81;-179.98;142.24;7.594;52;19.993;9.8084;0.0023783;-8.27E-04;-5.806;0.94072;10267;629.85;4.6352;0.088848;1981.8;1260;5.1557;1.1721;57081162;1277.5;1061.6;0.82907;0.82907;0.26982;0.42757;0.13168;8.72E-04;0.0048802;-1.81E-04;0;0;0;0;-2.12E-04;0.038973;140;153.94;69.232;-179.97;NaN;6.4395;865.03;335.2;0.021277;0.048569
4.8236;1224.8;367.55;8.5972;394.18;13.511;-453.84;-0.14678;453.84;-179.98;142.44;10.423;52;19.993;9.8084;0.068887;-8.23E-04;-1.9087;0.014227;10257;619.49;4.6305;0.088841;1980.9;1259.4;5.1539;1.173;57083939;1276.7;1062.3;0.82913;0.82914;0.26974;0.42782;0.13158;0.025293;0.13087;4.73E-04;0;0;0;0;-2.29E-05;0.039003;140;153.94;69.141;-179.97;NaN;6.3886;864.19;335.17;0.013771;0.04887
4.8373;1229.9;367.67;8.8263;394.35;13.071;-455.8;-0.14782;455.8;-179.98;142.58;9.6415;52;19.993;9.8084;0.05116;-8.24E-04;1.7962;0.015324;10246;609.25;4.6258;0.088833;1981.2;1258.8;5.1598;1.1736;57085458;1276;1062.8;0.82917;0.82918;0.26968;0.42798;0.13151;0.018774;0.09703;2.02E-04;0;0;0;0;2.02E-05;0.039023;140;153.94;69.142;-179.97;NaN;6.3557;863.66;335.15;0.018548;0.04917
4.8559;1236.7;367.84;9.8511;394.56;11.857;-458.45;-0.14924;458.45;-179.98;142.73;6.5993;52;19.993;9.8084;0.018294;-8.23E-04;-3.0643;0.035443;10237;599.81;4.6215;0.088826;1981.6;1258.3;5.1668;1.1743;57086925;1275;1063.4;0.82922;0.82922;0.26961;0.42819;0.13142;0.0067071;0.03438;-3.37E-04;0;0;0;0;-5.88E-05;0.039048;140;153.94;69.195;-179.97;NaN;6.3114;862.93;335.12;0.027822;0.049473
4.8837;1246.9;368.13;10.04;394.88;11.481;-462.42;-0.15137;462.42;-179.98;142.88;5.5688;52;19.993;9.8083;0.040566;-8.18E-04;1.9461;0.024961;10223;586.26;4.6154;0.088817;1981.3;1257.5;5.1704;1.1755;57087534;1273.9;1064.2;0.8293;0.8293;0.26951;0.42849;0.1313;0.014873;0.076817;-1.12E-04;0;0;0;0;2.37E-05;0.039082;140;153.94;69.206;-179.97;NaN;6.2449;861.84;335.08;0.023349;0.049771
4.9071;1255.5;368.35;8.961;395.15;12.061;-465.76;-0.15316;465.76;-179.98;143.04;8.0732;52;19.993;9.8083;0.018075;-8.14E-04;-3.0968;0.038227;10208;571.31;4.6086;0.088806;1981.6;1256.6;5.1788;1.1764;57086329;1272.7;1064.8;0.82936;0.82936;0.26942;0.42874;0.13119;0.0066216;0.034197;-4.95E-04;0;0;0;0;-5.99E-05;0.039111;140;153.94;69.136;-179.97;NaN;6.189;860.93;335.05;0.035023;0.05007
4.9421;1268.4;368.66;8.9538;395.54;11.679;-470.78;-0.15588;470.78;-179.98;143.34;7.4988;52;19.993;9.8083;0.0064372;-8.18E-04;0.84479;-0.045306;10191;554.26;4.6008;0.088793;1981.7;1255.6;5.187;1.1777;5.71E+07;1270.8;1065.5;0.82945;0.82945;0.26931;0.42909;0.13105;0.0023566;0.011983;-7.29E-05;0;0;0;0;4.45E-06;0.039158;140;153.94;69.131;-179.97;NaN;6.1051;859.55;335;0.05;0.050372
4.9921;1286.9;369.11;7.7455;396.09;12.372;-477.95;-0.15979;477.95;-179.98;143.69;9.6477;52;19.993;9.8082;0.058219;-7.80E-04;-0.36515;-0.028389;10166;529.42;4.5894;0.088775;1981.1;1254.1;5.1927;1.1799;57085549;1269.4;1067.2;0.8296;0.82961;0.26911;0.42968;0.13081;0.021317;0.11112;4.19E-04;0;0;0;0;-8.28E-07;0.039219;140;153.94;69.021;-179.97;NaN;5.9852;857.59;334.93;0.01601;0.050676
5.0081;1292.8;369.24;8.4994;396.27;11.436;-480.25;-0.16106;480.25;-179.98;143.83;7.6514;52;19.993;9.8082;0.012295;-7.80E-04;2.2341;-0.072338;10147;510.14;4.5805;0.088761;1981.7;1252.9;5.2051;1.1806;57088087;1268.6;1067.7;0.82964;0.82964;0.26904;0.42986;0.13073;0.0044964;0.023181;1.49E-04;0;0;0;0;3.10E-05;0.03924;140;153.94;69.041;-179.97;NaN;5.9468;856.96;334.9;0.024015;0.050973
