# Time (s);Altitude (m);Vertical velocity (m/s);Vertical acceleration (m/s²);Total velocity (m/s);Total acceleration (m/s²);Position East of launch (m);Position North of launch (m);Lateral distance (m);Lateral direction (°);Lateral velocity (m/s);Lateral acceleration (m/s²);Latitude (°);Longitude (°);Gravitational acceleration (m/s²);Angle of attack (°);Roll rate (°/s);Pitch rate (°/s);Yaw rate (°/s);Mass (g);Propellant mass (g);Longitudinal moment of inertia (kg·m²);Rotational moment of inertia (kg·m²);CP location (mm);CG location (mm);Stability margin calibers (?);Mach number (?);Reynolds number (?);Thrust (N);Drag force (N);Drag coefficient (?);Axial drag coefficient (?);Friction drag coefficient (?);Pressure drag coefficient (?);Base drag coefficient (?);Normal force coefficient (?);Pitch moment coefficient (?);Yaw moment coefficient (?);Side force coefficient (?);Roll moment coefficient (?);Roll forcing coefficient (?);Roll damping coefficient (?);Pitch damping coefficient (?);Coriolis acceleration (m/s²);Reference length (mm);Reference area (cm²);Vertical orientation (zenith) (°);Lateral orientation (azimuth) (°);Wind velocity (m/s);Air temperature (°C);Air pressure (mbar);Speed of sound (m/s);Simulation time step (s);Computation time (s)
0;0;0;-2.4908;0;2.6507;0;0;0;0;0;0.90658;52;20;9.8122;110;0;0;0;14136;4498.6;6.0035;0.091656;NaN;1424.2;NaN;0.0066897;363944;92.865;-0.002925;0.71247;-0.060533;0.4723;0.16608;0.074085;NaN;NaN;NaN;NaN;NaN;NaN;NaN;NaN;0;140;153.94;70;180;NaN;14.35;1001.5;340;0.01;8.395e-4
0.01;0;0;28.178;0;29.986;0;0;0;0;0;10.256;52;20;9.8122;110;0;0;0;14136;4498.6;6.0035;0.091656;NaN;1424.2;NaN;0.0067096;365029;554.21;-0.0029412;0.71216;-0.060507;0.47199;0.16608;0.074085;NaN;NaN;NaN;NaN;NaN;NaN;NaN;NaN;0;140;153.94;70;180;NaN;14.35;1001.5;340;0.01;0.0011965
0.02;0.0014092;0.28186;61.482;0.29994;65.427;-5.1291e-4;0;5.1291e-4;180;0.10259;22.377;52;20;9.8122;102.65;0;0;0;14132;4495;6.0025;0.091654;NaN;1424.1;NaN;0.0064811;352595;1054.9;-7.6444e-4;0.71578;-0.016855;0.47562;0.16608;0.074085;NaN;NaN;NaN;NaN;NaN;NaN;NaN;NaN;2.9399e-5;140;153.94;70;180;NaN;14.35;1001.5;339.99;0.01;0.0014944
0.03;0.0073026;0.89686;94.809;0.95442;100.89;-0.0026579;0;0.0026579;180;0.32643;34.508;52;20;9.8122;85.504;0;0;0;14128;4490.5;6.0012;0.091651;NaN;1424;NaN;0.006362;346119;1555.6;3.6339e-5;0.71774;8.315e-4;0.47757;0.16608;0.074085;NaN;NaN;NaN;NaN;NaN;NaN;NaN;NaN;9.3548e-5;140;153.94;70;180;NaN;14.35;1001.5;339.99;0.01;0.0017954
0.04;0.021013;1.8452;120.05;1.9636;127.76;-0.007648;0;0.007648;180;0.67161;43.695;52;20;9.8122;61.456;0;0;0;14123;4486;6;0.091647;NaN;1423.8;NaN;0.0072414;393961;1934.6;0.0087617;0.70432;0.15475;0.46415;0.16608;0.074086;NaN;NaN;NaN;NaN;NaN;NaN;NaN;NaN;1.9247e-4;140;153.94;70;180;NaN;14.35;1001.5;339.99;0.01;0.0020986
0.05;0.045469;3.0462;121.83;3.2417;129.65;-0.01655;0;0.01655;180;1.1087;44.343;52;20;9.8122;41.495;0;0;0;14117;4479.7;5.9982;0.091643;NaN;1423.6;NaN;0.0096293;523872;1960.5;0.051847;0.67671;0.51786;0.43654;0.16609;0.074089;NaN;NaN;NaN;NaN;NaN;NaN;NaN;NaN;3.1774e-4;140;153.94;70;180;NaN;14.35;1001.5;339.99;0.01;0.0023985
0.06;0.082026;4.2652;122.15;4.5389;129.98;-0.029855;0;0.029855;180;1.5524;44.457;52;20;9.8122;29.821;0;0;0;14108;4470.6;5.9956;0.091636;NaN;1423.4;NaN;0.012732;692641;1964;0.12689;0.65198;0.72502;0.4118;0.16609;0.074095;NaN;NaN;NaN;NaN;NaN;NaN;NaN;NaN;4.4489e-4;140;153.94;70;180;NaN;14.349;1001.5;339.99;0.01;0.0026966
0.07;0.13079;5.4874;122.47;5.8396;130.33;-0.047603;0;0.047603;180;1.9973;44.574;52;20;9.8122;22.879;0;0;0;14098;4460.7;5.9928;0.091629;NaN;1423.1;NaN;0.01616;879162;1967.5;0.22377;0.6325;0.79359;0.3923;0.1661;0.074103;NaN;NaN;NaN;NaN;NaN;NaN;NaN;NaN;5.7237e-4;140;153.94;70;180;NaN;14.349;1001.5;339.99;0.01;0.0030469
0.08;0.19179;6.7128;122.79;7.1436;130.67;-0.069805;0;0.069805;180;2.4433;44.69;52;20;9.8122;18.399;0;0;0;14088;4450.8;5.99;0.091622;NaN;1422.7;NaN;0.019752;1074545;1971;0.33723;0.61716;0.80059;0.37694;0.16611;0.074113;NaN;NaN;NaN;NaN;NaN;NaN;NaN;NaN;7.0019e-4;140;153.94;70;180;NaN;14.349;1001.5;339.99;0.01;0.0033523
0.09;0.26506;7.9414;123.1;8.451;131.01;-0.096473;0;0.096473;180;2.8904;44.806;52;20;9.8122;15.304;0;0;0;14078;4441;5.9872;0.091615;NaN;1422.4;NaN;0.023436;1274986;1974.6;0.46326;0.6048;0.78118;0.36455;0.16612;0.074126;NaN;NaN;NaN;NaN;NaN;NaN;NaN;NaN;8.2834e-4;140;153.94;70;180;NaN;14.348;1001.5;339.99;0.01;0.003654
0.1;0.35063;9.1731;123.42;9.7619;131.34;-0.12762;0;0.12762;180;3.3388;44.923;52;20;9.8122;13.05;0;0;0;14068;4431.1;5.9844;0.091607;NaN;1422.1;NaN;0.02718;1478659;1978.1;0.59706;0.59458;0.74853;0.3543;0.16614;0.074141;NaN;NaN;NaN;NaN;NaN;NaN;NaN;NaN;9.5682e-4;140;153.94;70;180;NaN;14.348;1001.5;339.99;0.01;0.003971
0.11;0.44854;10.408;123.74;11.076;131.68;-0.16325;0;0.16325;180;3.7882;45.039;52;20;9.8122;11.66;0;0;0;14058;4421.2;5.9816;0.0916;NaN;1421.8;NaN;0.03094;1683188;1981.6;0.74484;0.586;0.72066;0.34569;0.16616;0.074158;NaN;NaN;NaN;NaN;NaN;NaN;NaN;NaN;0.0010856;140;153.94;70;180;NaN;14.347;1001.5;339.99;0.01;0.0042687
0.12;0.55881;11.646;124.06;12.394;132.02;-0.20339;0;0.20339;180;4.2389;45.154;52;20;9.8122;10.568;0;0;0;14048;4411.3;5.9788;0.091593;NaN;1421.5;NaN;0.034724;1889021;1985.1;0.90669;0.57863;0.69648;0.33828;0.16618;0.074178;NaN;NaN;NaN;NaN;NaN;NaN;NaN;NaN;0.0012148;140;153.94;70;180;NaN;14.346;1001.5;339.99;0.01;0.0045663
0.13;0.68148;12.888;124.38;13.715;132.36;-0.24804;0;0.24804;180;4.6907;45.27;52;20;9.8122;9.6894;0;0;0;14038;4401.4;5.976;0.091586;NaN;1421.2;NaN;0.038528;2095932;1988.7;1.0921;0.57689;0.68147;0.33649;0.1662;0.074201;NaN;NaN;NaN;NaN;NaN;NaN;NaN;NaN;0.0013443;140;153.94;70;180;NaN;14.346;1001.4;339.99;0.01;0.0048679
0.14;0.81657;14.132;124.69;15.039;132.7;-0.29721;0;0.29721;180;5.1437;45.385;52;20;9.8122;8.9664;0;0;0;14029;4391.6;5.9732;0.091579;NaN;1420.9;NaN;0.042349;2303774;1992.2;1.2984;0.57693;0.67058;0.33648;0.16623;0.074226;NaN;NaN;NaN;NaN;NaN;NaN;NaN;NaN;0.0014741;140;153.94;70;180;NaN;14.345;1001.4;339.99;0.01;0.0051641
0.15;0.96413;15.38;125.01;16.367;133.03;-0.35092;0;0.35092;180;5.5978;45.5;52;20;9.8122;8.3613;0;0;0;14019;4381.7;5.9703;0.091572;NaN;1420.6;NaN;0.046185;2512447;1995.7;1.5232;0.57697;0.6614;0.33647;0.16625;0.074253;NaN;NaN;NaN;NaN;NaN;NaN;NaN;NaN;0.0016042;140;153.94;70;180;NaN;14.344;1001.4;339.99;0.01;0.0054613
0.16;1.1242;16.631;125.32;17.698;133.37;-0.40917;0;0.40917;180;6.053;45.614;52;20;9.8122;7.8045;0;0;0;14009;4371.8;5.9675;0.091564;NaN;1420.3;NaN;0.050044;2722322;1999.2;1.7655;0.57702;0.65298;0.33645;0.16628;0.074283;NaN;NaN;NaN;NaN;NaN;NaN;NaN;NaN;0.0017347;140;153.94;70;180;NaN;14.343;1001.4;339.99;0.01;0.0057572
0.17;1.2968;17.884;125.64;19.032;133.7;-0.47198;0;0.47198;180;6.5094;45.728;52;20;9.8122;7.3262;0;0;0;13999;4361.9;5.9647;0.091557;NaN;1420;NaN;0.053917;2932940;2002.8;2.0268;0.57707;0.64582;0.33644;0.16632;0.074315;NaN;NaN;NaN;NaN;NaN;NaN;NaN;NaN;0.0018655;140;153.94;70;180;NaN;14.342;1001.4;339.99;0.01;0.0060573
0.18;1.4819;19.142;125.95;20.37;134.03;-0.53936;0;0.53936;180;6.9669;45.842;52;20;9.8122;6.9108;0;0;0;13989;4352;5.9619;0.09155;NaN;1419.7;NaN;0.057802;3144257;2006.3;2.3073;0.57713;0.63971;0.33643;0.16635;0.07435;NaN;NaN;NaN;NaN;NaN;NaN;NaN;NaN;0.0019966;140;153.94;70;180;NaN;14.34;1001.3;339.99;0.01;0.0063532
0.19;1.6796;20.402;126.26;21.711;134.37;-0.61132;0;0.61132;180;7.4256;45.956;52;20;9.8122;6.5467;0;0;0;13979;4342.2;5.959;0.091543;NaN;1419.3;NaN;0.0617;3356236;2009.8;2.6074;0.57719;0.63445;0.33641;0.16639;0.074387;NaN;NaN;NaN;NaN;NaN;NaN;NaN;NaN;0.002128;140;153.94;70;180;NaN;14.339;1001.3;339.99;0.01;0.006649
0.2;1.8899;21.665;126.57;23.055;134.7;-0.68788;0;0.68788;180;7.8854;46.069;52;20;9.8122;6.225;0;0;0;13969;4332.3;5.9562;0.091536;NaN;1419;NaN;0.06561;3568853;2013.3;2.9272;0.57726;0.62991;0.33639;0.16644;0.074427;NaN;NaN;NaN;NaN;NaN;NaN;NaN;NaN;0.0022598;140;153.94;70;180;NaN;14.338;1001.3;339.99;0.01;0.0069529
0.21;2.1129;22.931;126.88;24.403;135.03;-0.76904;0;0.76904;180;8.3464;46.182;52;20;9.8122;5.8971;0;0;0;13959;4322.4;5.9534;0.091529;NaN;1418.7;NaN;0.069544;3782774;2016.9;3.265;0.57733;0.62539;0.33638;0.16648;0.07447;NaN;NaN;NaN;NaN;NaN;NaN;NaN;NaN;0.0023919;140;153.94;70;180;NaN;14.336;1001.3;339.99;0.01;0.0072522
0.22;2.3486;24.201;127.19;25.754;135.36;-0.85481;0;0.85481;180;8.8084;46.294;52;20;9.8122;5.6035;0;0;0;13950;4312.5;5.9505;0.091521;NaN;1418.4;NaN;0.07349;3997318;2020.4;3.623;0.5774;0.62145;0.33636;0.16653;0.074515;NaN;NaN;NaN;NaN;NaN;NaN;NaN;NaN;0.0025243;140;153.94;70;180;NaN;14.335;1001.2;339.99;0.01;0.0077004
0.23;2.5969;25.474;127.5;27.108;135.68;-0.94521;0;0.94521;180;9.2716;46.407;52;20;9.8122;5.3393;0;0;0;13940;4302.6;5.9477;0.091514;NaN;1418.1;NaN;0.077447;4212469;2023.9;4.0012;0.57748;0.61801;0.33634;0.16658;0.074563;NaN;NaN;NaN;NaN;NaN;NaN;NaN;NaN;0.0026571;140;153.94;70;180;NaN;14.333;1001.2;339.98;0.01;0.0082347
0.24;2.8581;26.749;127.81;28.466;136.01;-1.0402;0;1.0402;180;9.7359;46.519;52;20;9.8122;5.1001;0;0;0;13930;4292.8;5.9449;0.091507;NaN;1417.8;NaN;0.081415;4428211;2027.4;4.4;0.57756;0.61499;0.33632;0.16663;0.074614;NaN;NaN;NaN;NaN;NaN;NaN;NaN;NaN;0.0027901;140;153.94;70;180;NaN;14.331;1001.2;339.98;0.01;0.008748
0.25;3.1319;28.028;128.12;29.827;136.34;-1.1399;0;1.1399;180;10.201;46.63;52;20;9.8122;4.8826;0;0;0;13920;4282.9;5.942;0.0915;NaN;1417.5;NaN;0.085395;4644530;2031;4.8195;0.57764;0.61232;0.33629;0.16668;0.074667;NaN;NaN;NaN;NaN;NaN;NaN;NaN;NaN;0.0029235;140;153.94;70;180;NaN;14.33;1001.2;339.98;0.01;0.0091268
0.26;3.4186;29.31;128.42;31.191;136.66;-1.2443;0;1.2443;180;10.668;46.741;52;20;9.8122;4.7562;0;0;0;13910;4273;5.9392;0.091493;NaN;1417.2;NaN;0.089354;4859742;2034.5;5.2638;0.57773;0.61084;0.33627;0.16674;0.074722;NaN;NaN;NaN;NaN;NaN;NaN;NaN;NaN;0.0030572;140;153.94;70;180;NaN;14.328;1001.1;339.98;0.01;0.0094369
0.27;3.7182;30.595;128.73;32.558;136.99;-1.3533;0;1.3533;180;11.136;46.852;52;20;9.8122;4.64;0;0;0;13900;4263.1;5.9363;0.091486;NaN;1416.8;NaN;0.093323;5075478;2038;5.7292;0.57783;0.60952;0.33625;0.1668;0.074781;NaN;NaN;NaN;NaN;NaN;NaN;NaN;NaN;0.0031912;140;153.94;70;180;NaN;14.326;1001.1;339.98;0.01;0.0097356
0.28;4.0305;31.883;129.03;33.929;137.31;-1.467;0;1.467;180;11.604;46.963;52;20;9.8122;4.5329;0;0;0;13890;4253.2;5.9335;0.091478;NaN;1416.5;NaN;0.097302;5291734;2041.5;6.2159;0.57793;0.60833;0.33622;0.16687;0.074841;NaN;NaN;NaN;NaN;NaN;NaN;NaN;NaN;0.0033256;140;153.94;70;180;NaN;14.324;1001;339.98;0.01;0.010037
0.29;4.3558;33.174;129.33;35.303;137.63;-1.5854;0;1.5854;180;12.074;47.073;52;20;9.8122;4.4338;0;0;0;13880;4243.4;5.9306;0.091471;NaN;1416.2;NaN;0.10129;5508505;2045.1;6.7238;0.57803;0.60727;0.33619;0.16693;0.074905;NaN;NaN;NaN;NaN;NaN;NaN;NaN;NaN;0.0034602;140;153.94;70;180;NaN;14.322;1001;339.98;0.01;0.010338
0.3;4.694;34.467;129.63;36.68;137.95;-1.7085;0;1.7085;180;12.545;47.182;52;20;9.8122;4.3418;0;0;0;13871;4233.5;5.9278;0.091464;NaN;1415.9;NaN;0.10529;5725787;2048.6;7.2533;0.57814;0.6063;0.33617;0.167;0.074971;NaN;NaN;NaN;NaN;NaN;NaN;NaN;NaN;0.0035952;140;153.94;70;180;NaN;14.319;1001;339.98;0.01;0.010638
0.31;5.0452;35.764;128.35;38.06;138.35;-1.8363;0;1.8363;180;13.017;51.637;52;20;9.8122;4.2307;0;0;0;13861;4223.6;5.9249;0.091457;1840.6;1415.6;3.0356;0.10931;5944324;2053;7.8027;0.57825;0.60514;0.33614;0.16707;0.075041;1.3601;4.1287;-1.4255e-4;0;0;0;0;0;0.0037305;140;153.94;70;180;NaN;14.317;1000.9;339.98;0.015;0.010961
0.325;5.5961;37.691;128.83;40.136;138.87;-2.0374;-1.7125e-7;2.0374;-180;13.793;51.841;52;20;9.8122;3.9681;0;1.1084;-1.9705e-5;13848;4211.3;5.9213;0.091448;1843.8;1415.2;3.0618;0.11535;6272271;2059.6;8.6481;0.57843;0.60238;0.33609;0.16719;0.075149;1.2692;3.8851;-4.2921e-4;0;0;0;0;7.7504e-4;0.003937;140;153.94;70.008;180;NaN;14.314;1000.9;339.97;0.0225;0.011265
0.3475;6.4768;40.594;129.57;43.263;139.63;-2.3608;-1.0979e-6;2.3608;-180;14.96;52.053;52;20;9.8121;3.5875;0;2.861;1.1654e-4;13830;4192.7;5.9159;0.091434;1848.7;1414.6;3.1005;0.12444;6766403;2069.5;10.003;0.57872;0.59865;0.33602;0.16737;0.075324;1.1391;3.527;1.0297e-4;0;0;0;0;0.0044366;0.0042481;140;153.94;70.053;180;NaN;14.308;1000.8;339.97;0.03375;0.011569
0.38125;7.9208;44.978;130.77;47.984;140.77;-2.8954;-4.1152e-6;2.8954;-180;16.715;52.095;52;20;9.8121;2.9425;0;5.6002;5.0867e-5;13802;4164.9;5.9079;0.091414;1857;1413.7;3.1665;0.13825;7515951;2084.1;12.226;0.57919;0.593;0.3359;0.16768;0.075615;0.92253;2.9076;5.3831e-5;0;0;0;0;0.013774;0.0047173;140;153.94;70.195;180;NaN;14.299;1000.6;339.96;0.049144;0.011879
0.43039;10.29;51.433;132.74;54.92;142.37;-3.7795;-1.2408e-5;3.7795;-180;19.258;51.48;52;20;9.8121;1.8415;0;9.3838;-4.0608e-4;13761;4124;5.8959;0.091385;1871.8;1412.4;3.2815;0.15872;8626965;2101.6;15.911;0.57999;0.58567;0.33569;0.16819;0.076103;0.56479;1.8235;-2.6758e-5;0;0;0;0;0.029343;0.0054051;140;153.94;70.566;180;NaN;14.283;1000.3;339.95;0.05;0.012178
0.48039;13.028;58.099;134.77;62.052;143.85;-4.8062;-2.6253e-5;4.8062;-180;21.795;50.281;52;20;9.8121;0.98821;0;12.149;-0.0020275;13712;4075;5.8815;0.091349;1883.8;1410.8;3.3788;0.1796;9.76e6;2119.2;20.262;0.58092;0.58262;0.33545;0.1688;0.07667;0.29796;0.96796;-3.0097e-4;0;0;0;0;0.038413;0.0061088;140;153.94;71.109;180;NaN;14.265;999.99;339.94;0.05;0.012476
0.53039;16.102;64.869;136.96;69.257;145.27;-5.958;-4.6369e-5;5.958;-180;24.26;48.423;52;20;9.8121;0.053122;-2.9481e-7;13.575;-0.065871;13663;4025.6;5.867;0.091313;1897.5;1409.1;3.4882;0.20086;10912265;2136.8;25.306;0.58199;0.582;0.33518;0.16949;0.07732;0.015716;0.016748;-4.2431e-4;0;0;0;0;0.038345;0.006815;140;153.94;71.761;180;NaN;14.245;999.63;339.93;0.05;0.012774
0.58039;19.517;71.751;139.13;76.529;146.64;-7.2305;-7.3725e-5;7.2305;-180;26.62;46.339;52;20;9.8121;0.70675;-3.1002e-7;-12.106;-0.0069734;13613;3976.2;5.8523;0.091277;1888.4;1407.5;3.4349;0.22232;12074054;2154.5;31.099;0.58321;0.58409;0.33488;0.17029;0.078048;0.2124;0.75416;3.9538e-4;0;0;0;0;-0.024898;0.0075218;140;153.94;72.415;180;NaN;14.223;999.23;339.92;0.05;0.01308
0.63039;23.279;78.736;141.12;83.867;148;-8.6185;-1.0979e-4;8.6185;-180;28.884;44.59;52;20;9.8121;1.1735;-4.9018e-7;-8.0622;-0.004451;13564;3926.8;5.8376;0.091241;1882.2;1405.9;3.4024;0.2439;13241973;2169.8;37.597;0.58456;0.58695;0.33454;0.17116;0.078856;0.35678;1.2235;1.7752e-4;0;0;0;0;-0.0091746;0.0082296;140;153.94;72.93;180;NaN;14.199;998.79;339.9;0.037145;0.01369
0.66754;26.301;83.987;142.33;89.36;148.89;-9.7219;-1.4334e-4;9.7219;-180;30.519;43.698;52;20;9.8121;1.3928;-5.0176e-7;-3.3823;-0.0042042;13521;3883.8;5.8247;0.09121;1879.5;1404.4;3.3933;0.26018;14122111;2181.2;42.919;0.58567;0.58901;0.33426;0.17189;0.079514;0.42601;1.4468;1.0355e-4;0;0;0;0;-0.0014191;0.0087568;140;153.94;73.147;180;NaN;14.179;998.44;339.89;0.027552;0.013993
0.69509;28.669;87.912;143.09;93.459;149.55;-10.579;-1.7253e-4;10.579;-180;31.716;43.469;52;20;9.8121;1.4532;0;0.94565;-0.0036747;13489;3851.8;5.8152;0.091187;1878.9;1403.3;3.3968;0.27239;14781578;2190.3;47.122;0.58655;0.59019;0.33404;0.17247;0.080036;0.44554;1.5132;2.3548e-4;0;0;0;0;1.0122e-4;0.0091492;140;153.94;73.182;180;NaN;14.164;998.16;339.88;0.024001;0.01429
0.71909;30.821;91.348;143.64;97.045;150.15;-11.353;-2.0127e-4;11.353;-180;32.76;43.73;52;20;9.8121;1.3997;0;5.062;-0.0035876;13463;3826.4;5.8075;0.091168;1879.8;1402.5;3.4098;0.28307;15358355;2198.6;50.926;0.58736;0.59075;0.33384;0.173;0.080512;0.42905;1.4603;-1.5255e-4;0;0;0;0;0.0026856;0.0094924;140;153.94;73.11;180;NaN;14.15;997.91;339.87;0.023005;0.014589
0.7421;32.96;94.653;144.05;100.5;150.74;-12.118;-2.3196e-4;12.118;-180;33.772;44.429;52;20;9.8121;1.2577;0;9.0235;-0.0035029;13440;3803.1;5.8005;0.091152;1882;1401.7;3.431;0.29335;15913228;2206.9;54.695;0.58816;0.59092;0.33364;0.17353;0.080988;0.38474;1.3118;4.7403e-4;0;0;0;0;0.0079465;0.0098231;140;153.94;72.948;180;NaN;14.136;997.66;339.87;0.023822;0.014891
0.76592;35.256;98.083;144.31;104.09;151.37;-12.936;-2.6723e-4;12.936;-180;34.843;45.679;52;20;9.8121;1.0041;0;12.783;-0.004395;13417;3780;5.7935;0.091135;1885.8;1400.9;3.4634;0.30401;16487681;2216;58.712;0.58903;0.59081;0.33343;0.17411;0.081499;0.30583;1.0447;2.2017e-5;0;0;0;0;0.01485;0.010168;140;153.94;72.687;180;NaN;14.121;997.39;339.86;0.027827;0.015188
0.79375;38.041;102.09;144.44;108.3;152.12;-13.923;-3.1324e-4;13.923;-180;36.139;47.722;52;20;9.8121;0.61573;0;16.144;-0.0059106;13392;3754.5;5.7857;0.091116;1891.5;1400;3.5107;0.31648;1.716e7;2228.2;63.607;0.59011;0.59079;0.33317;0.17482;0.08212;0.18624;0.63157;-4.5652e-4;0;0;0;0;0.021858;0.010574;140;153.94;72.281;180;NaN;14.103;997.06;339.85;0.041741;0.015493
0.83549;42.428;108.11;144.28;114.66;153.32;-15.474;-3.9285e-4;15.474;-180;38.21;51.857;52;20;9.812;0.16372;0;-17.57;-0.0086254;13357;3720.1;5.7753;0.091091;1898.4;1398.8;3.5685;0.33503;18158574;2244.4;71.369;0.59178;0.59183;0.33276;0.17593;0.08309;0.04914;0.1987;-4.824e-4;0;0;0;0;-0.023104;0.011193;140;153.94;71.559;180;NaN;14.074;996.55;339.83;0.05;0.015795
0.88549;48.014;115.29;144.03;122.34;154.64;-17.452;-5.0646e-4;17.452;-180;40.914;56.294;52;20;9.812;0.80286;-2.5214e-6;-12.264;9.224e-4;13312;3674.8;5.7614;0.091058;1889.9;1397.3;3.5188;0.35759;19371962;2257.4;81.703;0.59397;0.59512;0.33224;0.17739;0.084344;0.24495;0.87159;-2.6095e-4;0;0;0;0;-0.0098826;0.011949;140;153.94;70.787;180;NaN;14.038;995.89;339.81;0.02401;0.016095
0.9095;50.823;118.74;143.89;126.05;155.03;-18.45;-5.6843e-4;18.45;-180;42.281;57.702;52;20;9.812;0.95332;-2.2723e-6;-7.7337;0.0019003;13275;3638.3;5.7502;0.091032;1888.1;1396;3.515;0.3685;19957920;2265;86.967;0.59509;0.59671;0.33197;0.17814;0.08498;0.29217;1.031;1.6059e-4;0;0;0;0;-0.0037008;0.012317;140;153.94;70.545;180;NaN;14.02;995.56;339.79;0.019083;0.016391
0.92858;53.115;121.49;144.02;129;155.43;-19.268;-6.2134e-4;19.268;-180;43.389;58.449;52;20;9.812;1.0058;-2.5587e-6;-3.4932;0.0020309;13254;3617;5.7436;0.091017;1887.6;1395.2;3.5168;0.37715;20422009;2271.4;91.238;0.596;0.59781;0.33175;0.17875;0.085497;0.30893;1.087;2.8732e-4;0;0;0;0;-7.2086e-4;0.012611;140;153.94;70.438;180;NaN;14.005;995.29;339.79;0.017265;0.01669
0.94584;55.234;123.97;144.32;131.68;155.8;-20.025;-6.721e-4;20.025;-180;44.4;58.696;52;20;9.812;0.98019;-2.5491e-6;0.57007;9.1454e-4;13236;3599;5.7381;0.091003;1888.2;1394.6;3.5255;0.38499;20842757;2277.5;95.169;0.59685;0.59856;0.33155;0.17932;0.085977;0.30121;1.0616;-2.9386e-5;0;0;0;0;1.8425e-5;0.012878;140;153.94;70.412;180;NaN;13.991;995.04;339.78;0.016952;0.016994
0.9628;57.357;126.42;144.76;134.32;156.15;-20.787;-7.2466e-4;20.787;-180;45.393;58.537;52;20;9.812;0.89642;-2.5802e-6;4.5037;-5.1109e-5;13219;3582.1;5.7329;0.090991;1889.6;1394;3.5397;0.39269;21255828;2283.6;99.085;0.59769;0.59914;0.33135;0.17989;0.086458;0.27527;0.97306;-3.01e-4;0;0;0;0;0.0011053;0.013141;140;153.94;70.455;180;NaN;13.977;994.79;339.77;0.017765;0.017291
0.98056;59.625;128.99;145.39;137.09;156.5;-21.602;-7.8263e-4;21.602;-180;46.427;57.927;52;20;9.812;0.74766;-2.3238e-6;8.2749;-1.7225e-4;13202;3565;5.7276;0.090979;1891.9;1393.4;3.5605;0.40078;21689265;2290.3;103.27;0.59864;0.59965;0.33113;0.18054;0.086973;0.22912;0.81187;-2.6602e-4;0;0;0;0;0.0035825;0.013417;140;153.94;70.57;180;NaN;13.962;994.53;339.76;0.020428;0.017588
1.001;62.291;131.97;146.29;140.29;156.9;-22.563;-8.5294e-4;22.563;-180;47.598;56.704;52;20;9.812;0.51092;-2.2993e-6;11.745;-3.5945e-5;13183;3546.1;5.7217;0.090965;1895.5;1392.7;3.5911;0.41011;22188951;2299;108.29;0.60022;0.6007;0.33088;0.18177;0.08758;0.15599;0.55343;-3.1182e-4;0;0;0;0;0.0068935;0.013733;140;153.94;70.776;180;NaN;13.945;994.22;339.75;0.028598;0.017921
1.0296;66.125;136.17;147.83;144.78;157.44;-23.947;-9.5799e-4;23.947;-180;49.182;54.167;52;20;9.812;0.074171;-1.5926e-6;14.086;-0.0098775;13159;3521.9;5.7142;0.090947;1902.1;1391.9;3.6446;0.42333;22896188;2311.6;115.68;0.60251;0.60252;0.33051;0.18353;0.088464;0.022479;0.072373;3.9365e-4;0;0;0;0;0.0093061;0.014176;140;153.94;71.154;180;NaN;13.92;993.77;339.73;0.042898;0.018222
1.0725;72.103;142.54;150.04;151.53;158.27;-26.105;-0.0011303;26.105;-180;51.415;50.374;52;20;9.8119;0.47528;0;-10.867;-0.0034687;13124;3486.6;5.7032;0.090922;1897;1390.6;3.6173;0.44315;23955643;2323.6;127.5;0.60602;0.60643;0.32993;0.18624;0.089842;0.14572;0.53199;1.5792e-4;0;0;0;0;-0.0050551;0.014834;140;153.94;71.714;180;NaN;13.881;993.07;339.71;0.025427;0.01852
1.0979;75.776;146.36;150.85;155.55;158.58;-27.428;-0.0012409;27.428;-180;52.673;48.906;52;20;9.8119;0.64163;0;-5.9374;-0.0019907;13090;3452.8;5.6926;0.090897;1895.1;1389.4;3.6121;0.45491;24583115;2331.2;134.84;0.60815;0.60891;0.32957;0.18788;0.09069;0.19778;0.71611;-2.445e-4;0;0;0;0;-0.0014322;0.015223;140;153.94;71.931;180;NaN;13.857;992.63;339.7;0.0179;0.01882
1.1158;78.42;149.07;151.33;158.39;158.82;-28.379;-0.0013225;28.379;-180;53.54;48.185;52;20;9.8119;0.73251;0;-1.5411;-0.0019115;13068;3431.4;5.6859;0.090882;1894.1;1388.6;3.6107;0.46338;25035125;2337.1;140.28;0.6097;0.61069;0.32931;0.18908;0.091314;0.22654;0.81834;-2.4766e-4;0;0;0;0;-9.2989e-5;0.015496;140;153.94;71.999;180;NaN;13.84;992.32;339.69;0.015083;0.019126
1.1309;80.685;151.35;151.6;160.78;159.04;-29.192;-0.0013938;29.192;-180;54.265;48.067;52;20;9.8119;0.74767;0;2.6007;-0.0013014;13052;3415.1;5.6807;0.09087;1894.2;1388;3.6152;0.47055;25417481;2342.2;144.94;0.61104;0.61207;0.32909;0.1901;0.091852;0.23157;0.83713;1.1155e-5;0;0;0;0;2.5684e-4;0.015726;140;153.94;71.992;180;NaN;13.826;992.06;339.68;0.01429;0.019431
1.1452;82.864;153.51;151.64;163.05;159.19;-29.972;-0.0014634;29.972;-180;54.953;48.419;52;20;9.8119;0.70336;0;6.5687;-0.0010675;13038;3400.6;5.6762;0.090859;1895;1387.5;3.6251;0.47736;2.578e7;2346.3;149.41;0.61232;0.61323;0.32887;0.19108;0.092369;0.2179;0.7888;4.7502e-4;0;0;0;0;0.0015922;0.015945;140;153.94;71.926;180;NaN;13.811;991.8;339.67;0.014728;0.019739
1.1599;85.141;155.75;151.32;165.4;159.14;-30.787;-0.0015374;30.787;-180;55.672;49.278;52;20;9.8119;0.59134;0;10.339;-5.2929e-5;13023;3385.7;5.6715;0.090849;1896.9;1387;3.6419;0.48435;26152205;2347.9;154.04;0.61364;0.61429;0.32864;0.19209;0.092909;0.18299;0.66213;-4.2294e-4;0;0;0;0;0.0038319;0.016171;140;153.94;71.801;180;NaN;13.797;991.54;339.66;0.017033;0.020047
1.1769;87.816;158.32;150.74;168.11;159.09;-31.742;-0.0016258;31.742;-180;56.524;50.847;52;20;9.8119;0.40032;-3.7414e-7;13.775;0.001596;13006;3368.6;5.6661;0.090836;1899.8;1386.4;3.6676;0.49241;26581285;2349.8;159.47;0.61519;0.61549;0.32838;0.19327;0.093541;0.12356;0.44633;-1.2617e-4;0;0;0;0;0.0065813;0.016433;140;153.94;71.594;180;NaN;13.779;991.22;339.65;0.024433;0.020349
1.2014;91.729;161.99;149.64;171.99;159;-33.139;-0.001758;33.139;-180;57.801;53.753;52;20;9.8119;0.070096;-8.0755e-7;16.171;0.019321;12983;3346;5.6589;0.09082;1904.9;1385.5;3.7101;0.50398;27196115;2352.6;167.5;0.61743;0.61744;0.32799;0.19498;0.094466;0.02153;0.071145;-2.4998e-4;0;0;0;0;0.0086587;0.016812;140;153.94;71.221;180;NaN;13.754;990.76;339.63;0.036649;0.020647
1.238;97.766;167.44;147.87;177.82;158.87;-35.294;-0.001969;35.294;-180;59.853;58.084;52;19.999;9.8119;0.3703;-1.807e-6;-13.294;0.0050047;12950;3312.8;5.6483;0.090796;1901.5;1384.3;3.694;0.52135;28118616;2355.3;180.2;0.62087;0.62113;0.32739;0.19759;0.095896;0.11484;0.42989;2.9224e-4;0;0;0;0;-0.0054694;0.017385;140;153.94;70.66;180;NaN;13.715;990.06;339.61;0.022585;0.020959
1.2606;101.58;170.77;147.04;181.4;158.85;-36.661;-0.0021068;36.661;-180;61.189;60.125;52;19.999;9.8119;0.55582;-1.2762e-6;-8.2012;0.0018827;12918;3280.5;5.638;0.090772;1899.4;1383.1;3.6879;0.53194;2.868e7;2357;188.25;0.62301;0.6236;0.32702;0.1992;0.096791;0.17339;0.64141;-3.2074e-4;0;0;0;0;-0.0019995;0.017742;140;153.94;70.413;180;NaN;13.69;989.61;339.59;0.01452;0.021264
1.2751;104.08;172.9;146.67;183.71;158.82;-37.556;-0.0021986;37.556;-180;62.068;60.93;52;19.999;9.8118;0.62273;-1.2722e-6;-3.8589;0.0025911;12897;3260.3;5.6316;0.090758;1898.9;1382.4;3.6894;0.53867;29036258;2358.2;193.46;0.62438;0.62512;0.32677;0.20024;0.097369;0.19479;0.71926;-3.131e-4;0;0;0;0;-4.3174e-4;0.017972;140;153.94;70.325;-179.99;NaN;13.673;989.31;339.59;0.012616;0.021596
1.2877;106.27;174.75;146.53;185.71;158.75;-38.344;-0.0022806;38.344;-180;62.839;61.093;52;19.999;9.8118;0.62554;-1.1519e-6;0.22862;0.0029278;12883;3245.5;5.6268;0.090747;1899.2;1381.8;3.6956;0.54451;29345422;2359.3;198.01;0.62559;0.62633;0.32656;0.20115;0.097877;0.19591;0.72359;1.546e-4;0;0;0;0;1.4831e-6;0.018172;140;153.94;70.302;-179.99;NaN;13.659;989.06;339.58;0.012266;0.022066
1.3;108.43;176.55;146.57;187.65;158.66;-39.119;-0.0023621;39.119;-180;63.587;60.75;52;19.999;9.8118;0.57941;-1.1802e-6;4.1567;0.0021101;12869;3232;5.6225;0.090737;1900.2;1381.3;3.7063;0.55019;29645703;2360.5;202.45;0.62676;0.6274;0.32635;0.20204;0.098376;0.1815;0.67179;-4.8822e-4;0;0;0;0;4.8022e-4;0.018366;140;153.94;70.329;-179.99;NaN;13.645;988.8;339.57;0.012934;0.022523
1.3129;110.72;178.45;146.9;189.7;158.5;-39.947;-0.0024501;39.947;-180;64.365;59.514;52;19.999;9.8118;0.43628;-1.1211e-6;7.73;0.0024942;12855;3218.3;5.6181;0.090727;1902.6;1380.8;3.7271;0.55634;29970853;2361.9;207.28;0.62805;0.62841;0.32612;0.203;0.098922;0.13644;0.50704;-2.886e-4;0;0;0;0;0.0016243;0.018571;140;153.94;70.407;-179.99;NaN;13.63;988.54;339.56;0.016751;0.022976
1.3297;113.73;180.92;147.53;192.35;158.27;-41.033;-0.0025674;41.033;-180;65.344;57.325;52;19.999;9.8118;0.20521;-1.3806e-6;10.737;0.0036784;12839;3202.1;5.6129;0.090715;1906.4;1380.2;3.7585;0.5643;30391477;2363.8;213.65;0.62972;0.62981;0.32582;0.20426;0.099638;0.063974;0.23727;1.6857e-4;0;0;0;0;0.003046;0.018834;140;153.94;70.564;-179.99;NaN;13.611;988.18;339.55;0.025127;0.023401
1.3548;118.33;184.64;148.55;196.33;157.93;-42.693;-0.0027505;42.693;-180;66.738;53.611;52;19.999;9.8118;0.15396;-1.5779e-6;-10.976;-0.0026437;12816;3179.3;5.6055;0.090699;1908;1379.4;3.776;0.5762;3.102e7;2366.6;223.52;0.63226;0.63231;0.32537;0.20617;0.10073;0.048071;0.1843;-4.4836e-4;0;0;0;0;-0.0030536;0.019225;140;153.94;70.848;-179.99;NaN;13.581;987.64;339.53;0.03769;0.023831
1.3925;125.39;190.25;149.35;202.27;157.47;-45.245;-0.0030425;45.245;-180;68.679;49.927;52;19.999;9.8118;0.4573;-3.0839e-6;-3.1445;-0.0058282;12782;3145.1;5.5944;0.090674;1905.2;1378.1;3.7651;0.59385;31949286;2369;238.79;0.6361;0.63651;0.32467;0.20904;0.10238;0.14425;0.54323;-4.7637e-4;0;0;0;0;-2.3599e-4;0.019804;140;153.94;71.134;-179.99;NaN;13.535;986.82;339.5;0.013689;0.024272
1.4062;128.01;192.3;149.35;204.43;157.41;-46.19;-0.0031543;46.19;-180;69.36;49.709;52;19.999;9.8118;0.46355;-2.5211e-6;1.0068;-0.0051203;12754;3117.1;5.5853;0.090654;1905.7;1377;3.7759;0.60022;32284460;2370.2;244.41;0.6375;0.63792;0.32441;0.2101;0.10299;0.14646;0.55296;-2.1848e-4;0;0;0;0;2.3681e-5;0.020012;140;153.94;71.149;-179.99;NaN;13.518;986.51;339.49;0.013147;0.02471
1.4194;130.55;194.26;149.05;206.49;157.27;-47.106;-0.0032648;47.106;-180;70.016;50.186;52;19.999;9.8118;0.40862;-2.3604e-6;4.8517;-0.0055994;12740;3102.5;5.5806;0.090643;1907;1376.5;3.7892;0.6063;32604162;2371.5;249.8;0.63886;0.63918;0.32417;0.21111;0.10358;0.12914;0.48848;-8.8081e-6;0;0;0;0;5.3903e-4;0.020213;140;153.94;71.11;-179.99;NaN;13.501;986.21;339.48;0.014577;0.025165
1.4339;133.4;196.43;148.47;208.79;157.11;-48.132;-0.0033909;48.132;-180;70.756;51.362;52;19.999;9.8118;0.29725;-2.2839e-6;8.3871;-0.0038701;12724;3087.4;5.5756;0.090632;1909.1;1375.9;3.8088;0.61304;32958090;2373;255.84;0.64037;0.64054;0.32389;0.21223;0.10424;0.093879;0.35616;4.6546e-4;0;0;0;0;0.0015757;0.020435;140;153.94;71.012;-179.99;NaN;13.483;985.88;339.47;0.019545;0.025597
1.4535;137.27;199.32;147.42;211.85;156.89;-49.525;-0.0035659;49.525;-180;71.782;53.683;52;19.999;9.8117;0.095429;-2.0254e-6;11.1;-0.0099568;12706;3068.8;5.5696;0.090619;1912.8;1375.2;3.8401;0.62207;33431790;2375.3;264.09;0.64241;0.64242;0.32352;0.21375;0.10514;0.03008;0.1129;-3.1688e-4;0;0;0;0;0.0026804;0.020735;140;153.94;70.818;-179.99;NaN;13.458;985.42;339.45;0.029317;0.026017
1.4828;143.17;203.62;145.67;216.45;156.57;-51.653;-0.0038401;51.653;-180;73.412;57.407;52;19.999;9.8117;0.20445;-1.4444e-6;-9.718;-2.3608e-5;12679;3042.2;5.5608;0.090599;1912.6;1374.2;3.8459;0.6356;34140849;2377.8;276.86;0.64551;0.64559;0.32294;0.21606;0.1065;0.064808;0.25123;-3.5479e-6;0;0;0;0;-0.0019684;0.021188;140;153.94;70.497;-179.99;NaN;13.419;984.73;339.43;0.025737;0.026318
1.5085;148.46;207.35;144.62;220.47;156.3;-53.562;-0.0040917;53.562;-180;74.919;59.291;52;19.999;9.8117;0.33833;-1.8168e-6;-3.9767;-0.0020043;12649;3012.2;5.551;0.090578;1912;1373;3.8496;0.64749;34762830;2379.7;288.43;0.64827;0.6485;0.32243;0.21811;0.10773;0.10787;0.41531;1.2496e-4;0;0;0;0;-3.1766e-4;0.021589;140;153.94;70.316;-179.99;NaN;13.385;984.11;339.41;0.014986;0.026719
1.5235;151.58;209.52;144.43;222.81;156.12;-54.691;-0.0042422;54.691;-180;75.808;59.266;52;19.999;9.8117;0.3263;-1.7507e-6;0.065699;3.731e-4;12627;2990;5.5437;0.090561;1912.9;1372.2;3.8622;0.65444;35126210;2381;295.28;0.64991;0.65012;0.32213;0.21933;0.10845;0.1042;0.4029;2.8291e-4;0;0;0;0;8.4876e-8;0.021822;140;153.94;70.286;-179.99;NaN;13.365;983.74;339.4;0.015107;0.027138
1.5386;154.77;211.7;144.49;225.17;155.86;-55.843;-0.0043969;55.843;-180;76.698;58.428;52;19.999;9.8117;0.25739;-1.8898e-6;3.7384;-0.0021858;12611;2973.6;5.5382;0.09055;1914.6;1371.5;3.879;0.66144;35491748;2382.6;302.25;0.65156;0.6517;0.32182;0.22056;0.10919;0.082232;0.31861;3.8453e-5;0;0;0;0;2.6905e-4;0.022057;140;153.94;70.316;-179.99;NaN;13.344;983.37;339.39;0.01869;0.027491
1.5573;158.75;214.41;144.8;228.08;155.5;-57.287;-0.0045921;57.287;-180;77.774;56.688;52;19.999;9.8117;0.13035;-2.5751e-6;6.7732;-0.0067287;12592;2955.2;5.5321;0.090536;1917.3;1370.8;3.9036;0.67002;35939484;2384.7;310.93;0.65362;0.65365;0.32143;0.22208;0.11011;0.041634;0.16193;2.5183e-4;0;0;0;0;8.6077e-4;0.022345;140;153.94;70.417;-179.99;NaN;13.318;982.9;339.37;0.028034;0.027792
1.5853;164.82;218.47;145.36;232.43;154.95;-59.489;-0.0048938;59.489;-180;79.322;53.684;52;19.999;9.8117;0.066884;-2.4825e-6;-7.5037;-0.020161;12567;2929.8;5.5237;0.090518;1919.7;1369.8;3.9275;0.68272;36600762;2387.9;324.1;0.65669;0.6567;0.32085;0.22435;0.11149;0.021412;0.08503;-3.0953e-4;0;0;0;0;-0.0010176;0.022775;140;153.94;70.628;-179.99;NaN;13.279;982.19;339.35;0.042051;0.02809
1.6274;174.13;224.6;145.63;238.93;154.14;-62.871;-0.0053692;62.871;-180;81.502;50.5;52;19.999;9.8116;0.25291;-3.5986e-6;-0.50841;-0.0060475;12529;2891.6;5.511;0.09049;1919.4;1368.3;3.9361;0.70193;37598612;2390.6;344.73;0.66142;0.66155;0.31996;0.22784;0.11362;0.081723;0.32141;1.6844e-4;0;0;0;0;-4.4206e-6;0.02341;140;153.94;70.816;-179.99;NaN;13.218;981.1;339.31;0.016408;0.028441
1.6438;177.84;226.99;145.34;241.46;153.92;-64.215;-0.0055634;64.215;-180;82.331;50.668;52;19.999;9.8116;0.23335;-3.4468e-6;3.4848;-0.0045126;12497;2859.8;5.5003;0.090467;1920.6;1367.1;3.9537;0.70945;37988545;2392.1;352.99;0.6633;0.66341;0.3196;0.22922;0.11448;0.075544;0.2987;3.0825e-4;0;0;0;0;2.0332e-4;0.023656;140;153.94;70.791;-179.99;NaN;13.194;980.66;339.29;0.017258;0.02876
1.6611;181.78;229.49;144.53;244.11;153.6;-65.643;-0.0057731;65.643;-179.99;83.215;52.004;52;19.999;9.8116;0.13803;-3.6802e-6;6.8203;-0.0058418;12478;2841.4;5.4942;0.090454;1922.9;1366.4;3.9754;0.71728;38394391;2394.1;361.69;0.66527;0.66531;0.31922;0.23068;0.11537;0.044705;0.17699;2.7218e-4;0;0;0;0;7.6198e-4;0.023915;140;153.94;70.7;-179.99;NaN;13.168;980.2;339.28;0.025887;0.029063
1.687;187.76;233.21;142.86;248.08;153.11;-67.815;-0.0060986;67.815;-179.99;84.601;55.068;52;19.999;9.8116;0.06342;-4.7385e-6;-7.783;-0.0020057;12455;2817.9;5.4863;0.090437;1925.4;1365.4;4.0002;0.72896;38998120;2391.6;374.94;0.66825;0.66825;0.31866;0.23286;0.11673;0.020586;0.083558;6.1232e-5;0;0;0;0;-9.6086e-4;0.024306;140;153.94;70.5;-179.99;NaN;13.13;979.5;339.26;0.03883;0.029482
1.7258;196.93;238.7;135.91;253.99;146.83;-71.143;-0.0066087;71.143;-179.99;86.797;55.579;52;19.999;9.8116;0.20902;-6.5576e-6;-0.84652;-0.0043225;12420;2782.7;5.4744;0.090411;1925.7;1364;4.0124;0.74638;39897081;2358.6;395.34;0.67275;0.67284;0.31779;0.23617;0.11879;0.068425;0.27433;2.2914e-4;0;0;0;0;-1.0845e-5;0.024894;140;153.94;70.319;-179.99;NaN;13.07;978.43;339.22;0.016936;0.029917
1.7427;200.99;241.04;135.57;256.51;146.25;-72.621;-0.006838;72.621;-179.99;87.745;54.847;52;19.999;9.8115;0.17102;-5.628e-6;2.9406;-0.0061271;12390;2752.4;5.4641;0.090389;1927.3;1362.8;4.032;0.75379;40278547;2318.2;404.19;0.6747;0.67476;0.31742;0.2376;0.11968;0.05608;0.22567;1.0908e-4;0;0;0;0;1.2831e-4;0.025144;140;153.94;70.337;-179.99;NaN;13.044;977.95;339.2;0.020157;0.030362
1.7629;205.87;243.76;120.57;259.44;129.53;-74.4;-0.0071155;74.4;-179.99;88.827;47.343;52;19.999;9.8115;0.056294;-5.0123e-6;5.7469;-0.021673;12370;2732.6;5.4574;0.090375;1930.1;1362;4.0576;0.76245;40723269;2114.8;414.65;0.67698;0.67699;0.31697;0.23927;0.12074;0.018473;0.074638;-9.91e-5;0;0;0;0;4.7907e-4;0.025435;140;153.94;70.429;-179.99;NaN;13.012;977.38;339.18;0.030235;0.030797
1.7931;213.3;247.38;116.1;263.31;123.5;-77.107;-0.0075421;77.107;-179.99;90.192;42.097;52;19.999;9.8115;0.1275;-4.2919e-6;-4.1461;-0.014724;12344;2707.4;5.4488;0.090356;1930.7;1361;4.0693;0.77395;41309331;2069.4;428.82;0.68005;0.68009;0.31638;0.24152;0.12215;0.042064;0.17111;2.1627e-4;0;0;0;0;-2.4203e-4;0.025816;140;153.94;70.594;-179.99;NaN;12.964;976.51;339.15;0.025185;0.031189
1.8183;219.57;250.31;114.2;266.42;121.33;-79.392;-0.0079096;79.392;-179.99;91.24;40.971;52;19.999;9.8115;0.14297;-1.1998e-6;0.61715;-0.012153;12318;2681.4;5.4399;0.090337;1931.8;1359.9;4.0846;0.78302;41769458;2050;440.18;0.6825;0.68254;0.31591;0.24331;0.12329;0.047335;0.19369;-7.0258e-5;0;0;0;0;5.24e-6;0.02612;140;153.94;70.639;-179.99;NaN;12.923;975.77;339.13;0.021717;0.031492
1.84;225.03;252.78;111.91;269.05;119.45;-81.383;-0.0082381;81.383;-179.99;92.143;41.775;52;19.999;9.8115;0.06047;-9.9305e-7;3.6174;-0.025255;12297;2659.7;5.4325;0.090322;1934;1359.1;4.1069;0.79065;42155407;2027.6;449.84;0.68457;0.68458;0.3155;0.24482;0.12425;0.020044;0.081681;4.3302e-4;0;0;0;0;1.7659e-4;0.026378;140;153.94;70.589;-179.99;NaN;12.887;975.13;339.11;0.032575;0.031815
1.8726;233.32;256.39;107.84;272.92;116.02;-84.407;-0.008753;84.407;-179.99;93.538;42.8;52;19.999;9.8114;0.053377;-1.9978e-6;-3.2961;-0.019277;12272;2634.7;5.4239;0.090304;1935.8;1358;4.1269;0.80207;42731984;1993.9;464.59;0.68771;0.68772;0.31489;0.24711;0.12571;0.017766;0.073919;-3.5967e-4;0;0;0;0;-1.425e-4;0.026761;140;153.94;70.465;-179.99;NaN;12.833;974.16;339.08;0.048863;0.032117
1.9214;245.98;261.61;102.89;278.54;110.75;-89.029;-0.0095664;89.029;-179.99;95.623;40.963;52;19.999;9.8114;0.042414;0;0.88217;-0.023317;12234;2597.1;5.4109;0.090276;1938.5;1356.5;4.1569;0.81876;43571168;1953.1;486.66;0.69236;0.69237;0.31398;0.2505;0.12788;0.014205;0.05915;3.4259e-4;0;0;0;0;9.7983e-6;0.027319;140;153.94;70.425;-179.99;NaN;12.751;972.67;339.03;0.05;0.032415
1.9714;259.19;266.74;99.333;284.04;106.31;-93.86;-0.010423;93.86;-179.99;97.611;37.89;52;19.999;9.8114;0.039066;-9.9394e-6;-0.1732;-0.021192;12189;2551.5;5.3951;0.090243;1941;1354.6;4.1886;0.83514;44388762;1916.9;508.89;0.697;0.697;0.31307;0.25388;0.13006;0.013169;0.054893;-2.4228e-4;0;0;0;0;-3.6315e-7;0.027864;140;153.94;70.474;-179.99;NaN;12.665;971.12;338.97;0.05;0.032712
2.0214;272.65;271.68;95.811;289.33;103.03;-98.788;-0.011331;98.788;-179.99;99.513;37.889;52;19.999;9.8113;0.01205;-1.429e-5;-1.6928;-0.033504;12144;2506.8;5.3795;0.090211;1943.8;1352.7;4.2221;0.85081;45165876;1893.2;530.71;0.70151;0.70151;0.31218;0.25715;0.13218;0.0040865;0.017133;3.7514e-4;0;0;0;0;-3.3432e-5;0.028387;140;153.94;70.406;-179.99;NaN;12.578;969.54;338.92;0.05;0.033052
2.0714;286.35;276.44;92.811;294.45;99.719;-103.81;-0.012288;103.81;-179.99;101.41;36.47;52;19.998;9.8113;0.0046952;-1.9156e-5;-0.27882;-0.01505;12101;2463.9;5.3645;0.09018;1946.4;1351;4.253;0.86601;45915377;1870.1;552.41;0.70595;0.70595;0.3113;0.26038;0.13427;0.0016025;0.0071976;4.4181e-4;0;0;0;0;-8.7571e-7;0.028896;140;153.94;70.392;-179.99;NaN;12.489;967.94;338.87;0.05;0.033351
2.1214;300.29;281.06;89.817;299.41;96.36;-108.93;-0.013289;108.93;-179.99;103.21;34.902;52;19.998;9.8112;0.028466;-1.7425e-5;1.8348;0.028231;12059;2421.5;5.3495;0.090149;1948.5;1349.2;4.2809;0.881;4.665e7;1847;574.32;0.71038;0.71039;0.31042;0.26359;0.13637;0.0097859;0.04143;-3.1227e-4;0;0;0;0;3.6657e-5;0.029386;140;153.94;70.349;-179.99;NaN;12.398;966.3;338.81;0.05;0.033652
2.1714;314.45;285.51;85.989;304.2;93.106;-114.13;-0.014324;114.13;-179.99;104.98;35.702;52;19.998;9.8112;0.048421;-1.1592e-5;-1.6823;0.016968;12016;2379.1;5.3345;0.090118;1950.6;1347.4;4.3088;0.89536;47348418;1825.2;595.77;0.7147;0.7147;0.30956;0.26672;0.13842;0.016764;0.07181;1.3825e-4;0;0;0;0;-2.9843e-5;0.029862;140;153.94;70.224;-179.99;NaN;12.306;964.64;338.76;0.044439;0.034049
2.2159;327.23;289.31;83.541;308.31;90.151;-118.83;-0.015277;118.83;-179.99;106.55;33.884;52;19.998;9.8112;0.013316;-3.9313e-6;1.7866;0.066586;11976;2339;5.3203;0.090089;1953.1;1345.6;4.3389;0.90746;47931719;1803.4;615.59;0.72004;0.72004;0.30805;0.27182;0.14017;0.0046341;0.019864;1.1105e-4;0;0;0;0;3.2776e-5;0.030273;140;153.94;70.254;-179.99;NaN;12.223;963.14;338.71;0.05;0.03454
2.2659;341.8;293.47;80.509;312.78;86.466;-124.2;-0.016411;124.2;-179.99;108.19;31.539;52;19.998;9.8111;0.030733;9.0851e-6;0.50113;0.014071;11936;2299;5.3059;0.09006;1955.1;1343.9;4.3655;0.9207;48565612;1780.4;638.74;0.72707;0.72707;0.30587;0.27909;0.14211;0.010769;0.046983;-2.5432e-4;0;0;0;0;2.5061e-6;0.030716;140;153.94;70.289;-179.99;NaN;12.128;961.43;338.65;0.05;0.035104
2.3159;356.57;297.45;76.863;317.07;83.102;-129.65;-0.017578;129.65;-179.99;109.79;31.591;52;19.998;9.8111;0.013491;1.5696e-5;-1.225;-0.0032647;11894;2256.8;5.2908;0.090029;1957.5;1342.1;4.3956;0.93355;49175875;1758.7;661.71;0.73395;0.73395;0.30375;0.28617;0.14403;0.0047556;0.020723;-3.3762e-4;0;0;0;0;-1.457e-5;0.031142;140;153.94;70.212;-179.99;NaN;12.032;959.7;338.59;0.05;0.035617
2.3659;371.54;301.27;74.03;321.18;79.718;-135.18;-0.018814;135.18;-179.99;111.35;29.572;52;19.998;9.811;0.021618;2.2318e-5;0.50467;0.029698;11853;2216.2;5.2761;0.09;1959.4;1340.3;4.4222;0.94596;4.976e7;1737.9;684.36;0.74066;0.74066;0.30171;0.29305;0.1459;0.0076672;0.033714;-4.0064e-4;0;0;0;0;2.4094e-6;0.031553;140;153.94;70.201;-179.99;NaN;11.935;957.95;338.53;0.05;0.036023
2.4159;386.69;304.93;70.283;325.13;76.407;-140.78;-0.020086;140.78;-179.99;112.83;29.972;52;19.998;9.811;0.030908;3.2905e-5;-1.7626;0.028232;11814;2177.1;5.2619;0.089971;1961.2;1338.6;4.4476;0.95798;50321033;1717.1;707.08;0.74755;0.74756;0.29973;0.30009;0.14773;0.011027;0.049401;1.2469e-4;0;0;0;0;-2.8665e-5;0.031946;140;153.94;70.09;-179.99;NaN;11.836;956.17;338.47;0.05;0.036328
2.4659;402.03;308.42;67.765;328.91;72.987;-146.46;-0.021395;146.46;-179.99;114.3;27.11;52;19.998;9.8109;0.030674;4.0219e-5;-0.11555;0.0089076;11775;2138;5.2476;0.089943;1963.1;1336.9;4.4728;0.96928;50842389;1696.3;728.98;0.75426;0.75426;0.29787;0.3069;0.14948;0.011;0.049269;-2.2866e-4;0;0;0;0;-1.2039e-7;0.032325;140;153.94;70.124;-179.99;NaN;11.737;954.38;338.41;0.05;0.036636
2.5159;417.53;311.76;63.874;332.53;69.75;-152.21;-0.022757;152.21;-179.99;115.67;28.02;52;19.998;9.8109;0.036966;4.5565e-5;-1.3968;0.019766;11736;2098.9;5.2333;0.089915;1964.7;1335.1;4.4968;0.98026;51347962;1676.8;750.69;0.76081;0.76081;0.29607;0.31354;0.1512;0.013322;0.059885;1.9279e-4;0;0;0;0;-1.7205e-5;0.032686;140;153.94;70.01;-179.99;NaN;11.636;952.65;338.35;0.044166;0.036942
2.5601;431.36;314.57;61.525;335.58;66.992;-157.35;-0.023988;157.35;-179.99;116.89;26.505;52;19.998;9.8108;0.017957;4.5936e-5;1.8169;-0.008575;11699;2062;5.2197;0.089888;1966.3;1333.5;4.52;0.98908;51747181;1657.2;768.33;0.76611;0.76611;0.29461;0.3189;0.15259;0.0064933;0.029587;1.8686e-4;0;0;0;0;2.8605e-5;0.032993;140;153.94;70.054;-179.99;NaN;11.546;951.1;338.3;0.05;0.037242
2.6101;447.17;317.62;59.146;338.89;63.634;-163.22;-0.025421;163.22;-179.99;118.16;23.476;52;19.998;9.8108;0.041729;4.4514e-5;-1.0943;-0.010445;11662;2025.2;5.2061;0.089861;1967.3;1331.8;4.5395;0.99849;52166619;1639.1;787.36;0.77179;0.77179;0.29306;0.32463;0.15409;0.015152;0.068869;-3.1466e-4;0;0;0;0;-1.0186e-5;0.033324;140;153.94;70.175;-179.99;NaN;11.443;949.34;338.23;0.036951;0.037542
2.647;458.94;319.8;56.895;341.23;61.4;-167.6;-0.026503;167.6;-179.99;119.02;23.086;52;19.998;9.8108;0.031353;3.2543e-5;3.8118;-0.014184;11628;1991.4;5.1935;0.089837;1968.5;1330.3;4.5589;1.0058;52496280;1622.2;803.97;0.77766;0.77767;0.29185;0.33237;0.15344;0.011414;0.051622;5.7294e-5;0;0;0;0;1.2182e-4;0.033556;140;153.94;70.105;-179.98;NaN;11.367;948.02;338.19;0.048528;0.037855
2.6955;474.53;322.48;53.364;344.17;58.18;-173.41;-0.02797;173.41;-179.99;120.23;23.177;52;19.997;9.8107;0.0066604;2.251e-5;1.0364;-0.042818;11597;1959.5;5.1816;0.089813;1970;1328.8;4.5801;1.0145;52875446;1603.1;823.3;0.78427;0.78427;0.29042;0.34171;0.15213;0.0024313;0.010761;3.2345e-4;0;0;0;0;8.8551e-6;0.033854;140;153.94;70.061;-179.99;NaN;11.266;946.28;338.13;0.05;0.038167
2.7455;490.72;325.13;50.361;347.04;54.973;-179.45;-0.029515;179.45;-179.99;121.34;22.042;52;19.997;9.8107;0.004153;2.6912e-5;-1.1898;0.0011948;11561;1923.6;5.1681;0.089787;1971.2;1327.2;4.6005;1.0233;53255272;1583.8;843.16;0.79101;0.79101;0.28898;0.35121;0.15083;0.0015203;0.0069393;1.2942e-4;0;0;0;0;-1.1476e-5;0.034141;140;153.94;70.027;-179.98;NaN;11.16;944.47;338.06;0.05;0.03847
2.7955;507.04;327.62;47.587;349.75;51.896;-185.54;-0.03111;185.54;-179.99;122.44;20.705;52;19.997;9.8106;0.0044546;3.2605e-5;-0.28198;-0.0051426;11524;1887.2;5.1544;0.089761;1972.2;1325.5;4.6197;1.0312;53592269;1564.4;861.42;0.79724;0.79724;0.28767;0.35991;0.14966;0.0016347;0.0079582;-4.2435e-4;0;0;0;0;-6.3491e-7;0.034416;140;153.94;70.043;-179.98;NaN;11.054;942.65;338;0.05;0.038776
2.8455;523.48;329.97;44.603;352.31;48.858;-191.69;-0.032749;191.69;-179.99;123.46;19.942;52;19.997;9.8106;0.0030295;3.467e-5;-0.72466;0.024351;11488;1850.7;5.1405;0.089734;1973.2;1323.8;4.6388;1.0391;5.392e7;1545.1;879.55;0.80338;0.80338;0.28638;0.36846;0.14853;0.0011142;0.0050104;2.5116e-4;0;0;0;0;-4.1319e-6;0.034673;140;153.94;70.001;-179.98;NaN;10.947;940.81;337.93;0.05;0.039081
2.8955;540.03;332.17;42.025;354.72;46.083;-197.89;-0.034435;197.89;-179.99;124.44;18.908;52;19.997;9.8105;4.3218e-4;3.2568e-5;0.42385;0.48885;11452;1814.5;5.1268;0.089708;1974.1;1322.1;4.6573;1.0464;5.422e7;1528.3;896.71;0.8092;0.8092;0.28517;0.37653;0.14749;1.5923e-4;8.2787e-4;6.7587e-5;0;0;0;0;1.3943e-6;0.034917;140;153.94;69.974;-179.98;NaN;10.84;938.96;337.87;0.05;0.039384
2.9455;556.69;334.24;39.91;356.99;43.728;-204.13;-0.036164;204.13;-179.99;125.4;17.87;52;19.997;9.8105;0.0062124;3.4793e-5;-0.83336;-0.037758;11416;1779.2;5.1133;0.089683;1974.8;1320.4;4.6739;1.0529;54475641;1512.9;909.99;0.81268;0.81268;0.2841;0.382;0.14658;0.0022925;0.010648;-2.4635e-4;0;0;0;0;-5.3258e-6;0.035148;140;153.94;70.014;-179.98;NaN;10.731;937.1;337.8;0.05;0.039897
2.9955;573.46;336.22;37.818;359.16;41.629;-210.43;-0.03793;210.43;-179.99;126.29;17.4;52;19.997;9.8104;0.0016795;3.2219e-5;0.59338;0.097962;11382;1744.8;5.1;0.089658;1975.5;1318.8;4.6908;1.0592;54718441;1497.5;920.58;0.81404;0.81404;0.28307;0.38526;0.14571;6.2052e-4;0.0027561;6.8879e-5;0;0;0;0;2.6692e-6;0.035368;140;153.94;70.028;-179.98;NaN;10.623;935.23;337.74;0.05;0.040198
3.0455;590.31;338.1;35.765;361.22;39.526;-216.76;-0.039756;216.76;-179.99;127.15;16.828;52;19.997;9.8103;0.00579;3.8068e-5;-0.22457;0.0093214;11347;1710.4;5.0867;0.089633;1976.1;1317.1;4.7067;1.0654;54953815;1482.1;931.02;0.8154;0.8154;0.28205;0.38849;0.14487;0.0021418;0.010338;1.4975e-4;0;0;0;0;-3.7805e-7;0.035577;140;153.94;70.017;-179.98;NaN;10.513;933.35;337.67;0.05;0.040498
3.0955;607.26;339.88;33.866;363.17;37.425;-223.14;-0.041622;223.14;-179.99;127.97;15.927;52;19.997;9.8103;4.0351e-4;3.6676e-5;-0.41973;0.20331;11313;1675.9;5.0734;0.089608;1976.7;1315.5;4.7231;1.0713;55172750;1466.6;940.93;0.81672;0.81672;0.28108;0.39156;0.14407;1.4938e-4;4.7607e-4;-4.8108e-4;0;0;0;0;-1.3066e-6;0.035776;140;153.94;70.012;-179.98;NaN;10.403;931.45;337.6;0.05;0.040807
3.1455;624.3;341.56;31.878;365.02;35.25;-229.56;-0.043537;229.56;-179.99;128.76;15.044;52;19.997;9.8102;0.0036939;3.179e-5;0.16975;0.056552;11279;1641.6;5.06;0.089583;1977.2;1313.8;4.7383;1.0768;55373807;1449.9;950.24;0.81797;0.81797;0.28016;0.39448;0.14333;0.0013686;0.0060043;-3.5097e-4;0;0;0;0;2.1161e-7;0.035965;140;153.94;70.007;-179.98;NaN;10.292;929.55;337.54;0.05;0.041108
3.1955;641.42;343.13;29.717;366.76;33.053;-236.02;-0.045484;236.02;-179.99;129.52;14.471;52;19.997;9.8102;0.0013637;2.5024e-5;-0.10933;-0.1171;11245;1608.2;5.0469;0.089558;1977.7;1312.2;4.7535;1.0821;5.556e7;1432.2;959.05;0.81918;0.81918;0.27929;0.39726;0.14262;5.0554e-4;0.0021101;1.5695e-4;0;0;0;0;-8.6954e-8;0.036143;140;153.94;69.986;-179.98;NaN;10.181;927.64;337.47;0.05;0.041407
3.2455;658.61;344.61;27.52;368.4;30.875;-242.51;-0.04749;242.51;-179.99;130.23;13.997;52;19.996;9.8101;0.0081294;8.7273e-6;-0.92439;-0.11785;11213;1575.7;5.0342;0.089535;1978.1;1310.6;4.7674;1.0873;55739161;1414.4;967.67;0.82036;0.82036;0.27844;0.39998;0.14194;0.0030153;0.014174;-1.0814e-5;0;0;0;0;-6.1592e-6;0.03631;140;153.94;69.933;-179.98;NaN;10.069;925.72;337.4;0.05;0.041708
3.2955;675.88;345.98;25.472;369.92;28.681;-249.04;-0.049572;249.04;-179.99;130.9;13.182;52;19.996;9.8101;0.0053598;-4.2163e-6;-1.6492;-0.0021554;11180;1543.2;5.0213;0.089511;1978.5;1309;4.7819;1.0923;55906462;1396.7;975.88;0.82151;0.82151;0.27762;0.4026;0.14129;0.0019886;0.0095861;1.8697e-4;0;0;0;0;-1.9434e-5;0.036467;140;153.94;69.873;-179.98;NaN;9.9568;923.79;337.33;0.05;0.042012
3.3455;693.21;347.25;23.728;371.33;26.504;-255.6;-0.051707;255.6;-179.99;131.55;11.809;52;19.996;9.81;0.012218;-5.0919e-6;1.0044;0.055866;11148;1510.7;5.0084;0.089488;1978.7;1307.4;4.7952;1.0967;56043140;1379;982.93;0.82253;0.82253;0.27689;0.40492;0.14073;0.0045345;0.022189;8.3135e-5;0;0;0;0;7.1527e-6;0.036613;140;153.94;69.862;-179.98;NaN;9.8442;921.85;337.26;0.05;0.042311
3.3955;710.6;348.41;21.814;372.64;24.628;-262.19;-0.053868;262.19;-179.99;132.17;11.433;52;19.996;9.81;0.0054232;-9.897e-7;0.39065;0.11781;11115;1478.2;4.9955;0.089464;1979.1;1305.8;4.8096;1.101;56173382;1363.1;989.59;0.82338;0.82338;0.27626;0.40695;0.14018;0.0020127;0.009615;2.6654e-5;0;0;0;0;1.0741e-6;0.03675;140;153.94;69.798;-179.98;NaN;9.7311;919.91;337.2;0.05;0.04261
3.4455;728.05;349.49;20.123;373.85;23.025;-268.82;-0.056072;268.82;-179.99;132.75;11.188;52;19.996;9.8099;0.0030798;2.2621e-6;0.029225;-0.051482;11084;1446.5;4.9828;0.089441;1979.4;1304.2;4.8229;1.1048;56275225;1348.6;994.65;0.8237;0.8237;0.27592;0.40809;0.1397;0.0011429;0.0052543;-1.5551e-5;0;0;0;0;5.9727e-9;0.036877;140;153.94;69.77;-179.98;NaN;9.6177;917.96;337.13;0.05;0.042915
3.4955;745.54;350.49;18.52;374.99;21.439;-275.47;-0.058328;275.47;-179.99;133.3;10.799;52;19.996;9.8099;0.0074619;7.1313e-6;-0.4409;-0.069691;11053;1415.5;4.9703;0.089419;1979.6;1302.7;4.8353;1.1083;56363240;1334.1;999.22;0.82401;0.82401;0.2756;0.40915;0.13925;0.0027693;0.013655;-3.8477e-4;0;0;0;0;-1.3513e-6;0.036996;140;153.94;69.75;-179.98;NaN;9.504;916;337.06;0.05;0.043217
3.5455;763.09;351.42;17.076;376.04;19.975;-282.14;-0.060654;282.14;-179.99;133.81;10.365;52;19.996;9.8098;0.0090128;-9.6183e-6;-1.4148;-0.012795;11022;1384.5;4.9578;0.089396;1979.8;1301.1;4.8479;1.1118;5.645e7;1321.1;1003.8;0.82431;0.82431;0.27529;0.41021;0.13881;0.0033446;0.015731;-3.335e-4;0;0;0;0;-1.3832e-5;0.037106;140;153.94;69.701;-179.98;NaN;9.3899;914.04;336.99;0.05;0.043515
3.5955;780.68;352.28;16.091;377.01;18.544;-288.85;-0.063048;288.85;-179.99;134.31;9.218;52;19.996;9.8098;0.0092342;-5.1135e-5;1.4281;0.23227;10991;1354.1;4.9455;0.089374;1980;1299.6;4.8603;1.115;56518151;1309.6;1007.7;0.82459;0.82459;0.275;0.41117;0.13842;0.0034262;0.016905;-2.1097e-4;0;0;0;0;1.4021e-5;0.03721;140;153.94;69.686;-179.98;NaN;9.2755;912.08;336.92;0.05;0.043818
3.6455;798.32;353.06;15.087;377.92;17.184;-295.58;-0.065455;295.58;-179.99;134.8;8.2263;52;19.996;9.8097;0.023192;-9.0939e-5;0.11896;0.11142;10961;1324.2;4.9333;0.089352;1980;1298;4.8711;1.1179;56573208;1298.2;1011.1;0.82485;0.82486;0.27474;0.41206;0.13806;0.0086059;0.041484;1.2026e-4;0;0;0;0;9.6823e-8;0.037308;140;153.94;69.673;-179.98;NaN;9.1609;910.11;336.85;0.048379;0.044122
3.6939;815.42;353.77;13.461;378.74;16.208;-302.11;-0.067802;302.11;-179.99;135.25;9.0283;52;19.996;9.8097;0.0077123;-1.2141e-4;0.23789;-0.067548;10932;1294.7;4.9213;0.089331;1980.3;1296.5;4.8845;1.1208;5.663e7;1286.9;1014.5;0.82511;0.82511;0.27447;0.41294;0.1377;0.0028604;0.013853;2.2729e-4;0;0;0;0;3.853e-7;0.037396;140;153.94;69.581;-179.97;NaN;9.0498;908.2;336.78;0.05;0.044432
3.7439;833.12;354.45;12.257;379.53;15.641;-308.88;-0.070295;308.88;-179.99;135.67;9.7166;52;19.995;9.8096;0.032371;-1.7216e-4;-1.1123;-0.053396;10902;1265.3;4.9092;0.08931;1980.2;1295;4.8941;1.1236;56674123;1279.6;1017.5;0.82533;0.82534;0.27423;0.41374;0.13737;0.012008;0.059072;2.677e-4;0;0;0;0;-8.3858e-6;0.03748;140;153.94;69.509;-179.97;NaN;8.9347;906.22;336.71;0.033614;0.044749
3.7775;845.04;354.87;12.742;380.03;15.174;-313.45;-0.072048;313.45;-179.99;135.97;8.2412;52;19.995;9.8096;0.0046815;-1.632e-4;-0.42577;0.10595;10877;1240.4;4.8989;0.089291;1980.6;1293.7;4.9065;1.1252;56696261;1280.4;1019.3;0.82548;0.82548;0.27407;0.41424;0.13716;0.0017355;0.0080974;4.5637e-4;0;0;0;0;-1.2254e-6;0.037536;140;153.94;69.518;-179.98;NaN;8.8572;904.89;336.67;0.05;0.045054
3.8275;862.8;355.5;12.272;380.77;15.46;-320.25;-0.074611;320.25;-179.99;136.39;9.4025;52;19.995;9.8095;0.024432;-1.2409e-4;0.18466;-0.081743;10853;1215.7;4.8887;0.089274;1980.5;1292.4;4.9147;1.1277;56726375;1281.7;1021.8;0.82568;0.82568;0.27385;0.41498;0.13686;0.009058;0.044331;1.9077e-4;0;0;0;0;2.2958e-7;0.037616;140;153.94;69.456;-179.97;NaN;8.7418;902.9;336.6;0.044438;0.045354
3.872;878.61;356.07;12.65;381.42;15.105;-326.32;-0.076971;326.32;-179.99;136.74;8.2549;52;19.995;9.8095;0.0042673;-1.09e-4;1.6408;-0.26659;10825;1187.9;4.8772;0.089253;1980.8;1290.9;4.9277;1.13;56755212;1282.9;1024.1;0.82587;0.82587;0.27365;0.41564;0.13658;0.0015811;0.007865;4.3042e-4;0;0;0;0;1.806e-5;0.037686;140;153.94;69.45;-179.98;NaN;8.639;901.13;336.53;0.05;0.045654
3.922;896.43;356.69;12.778;382.16;14.941;-333.17;-0.079672;333.17;-179.99;137.17;7.7432;52;19.995;9.8094;0.016973;-6.4842e-5;0.96195;0.0035428;10797;1160.1;4.8656;0.089233;1980.8;1289.5;4.9378;1.1326;56790613;1284.3;1026.8;0.82609;0.82609;0.27341;0.41642;0.13627;0.0062879;0.031406;1.7838e-4;0;0;0;0;6.1816e-6;0.037767;140;153.94;69.41;-179.98;NaN;8.5232;899.14;336.46;0.05;0.045959
3.972;914.28;357.31;12.257;382.89;15.213;-340.04;-0.08241;340.04;-179.99;137.61;9.0115;52;19.995;9.8094;0.01487;5.0285e-5;1.1719;-0.38929;10768;1130.7;4.8532;0.089212;1980.9;1287.9;4.9498;1.135;56820795;1285.6;1029.3;0.8263;0.8263;0.27319;0.41713;0.13598;0.0055067;0.026791;1.6893e-4;0;0;0;0;9.1385e-6;0.037848;140;153.94;69.346;-179.98;NaN;8.4072;897.23;336.39;0.05;0.046257
4.022;932.17;357.94;12.001;383.62;15.286;-346.93;-0.085115;346.93;-179.99;138.01;9.4686;52;19.995;9.8093;0.02643;3.3542e-4;-0.95524;-0.42994;10738;1101.2;4.8409;0.08919;1980.8;1286.4;4.9606;1.1373;56843938;1286.2;1031.4;0.8265;0.8265;0.27298;0.41781;0.13571;0.0097859;0.048887;9.0044e-5;0;0;0;0;-6.0505e-6;0.037927;140;153.94;69.33;-179.97;NaN;8.2909;895.32;336.32;0.039567;0.046557
4.0615;946.34;358.43;12.525;384.2;14.754;-352.4;-0.087376;352.4;-179.99;138.35;7.7972;52;19.995;9.8093;0.014095;2.4031e-4;0.42875;-0.076672;10712;1074.8;4.8297;0.089171;1981.1;1284.9;4.9723;1.1392;56868204;1286.5;1033.4;0.82667;0.82667;0.27281;0.41838;0.13548;0.0052158;0.025441;-3.3989e-5;0;0;0;0;1.2152e-6;0.03799;140;153.94;69.346;-179.98;NaN;8.1988;893.82;336.27;0.05;0.046933
4.1115;964.27;359.03;11.964;384.92;14.884;-359.33;-0.090246;359.33;-179.99;138.78;8.8544;52;19.995;9.8092;0.01293;3.6854e-4;0.67978;-0.18822;10685;1048.3;4.8185;0.089152;1981.2;1283.5;4.9832;1.1418;56904273;1286.9;1036.1;0.82687;0.82687;0.27258;0.41912;0.13517;0.0047827;0.024302;-4.7132e-4;0;0;0;0;3.0425e-6;0.03807;140;153.94;69.268;-179.98;NaN;8.0822;891.91;336.2;0.05;0.047366
4.1615;982.24;359.64;11.336;385.63;15.239;-366.27;-0.093135;366.27;-179.99;139.18;10.184;52;19.995;9.8091;0.04569;7.543e-4;-1.0275;-0.29893;10656;1018.7;4.8059;0.089131;1980.8;1281.9;4.9922;1.1441;5.693e7;1287.2;1038.4;0.82704;0.82705;0.27236;0.41979;0.13489;0.016902;0.084853;-3.2956e-4;0;0;0;0;-6.9248e-6;0.038148;140;153.94;69.211;-179.98;NaN;7.9654;890;336.13;0.022496;0.048097
4.184;990.33;359.9;11.76;385.95;14.794;-369.41;-0.094505;369.41;-179.99;139.39;8.9752;52;19.995;9.8091;0.017112;7.3927e-4;1.9777;-0.58965;10634;997.27;4.7967;0.089115;1981.2;1280.7;5.0033;1.1452;5.694e7;1287.4;1039.3;0.82712;0.82712;0.27227;0.42008;0.13477;0.0063256;0.031324;3.4958e-4;0;0;0;0;2.5615e-5;0.038184;140;153.94;69.229;-179.99;NaN;7.9128;889.14;336.09;0.033743;0.048667
4.2178;1002.5;360.32;12.439;386.43;14.254;-374.12;-0.096436;374.12;-179.99;139.65;6.9606;52;19.995;9.8091;0.031891;6.4968e-4;0.51511;-0.20348;10618;980.64;4.7896;0.089103;1981.1;1279.8;5.0088;1.1467;56956302;1287.7;1040.8;0.82724;0.82725;0.27213;0.42053;0.13459;0.011788;0.059221;-4.8319e-4;0;0;0;0;1.7334e-6;0.038235;140;153.94;69.263;-179.97;NaN;7.8338;887.84;336.05;0.032055;0.049255
4.2498;1014;360.71;11.77;386.88;14.52;-378.6;-0.098364;378.6;-179.99;139.9;8.5023;52;19.994;9.809;0.0060214;6.1946e-4;-1.9906;-0.46583;10598;961.19;4.7813;0.089089;1981.4;1278.8;5.0191;1.1483;56974421;1288;1042.4;0.82736;0.82736;0.27198;0.42098;0.1344;0.0022239;0.011354;-4.7707e-5;0;0;0;0;-2.5822e-5;0.038284;140;153.94;69.203;-179.97;NaN;7.7587;886.61;336;0.048082;0.049839
4.2979;1031.4;361.27;12.275;387.56;14.09;-385.33;-0.10127;385.33;-179.98;140.3;6.9178;52;19.994;9.809;0.031714;7.5636e-4;1.3607;-0.17045;10575;937.5;4.7711;0.089072;1981.2;1277.5;5.0264;1.1505;56991827;1288.3;1044.3;0.82753;0.82753;0.27179;0.42159;0.13415;0.011713;0.059315;4.1937e-5;0;0;0;0;1.2025e-5;0.038358;140;153.94;69.224;-179.97;NaN;7.6459;884.77;335.93;0.031785;0.050315
4.3297;1042.9;361.64;11.415;388;14.569;-389.8;-0.10325;389.8;-179.98;140.56;9.0522;52;19.994;9.809;0.02006;7.2561e-4;-1.1365;-0.09563;10551;913.88;4.7608;0.089054;1981.3;1276.2;5.037;1.1518;57001132;1288.6;1045.5;0.82764;0.82764;0.27166;0.42199;0.13399;0.0074046;0.037193;-7.165e-5;0;0;0;0;-8.3714e-6;0.038408;140;153.94;69.167;-179.98;NaN;7.5712;883.55;335.89;0.047677;0.050617
4.3774;1060.1;362.21;11.855;388.66;14.119;-396.51;-0.10618;396.51;-179.98;140.94;7.6678;52;19.994;9.8089;0.012689;7.8211e-4;2.1268;-0.27797;10527;890.39;4.7507;0.089037;1981.5;1274.9;5.0473;1.1539;57015361;1289;1047.3;0.8278;0.8278;0.27147;0.42258;0.13375;0.0046806;0.02344;-4.4565e-4;0;0;0;0;2.9222e-5;0.03848;140;153.94;69.19;-179.97;NaN;7.4591;881.71;335.82;0.05;0.050932
4.4274;1078.3;362.78;12.542;389.35;13.712;-403.57;-0.10931;403.57;-179.98;141.37;5.5436;52;19.994;9.8088;0.06246;0.0011433;0.27549;-0.23732;10499;861.51;4.7381;0.089016;1980.9;1273.3;5.0545;1.1562;57030942;1289.2;1049.3;0.82798;0.82799;0.27127;0.42322;0.13349;0.023049;0.1161;4.9728e-4;0;0;0;0;4.8861e-7;0.038556;140;153.94;69.221;-179.96;NaN;7.3413;879.78;335.75;0.016059;0.051234
4.4434;1084.1;362.98;12.023;389.57;13.869;-405.84;-0.11032;405.84;-179.98;141.47;6.9143;52;19.994;9.8088;0.030032;0.0011391;3.4471;-0.44806;10479;841.97;4.7295;0.089002;1981.3;1272.2;5.0654;1.1569;57035908;1289.1;1049.9;0.82803;0.82804;0.2712;0.42342;0.13341;0.011074;0.05577;-3.2454e-4;0;0;0;0;7.6418e-5;0.03858;140;153.94;69.187;-179.96;NaN;7.3034;879.16;335.72;0.024088;0.051534
4.4675;1092.8;363.25;10.831;389.9;14.478;-409.25;-0.11192;409.25;-179.98;141.67;9.6077;52;19.994;9.8088;0.03555;0.0011201;-2.6231;-0.17515;10467;830.12;4.7243;0.088994;1981.3;1271.5;5.0698;1.158;57046298;1288.4;1051;0.82812;0.82813;0.2711;0.42375;0.13328;0.013106;0.066717;2.6358e-4;0;0;0;0;-4.4174e-5;0.038617;140;153.94;69.104;-179.98;NaN;7.2465;878.23;335.69;0.027824;0.051847
4.4953;1103;363.55;10.967;390.28;14.036;-413.19;-0.11374;413.19;-179.98;141.94;8.7588;52;19.994;9.8088;0.016868;0.0010946;1.0172;-0.11427;10452;814.8;4.7176;0.088982;1981.5;1270.6;5.0778;1.1593;57058907;1287.3;1052.2;0.82823;0.82823;0.27098;0.42413;0.13312;0.0062139;0.031978;4.4378e-4;0;0;0;0;6.6293e-6;0.03866;140;153.94;69.093;-179.98;NaN;7.1808;877.16;335.65;0.041736;0.052156
4.5371;1118.1;364.03;10.808;390.83;13.669;-419.12;-0.11642;419.12;-179.98;142.24;8.3676;52;19.994;9.8087;0.0093746;0.0010857;-1.7815;-0.060781;10431;794.29;4.7086;0.088968;1981.6;1269.5;5.087;1.1614;5.708e7;1285.8;1054.1;0.82837;0.82837;0.27079;0.42468;0.13289;0.003451;0.017156;-1.9895e-4;0;0;0;0;-2.0269e-5;0.03872;140;153.94;69.061;-179.97;NaN;7.0821;875.54;335.59;0.05;0.052456
4.5871;1136.4;364.58;10.896;391.49;13.136;-426.25;-0.1197;426.25;-179.98;142.64;7.337;52;19.994;9.8087;0.012837;0.0011224;2.2931;-0.13585;10404;767.24;4.6966;0.088948;1981.6;1267.9;5.0978;1.1636;57093129;1284.2;1056;0.82851;0.82851;0.27059;0.42528;0.13264;0.0047229;0.024448;4.9636e-4;0;0;0;0;3.3469e-5;0.038792;140;153.94;69.054;-179.97;NaN;6.9637;873.6;335.52;0.05;0.052756
4.6371;1154.6;365.1;11.58;392.13;12.586;-433.39;-0.12303;433.39;-179.98;143.05;4.9306;52;19.994;9.8086;0.067426;0.001232;0.060027;-0.055316;10375;737.75;4.6835;0.088927;1980.9;1266.3;5.1049;1.1655;57092398;1283.2;1057.4;0.82864;0.82865;0.27042;0.42581;0.13242;0.024817;0.1263;-4.5628e-4;0;0;0;0;2.2867e-8;0.038865;140;153.94;69.106;-179.96;NaN;6.8452;871.66;335.45;0.014493;0.053061
4.6516;1159.9;365.27;11.063;392.31;12.747;-435.46;-0.12402;435.46;-179.98;143.13;6.3323;52;19.994;9.8086;0.034577;0.001232;3.2694;-0.087216;10356;718.73;4.6751;0.088913;1981.4;1265.2;5.1157;1.1661;57091520;1282.7;1057.7;0.82868;0.82868;0.27037;0.42596;0.13235;0.012716;0.064791;-2.0201e-4;0;0;0;0;6.778e-5;0.038884;140;153.94;69.079;-179.97;NaN;6.8108;871.1;335.43;0.021739;0.053371
4.6733;1167.8;365.49;9.8982;392.58;13.377;-438.58;-0.12553;438.58;-179.98;143.3;8.9982;52;19.994;9.8086;0.028921;0.0012303;-3.3269;0.0062843;10345;708.05;4.6703;0.088905;1981.4;1264.6;5.1207;1.1671;57097239;1281.8;1058.5;0.82874;0.82874;0.27028;0.42622;0.13224;0.010632;0.054422;4.9601e-4;0;0;0;0;-7.008e-5;0.038914;140;153.94;68.998;-179.97;NaN;6.7591;870.26;335.39;0.032608;0.053672
4.7059;1179.8;365.82;10.003;392.99;12.915;-443.26;-0.12776;443.26;-179.98;143.6;8.1695;52;19.994;9.8085;0.0109;0.0012237;0.73713;0.027632;10329;692.02;4.6631;0.088893;1981.7;1263.6;5.129;1.1685;57105156;1280.5;1059.7;0.82883;0.82883;0.27014;0.42661;0.13208;0.0040039;0.020636;4.5322e-4;0;0;0;0;3.4329e-6;0.038961;140;153.94;68.983;-179.97;NaN;6.6816;868.99;335.35;0.048912;0.053979
4.7548;1197.7;366.32;8.9323;393.59;13.491;-450.29;-0.13115;450.29;-179.98;143.96;10.111;52;19.993;9.8085;0.0583;0.0012124;-0.7861;0.015796;10305;667.98;4.6523;0.088876;1981.1;1262.2;5.1346;1.1706;57114039;1279.5;1061.4;0.82897;0.82898;0.26995;0.42718;0.13184;0.021419;0.10985;2.5995e-4;0;0;0;0;-3.8916e-6;0.039028;140;153.94;68.9;-179.98;NaN;6.5652;867.08;335.28;0.016494;0.05428
4.7713;1203.7;366.47;9.2443;393.79;13.153;-452.66;-0.13229;452.66;-179.98;144.12;9.357;52;19.993;9.8085;0.040519;0.0012141;2.927;0.018767;10286;648.69;4.6437;0.088862;1981.3;1261.1;5.1443;1.1712;57108623;1278.8;1061.7;0.82901;0.82902;0.2699;0.42733;0.13178;0.014879;0.076255;7.7102e-5;0;0;0;0;5.3912e-5;0.039052;140;153.94;68.92;-179.97;NaN;6.526;866.44;335.25;0.023712;0.054584
4.795;1212.4;366.7;10.326;394.07;12.046;-456.08;-0.13393;456.08;-179.98;144.3;6.2041;52;19.993;9.8084;0.031679;0.0012169;-3.0196;0.040333;10274;636.89;4.6383;0.088853;1981.4;1260.4;5.15;1.172;57100552;1277.6;1062;0.82906;0.82907;0.26983;0.42754;0.13169;0.011627;0.05986;-1.2205e-4;0;0;0;0;-5.7311e-5;0.039084;140;153.94;69.003;-179.97;NaN;6.4695;865.52;335.22;0.030164;0.054888
4.8252;1223.5;367.01;9.9756;394.43;12.01;-460.44;-0.13606;460.44;-179.98;144.49;6.6884;52;19.993;9.8084;0.018973;0.0012193;1.4407;0.0024664;10258;621.14;4.6312;0.088842;1981.6;1259.5;5.1578;1.173;57090901;1276;1062.5;0.82913;0.82913;0.26974;0.42782;0.13158;0.0069596;0.03621;2.3401e-4;0;0;0;0;1.3026e-5;0.039122;140;153.94;69.009;-179.97;NaN;6.3975;864.34;335.18;0.045246;0.055188
