# Time (s);Altitude (m);Vertical velocity (m/s);Vertical acceleration (m/s²);Total velocity (m/s);Total acceleration (m/s²);Position East of launch (m);Position North of launch (m);Lateral distance (m);Lateral direction (°);Lateral velocity (m/s);Lateral acceleration (m/s²);Latitude (°);Longitude (°);Gravitational acceleration (m/s²);Angle of attack (°);Roll rate (°/s);Pitch rate (°/s);Yaw rate (°/s);Mass (g);Propellant mass (g);Longitudinal moment of inertia (kg·m²);Rotational moment of inertia (kg·m²);CP location (mm);CG location (mm);Stability margin calibers (?);Mach number (?);Reynolds number (?);Thrust (N);Drag force (N);Drag coefficient (?);Axial drag coefficient (?);Friction drag coefficient (?);Pressure drag coefficient (?);Base drag coefficient (?);Normal force coefficient (?);Pitch moment coefficient (?);Yaw moment coefficient (?);Side force coefficient (?);Roll moment coefficient (?);Roll forcing coefficient (?);Roll damping coefficient (?);Pitch damping coefficient (?);Coriolis acceleration (m/s²);Reference length (mm);Reference area (cm²);Vertical orientation (zenith) (°);Lateral orientation (azimuth) (°);Wind velocity (m/s);Air temperature (°C);Air pressure (mbar);Speed of sound (m/s);Simulation time step (s);Computation time (s)
0;0;0;-3.2598;0;3.469;0;0;0;0;0;1.1865;52;20;9.8122;110;0;0;0;16148;4498.6;6.9526;0.094708;NaN;1353.8;NaN;0.010849;590211;92.865;-0.0071896;0.66589;-0.056576;0.42571;0.16609;0.074091;NaN;NaN;NaN;NaN;NaN;NaN;NaN;NaN;0;140;153.94;70;180;NaN;14.35;1001.5;340;0.01;0.0017402
0.01;0;0;23.587;0;25.101;0;0;0;0;0;8.585;52;20;9.8122;110;0;0;0;16148;4498.6;6.9526;0.094708;NaN;1353.8;NaN;0.010973;596951;554.21;-0.0073436;0.66488;-0.05649;0.4247;0.16609;0.074091;NaN;NaN;NaN;NaN;NaN;NaN;NaN;NaN;0;140;153.94;70;180;NaN;14.35;1001.5;340;0.01;0.0022762
0.02;0.0011796;0.23593;52.739;0.25107;56.124;-4.2934e-4;0;4.2934e-4;180;0.085872;19.195;52;20;9.8122;106.34;0;0;0;16144;4495;6.9513;0.094705;NaN;1353.7;NaN;0.010866;591156;1054.9;-0.0041176;0.66574;-0.032298;0.42557;0.16609;0.074091;NaN;NaN;NaN;NaN;NaN;NaN;NaN;NaN;2.4609e-5;140;153.94;70;180;NaN;14.35;1001.5;339.99;0.01;0.0027487
0.03;0.0061764;0.76346;81.909;0.81246;87.166;-0.002248;0;0.002248;180;0.27788;29.812;52;20;9.8122;97.819;0;0;0;16140;4490.5;6.9498;0.094702;NaN;1353.6;NaN;0.010643;579000;1555.6;-4.7988e-4;0.6676;-0.0039239;0.42742;0.16609;0.074091;NaN;NaN;NaN;NaN;NaN;NaN;NaN;NaN;7.9634e-5;140;153.94;70;180;NaN;14.35;1001.5;339.99;0.01;0.0032589
0.04;0.017907;1.5828;104;1.6843;110.68;-0.0065177;0;0.0065177;180;0.57608;37.853;52;20;9.8122;84.247;0;0;0;16135;4486;6.9482;0.094699;NaN;1353.4;NaN;0.010714;582886;1934.6;1.9802e-4;0.667;0.0015977;0.42682;0.16609;0.074091;NaN;NaN;NaN;NaN;NaN;NaN;NaN;NaN;1.6509e-4;140;153.94;70;180;NaN;14.35;1001.5;339.99;0.01;0.0037418
0.05;0.038936;2.6231;105.55;2.7915;112.33;-0.014172;0;0.014172;180;0.95474;38.418;52;20;9.8122;68.302;0;0;0;16129;4479.7;6.946;0.094694;NaN;1353.2;NaN;0.011598;630991;1960.5;0.010172;0.66;0.070033;0.41982;0.16609;0.074092;NaN;NaN;NaN;NaN;NaN;NaN;NaN;NaN;2.7361e-4;140;153.94;70;180;NaN;14.35;1001.5;339.99;0.01;0.0042161
0.06;0.070448;3.6792;105.82;3.9153;112.61;-0.025641;0;0.025641;180;1.3391;38.516;52;20;9.8122;53.554;0;0;0;16120;4470.6;6.9428;0.094688;NaN;1352.9;NaN;0.012985;706443;1964;0.047927;0.65032;0.26325;0.41013;0.16609;0.074095;NaN;NaN;NaN;NaN;NaN;NaN;NaN;NaN;3.8377e-4;140;153.94;70;180;NaN;14.35;1001.5;339.99;0.01;0.0047077
0.07;0.11253;4.738;106.09;5.0421;112.9;-0.040959;0;0.040959;180;1.7245;38.615;52;20;9.8122;42.217;0;0;0;16110;4460.7;6.9394;0.09468;NaN;1352.6;NaN;0.015053;818936;1967.5;0.11591;0.63815;0.47377;0.39795;0.1661;0.0741;NaN;NaN;NaN;NaN;NaN;NaN;NaN;NaN;4.942e-4;140;153.94;70;180;NaN;14.349;1001.5;339.99;0.01;0.0051949
0.08;0.16522;5.7995;106.36;6.1717;113.19;-0.060135;0;0.060135;180;2.1108;38.713;52;20;9.8122;33.843;0;0;0;16100;4450.8;6.9359;0.094673;NaN;1352.3;NaN;0.017568;955746;1971;0.20891;0.626;0.62692;0.38579;0.1661;0.074106;NaN;NaN;NaN;NaN;NaN;NaN;NaN;NaN;6.0492e-4;140;153.94;70;180;NaN;14.349;1001.5;339.99;0.01;0.0056306
0.09;0.22854;6.8637;106.63;7.3042;113.48;-0.08318;0;0.08318;180;2.4982;38.812;52;20;9.8122;27.651;0;0;0;16090;4441;6.9324;0.094666;NaN;1352;NaN;0.020369;1108132;1974.6;0.32076;0.61489;0.71604;0.37466;0.16611;0.074115;NaN;NaN;NaN;NaN;NaN;NaN;NaN;NaN;7.1593e-4;140;153.94;70;180;NaN;14.349;1001.5;339.99;0.01;0.0060433
0.1;0.30251;7.9306;106.9;8.4395;113.76;-0.1101;0;0.1101;180;2.8865;38.91;52;20;9.8122;22.988;0;0;0;16080;4431.1;6.929;0.094659;NaN;1351.7;NaN;0.023357;1270703;1978.1;0.4466;0.60504;0.75816;0.36479;0.16612;0.074125;NaN;NaN;NaN;NaN;NaN;NaN;NaN;NaN;8.2721e-4;140;153.94;70;180;NaN;14.348;1001.5;339.99;0.01;0.0065259
0.11;0.38716;9.0002;107.17;9.5778;114.05;-0.14091;0;0.14091;180;3.2758;39.008;52;20;9.8122;20.369;0;0;0;16070;4421.2;6.9255;0.094652;NaN;1351.4;NaN;0.026472;1440142;1981.6;0.57955;0.59637;0.76597;0.35609;0.16614;0.074138;NaN;NaN;NaN;NaN;NaN;NaN;NaN;NaN;9.3878e-4;140;153.94;70;180;NaN;14.347;1001.5;339.99;0.01;0.0069973
0.12;0.48252;10.072;107.44;10.719;114.34;-0.17562;0;0.17562;180;3.6661;39.106;52;20;9.8122;18.299;0;0;0;16061;4411.3;6.9221;0.094645;NaN;1351.1;NaN;0.029639;1612387;1985.1;0.72464;0.58881;0.76403;0.34851;0.16615;0.074152;NaN;NaN;NaN;NaN;NaN;NaN;NaN;NaN;0.0010506;140;153.94;70;180;NaN;14.347;1001.5;339.99;0.01;0.0074772
0.13;0.58862;11.147;107.71;11.863;114.62;-0.21424;0;0.21424;180;4.0573;39.204;52;20;9.8122;16.626;0;0;0;16051;4401.4;6.9186;0.094637;NaN;1350.7;NaN;0.032844;1786763;1988.7;0.88115;0.58216;0.75655;0.34182;0.16617;0.074168;NaN;NaN;NaN;NaN;NaN;NaN;NaN;NaN;0.0011628;140;153.94;70;180;NaN;14.346;1001.5;339.99;0.01;0.0079466
0.14;0.70548;12.225;107.98;13.01;114.91;-0.25677;0;0.25677;180;4.4496;39.301;52;20;9.8122;15.248;0;0;0;16041;4391.6;6.9151;0.09463;NaN;1350.4;NaN;0.036081;1962828;1992.2;1.0468;0.57687;0.74479;0.3365;0.16619;0.074186;NaN;NaN;NaN;NaN;NaN;NaN;NaN;NaN;0.0012752;140;153.94;70;180;NaN;14.345;1001.4;339.99;0.01;0.0084949
0.15;0.83314;13.305;108.25;14.159;115.19;-0.30324;0;0.30324;180;4.8428;39.399;52;20;9.8122;14.095;0;0;0;16031;4381.7;6.9116;0.094623;NaN;1350.1;NaN;0.039343;2140279;1995.7;1.2309;0.5769;0.73653;0.33649;0.16621;0.074206;NaN;NaN;NaN;NaN;NaN;NaN;NaN;NaN;0.0013878;140;153.94;70;180;NaN;14.345;1001.4;339.99;0.01;0.0090185
0.16;0.9716;14.388;108.52;15.312;115.48;-0.35363;0;0.35363;180;5.237;39.496;52;20;9.8122;12.624;0;0;0;16021;4371.8;6.9081;0.094616;NaN;1349.8;NaN;0.042673;2321396;1999.2;1.4185;0.57693;0.72151;0.33648;0.16623;0.074228;NaN;NaN;NaN;NaN;NaN;NaN;NaN;NaN;0.0015008;140;153.94;70;180;NaN;14.344;1001.4;339.99;0.01;0.0094565
0.17;1.1209;15.474;108.78;16.467;115.76;-0.40798;0;0.40798;180;5.6321;39.594;52;20;9.8122;11.364;0;0;0;16011;4361.9;6.9047;0.094609;NaN;1349.5;NaN;0.046035;2504262;2002.8;1.6144;0.57697;0.70561;0.33647;0.16625;0.074252;NaN;NaN;NaN;NaN;NaN;NaN;NaN;NaN;0.0016141;140;153.94;70;180;NaN;14.343;1001.4;339.99;0.01;0.0098818
0.18;1.2811;16.563;109.05;17.625;116.05;-0.46628;0;0.46628;180;6.0283;39.691;52;20;9.8122;10.275;0;0;0;16001;4352;6.9012;0.094602;NaN;1349.2;NaN;0.049425;2688616;2006.3;1.8204;0.57701;0.69028;0.33646;0.16628;0.074278;NaN;NaN;NaN;NaN;NaN;NaN;NaN;NaN;0.0017276;140;153.94;70;180;NaN;14.342;1001.4;339.99;0.01;0.010318
0.19;1.4522;17.654;109.32;18.787;116.33;-0.52855;0;0.52855;180;6.4254;39.788;52;20;9.8122;9.3241;0;0;0;15991;4342.2;6.8977;0.094594;NaN;1348.9;NaN;0.052839;2874258;2009.8;2.038;0.57706;0.67617;0.33644;0.16631;0.074306;NaN;NaN;NaN;NaN;NaN;NaN;NaN;NaN;0.0018414;140;153.94;70;180;NaN;14.341;1001.4;339.99;0.01;0.010741
0.2;1.6342;18.747;109.58;19.95;116.62;-0.59479;0;0.59479;180;6.8235;39.885;52;20;9.8122;8.4878;0;0;0;15982;4332.3;6.8942;0.094587;NaN;1348.5;NaN;0.056273;3061038;2013.3;2.2682;0.57711;0.66349;0.33643;0.16634;0.074336;NaN;NaN;NaN;NaN;NaN;NaN;NaN;NaN;0.0019555;140;153.94;70;180;NaN;14.339;1001.3;339.99;0.01;0.011175
0.21;1.8271;19.844;109.85;21.117;116.9;-0.66502;0;0.66502;180;7.2225;39.982;52;20;9.8122;8.1273;0;0;0;15972;4322.4;6.8907;0.09458;NaN;1348.2;NaN;0.059642;3244228;2016.9;2.5269;0.57716;0.65804;0.33642;0.16637;0.074367;NaN;NaN;NaN;NaN;NaN;NaN;NaN;NaN;0.0020698;140;153.94;70;180;NaN;14.338;1001.3;339.99;0.01;0.011611
0.22;2.0311;20.943;110.11;22.287;117.18;-0.73925;0;0.73925;180;7.6225;40.078;52;20;9.8122;7.8043;0;0;0;15962;4312.5;6.8872;0.094573;NaN;1347.9;NaN;0.063021;3427972;2020.4;2.8004;0.57721;0.65319;0.33641;0.16641;0.0744;NaN;NaN;NaN;NaN;NaN;NaN;NaN;NaN;0.0021845;140;153.94;70;180;NaN;14.337;1001.3;339.99;0.01;0.012043
0.23;2.246;22.044;110.38;23.459;117.46;-0.81748;0;0.81748;180;8.0235;40.175;52;20;9.8122;7.5132;0;0;0;15952;4302.6;6.8837;0.094566;NaN;1347.6;NaN;0.06641;3612251;2023.9;3.089;0.57727;0.64885;0.33639;0.16644;0.074436;NaN;NaN;NaN;NaN;NaN;NaN;NaN;NaN;0.0022994;140;153.94;70;180;NaN;14.335;1001.3;339.99;0.01;0.01248
0.24;2.472;23.149;110.64;24.634;117.74;-0.89972;0;0.89972;180;8.4254;40.271;52;20;9.8122;7.2496;0;0;0;15942;4292.8;6.8802;0.094559;NaN;1347.3;NaN;0.069809;3797050;2027.4;3.3927;0.57733;0.64496;0.33637;0.16648;0.074473;NaN;NaN;NaN;NaN;NaN;NaN;NaN;NaN;0.0024146;140;153.94;70;180;NaN;14.334;1001.2;339.99;0.01;0.012903
0.25;2.709;24.256;110.91;25.812;118.02;-0.98599;0;0.98599;180;8.8283;40.366;52;20;9.8122;7.0096;0;0;0;15932;4282.9;6.8767;0.094551;NaN;1347;NaN;0.073217;3982358;2031;3.7117;0.57739;0.64146;0.33636;0.16652;0.074512;NaN;NaN;NaN;NaN;NaN;NaN;NaN;NaN;0.00253;140;153.94;70;180;NaN;14.332;1001.2;339.98;0.01;0.013338
0.26;2.9571;25.365;111.17;26.993;118.3;-1.0763;0;1.0763;180;9.2322;40.462;52;20;9.8122;6.752;0;0;0;15922;4273;6.8732;0.094544;NaN;1346.6;NaN;0.076647;4168819;2034.5;4.0439;0.57746;0.63774;0.33634;0.16657;0.074553;NaN;NaN;NaN;NaN;NaN;NaN;NaN;NaN;0.0026458;140;153.94;70;180;NaN;14.331;1001.2;339.98;0.01;0.013762
0.27;3.2163;26.477;111.43;28.177;118.58;-1.1706;0;1.1706;180;9.637;40.557;52;20;9.8122;6.5158;0;0;0;15912;4263.1;6.8696;0.094537;NaN;1346.3;NaN;0.080086;4355790;2038;4.3916;0.57753;0.63438;0.33632;0.16661;0.074596;NaN;NaN;NaN;NaN;NaN;NaN;NaN;NaN;0.0027618;140;153.94;70;180;NaN;14.329;1001.1;339.98;0.01;0.014198
0.28;3.4867;27.592;111.69;29.363;118.86;-1.269;0;1.269;180;10.043;40.653;52;20;9.8122;6.2984;0;0;0;15902;4253.2;6.8661;0.09453;NaN;1346;NaN;0.083535;4543261;2041.5;4.7549;0.5776;0.63134;0.3363;0.16666;0.074642;NaN;NaN;NaN;NaN;NaN;NaN;NaN;NaN;0.0028781;140;153.94;70;180;NaN;14.327;1001.1;339.98;0.01;0.014626
0.29;3.7682;28.71;111.95;30.552;119.14;-1.3715;0;1.3715;180;10.449;40.748;52;20;9.8122;6.0977;0;0;0;15893;4243.4;6.8626;0.094523;NaN;1345.7;NaN;0.086993;4731222;2045.1;5.1341;0.57768;0.62858;0.33628;0.16671;0.074689;NaN;NaN;NaN;NaN;NaN;NaN;NaN;NaN;0.0029946;140;153.94;70;180;NaN;14.326;1001.1;339.98;0.01;0.015051
0.3;4.0609;29.83;112.21;31.744;119.41;-1.478;0;1.478;180;10.857;40.842;52;20;9.8122;5.9118;0;0;0;15883;4233.5;6.8591;0.094516;NaN;1345.4;NaN;0.090461;4919665;2048.6;5.5291;0.57776;0.62607;0.33626;0.16676;0.074738;NaN;NaN;NaN;NaN;NaN;NaN;NaN;NaN;0.0031114;140;153.94;70;180;NaN;14.324;1001;339.98;0.01;0.015481
0.31;4.3648;30.952;112.47;32.939;119.69;-1.5886;0;1.5886;180;11.266;40.937;52;20;9.8122;5.7961;0;0;0;15873;4223.6;6.8555;0.094508;NaN;1345;NaN;0.093913;5107298;2052.1;5.9446;0.57784;0.62456;0.33624;0.16681;0.074789;NaN;NaN;NaN;NaN;NaN;NaN;NaN;NaN;0.0032285;140;153.94;70;180;NaN;14.322;1001;339.98;0.01;0.015907
0.32;4.6799;32.078;112.73;34.136;119.97;-1.7034;0;1.7034;180;11.675;41.031;52;20;9.8122;5.688;0;0;0;15863;4213.7;6.852;0.094501;NaN;1344.7;NaN;0.097374;5295376;2055.6;6.3764;0.57793;0.62317;0.33622;0.16687;0.074843;NaN;NaN;NaN;NaN;NaN;NaN;NaN;NaN;0.0033459;140;153.94;70;180;NaN;14.32;1001;339.98;0.01;0.016375
0.33;5.0063;33.205;111.4;35.336;120.33;-1.8222;0;1.8222;180;12.086;45.48;52;20;9.8122;5.5869;0;0;0;15853;4203.8;6.8485;0.094494;1824.5;1344.4;3.429;0.10084;5483896;2060;6.8247;0.57802;0.62189;0.3362;0.16692;0.074898;1.8443;6.3244;1.2644e-4;0;0;0;0;0;0.0034635;140;153.94;70;180;NaN;14.317;1000.9;339.98;0.015;0.016886
0.345;5.517;34.878;111.81;37.142;120.78;-2.0086;-1.5888e-7;2.0086;-180;12.769;45.674;52;20;9.8122;5.327;0;1.2551;-4.766e-5;15841;4191.5;6.844;0.094485;1827.5;1344;3.4536;0.10604;5766417;2066.6;7.506;0.57816;0.61858;0.33616;0.16702;0.074984;1.7499;6.0427;-3.5857e-4;0;0;0;0;0.0011758;0.0036435;140;153.94;70.009;180;NaN;14.314;1000.9;339.97;0.0225;0.017307
0.3675;6.33;37.397;112.47;39.861;121.45;-2.3074;-1.0172e-6;2.3074;-180;13.797;45.829;52;20;9.8121;4.779;0;3.2374;-9.829e-5;15822;4173;6.8374;0.094472;1834;1343.4;3.5044;0.11397;6196882;2076.6;8.5741;0.57839;0.61182;0.3361;0.16716;0.075124;1.5534;5.4373;4.915e-4;0;0;0;0;0.0067728;0.0039146;140;153.94;70.06;180;NaN;14.309;1000.8;339.97;0.03375;0.017715
0.40125;7.6564;41.203;113.54;43.966;122.43;-2.7992;-3.7989e-6;2.7992;-180;15.342;45.814;52;20;9.8121;3.9382;0;6.2854;-2.9749e-4;15794;4145.2;6.8274;0.094451;1844.3;1342.5;3.5845;0.12598;6849271;2090.3;10.314;0.57877;0.6024;0.336;0.16741;0.075355;1.2594;4.4931;-3.2972e-4;0;0;0;0;0.020893;0.0043236;140;153.94;70.22;180;NaN;14.3;1000.6;339.96;0.044257;0.018485
0.44551;9.5914;46.246;115.04;49.395;123.67;-3.5229;-1.0416e-5;3.5229;-180;17.357;45.389;52;20;9.8121;3.0218;0;10.272;-4.7942e-4;15756;4106.7;6.8135;0.094424;1856;1341.2;3.6771;0.1418;7707783;2106.1;12.878;0.57932;0.59384;0.33586;0.16776;0.075695;0.94909;3.4454;-1.8315e-4;0;0;0;0;0.044047;0.0048631;140;153.94;70.587;180;NaN;14.288;1000.4;339.96;0.045476;0.018981
0.49098;11.814;51.498;116.7;55.029;124.85;-4.3587;-2.1119e-5;4.3587;-180;19.394;44.37;52;20;9.8121;2.0616;0;14.017;-0.0011505;15712;4062.3;6.7975;0.094391;1868.8;1339.8;3.7789;0.15824;8599864;2123;15.849;0.57997;0.58702;0.3357;0.16818;0.076091;0.6352;2.3342;1.3871e-4;0;0;0;0;0.065871;0.0054205;140;153.94;71.142;180;NaN;14.273;1000.1;339.95;0.05;0.0194
0.54098;14.535;57.363;118.71;61.283;126.13;-5.3831;-3.803e-5;5.3831;-180;21.565;42.627;52;20;9.8121;0.99284;0;17.038;-0.0039473;15664;4015.2;6.7803;0.094357;1883.7;1338.2;3.8964;0.17653;9591891;2140.6;19.567;0.58078;0.58249;0.33549;0.16871;0.076583;0.29933;1.0883;2.6657e-4;0;0;0;0;0.078196;0.006035;140;153.94;71.924;180;NaN;14.256;999.82;339.94;0.05;0.019872
0.59098;17.552;63.331;120.82;67.597;127.34;-6.5136;-6.1121e-5;6.5136;-180;23.632;40.225;52;20;9.8121;0.24159;0;-17.806;-0.023958;15615;3965.8;6.7623;0.094321;1894.7;1336.5;3.9866;0.19528;10607525;2158.2;23.906;0.5817;0.5818;0.33526;0.1693;0.077142;0.071742;0.35555;-2.9889e-4;0;0;0;0;-0.069802;0.0066495;140;153.94;72.808;180;NaN;14.236;999.46;339.93;0.05;0.020327
0.64098;20.87;69.405;122.9;73.966;128.52;-7.7443;-9.1418e-5;7.7443;-180;25.571;37.588;52;20;9.8121;1.3527;3.3182e-7;-14.993;-0.0054543;15566;3916.4;6.7441;0.094285;1879.2;1334.9;3.8881;0.21434;11639473;2174.3;28.992;0.58274;0.58589;0.33499;0.16998;0.077769;0.41195;1.6424;-2.3901e-4;0;0;0;0;-0.041081;0.0072626;140;153.94;73.644;180;NaN;14.214;999.07;339.91;0.041382;0.020824
0.68236;23.848;74.507;124.37;79.277;129.43;-8.8341;-1.2281e-4;8.8341;-180;27.084;35.828;52;20;9.8121;1.901;0;-9.734;-0.0045535;15520;3871.2;6.7275;0.094253;1872;1333.3;3.8475;0.23014;12494312;2186.2;33.633;0.58368;0.58976;0.33476;0.17059;0.078332;0.58635;2.271;1.9485e-4;0;0;0;0;-0.015022;0.0077691;140;153.94;74.164;180;NaN;14.195;998.72;339.9;0.025903;0.021304
0.70827;25.82;77.732;125.1;82.621;129.94;-9.5476;-1.4578e-4;9.5476;-180;28;35.131;52;20;9.8121;2.0511;0;-5.3518;-0.0041507;15487;3838;6.7152;0.094228;1870.2;1332.2;3.8425;0.24005;1.303e7;2194.6;36.68;0.58431;0.59135;0.3346;0.171;0.078706;0.63509;2.4447;-1.3676e-4;0;0;0;0;-0.004174;0.0080865;140;153.94;74.361;180;NaN;14.182;998.49;339.89;0.022083;0.021728
0.73035;27.567;80.497;125.67;85.484;130.44;-10.174;-1.6759e-4;10.174;-180;28.772;34.926;52;20;9.8121;2.0424;0;-1.1962;-0.0042297;15464;3814.3;6.7064;0.094211;1870.4;1331.4;3.8502;0.24848;13485282;2202.2;39.327;0.58486;0.59185;0.33446;0.17136;0.079037;0.6327;2.4362;1.5485e-4;0;0;0;0;-1.9462e-4;0.0083576;140;153.94;74.434;180;NaN;14.171;998.29;339.89;0.020659;0.022212
0.75101;29.257;83.095;126.14;88.173;130.92;-10.776;-1.9002e-4;10.776;-180;29.493;35.056;52;20;9.8121;1.9479;0;2.8614;-0.0041837;15442;3793.2;6.6985;0.094196;1871.9;1330.7;3.8655;0.25639;13912692;2209.4;41.86;0.5854;0.59179;0.33433;0.17172;0.079357;0.60262;2.3284;4.463e-5;0;0;0;0;0.001046;0.0086122;140;153.94;74.417;180;NaN;14.16;998.09;339.88;0.020281;0.022677
0.77129;30.968;85.653;126.49;90.824;131.41;-11.382;-2.1408e-4;11.382;-180;30.208;35.597;52;20;9.8121;1.7184;0;6.7563;-0.0045801;15422;3773;6.691;0.094181;1875.1;1330;3.8936;0.2641;14328841;2216.8;44.344;0.58595;0.59097;0.33419;0.17208;0.079679;0.52939;2.0554;-4.5173e-5;0;0;0;0;0.0054964;0.0088634;140;153.94;74.319;180;NaN;14.149;997.89;339.87;0.021634;0.023151
0.79292;32.85;88.389;126.78;93.663;131.94;-12.044;-2.4216e-4;12.044;-180;30.986;36.518;52;20;9.8121;1.4064;0;10.521;-0.0045334;15402;3752.3;6.6832;0.094166;1879.5;1329.3;3.9303;0.27236;14774428;2225;47.07;0.58655;0.58996;0.33404;0.17247;0.080035;0.43074;1.6804;-1.7101e-4;0;0;0;0;0.012532;0.009133;140;153.94;74.131;180;NaN;14.136;997.67;339.87;0.024857;0.023638
0.81778;35.087;91.539;127.04;96.941;132.56;-12.825;-2.7773e-4;12.825;-180;31.909;37.847;52;20;9.8121;1.0556;0;14.124;-0.0050341;15379;3729.3;6.6746;0.09415;1884.6;1328.5;3.972;0.28201;15294771;2234.8;50.388;0.58728;0.58923;0.33386;0.17295;0.080464;0.32119;1.2543;7.91e-5;0;0;0;0;0.02107;0.0094454;140;153.94;73.823;180;NaN;14.122;997.41;339.86;0.031031;0.024067
0.84881;37.988;95.477;127.22;101.06;133.34;-13.834;-3.2752e-4;13.834;-180;33.112;39.94;52;20;9.8121;0.57716;4.8768e-7;17.345;-0.0071826;15351;3701.7;6.6643;0.09413;1891.6;1327.5;4.0288;0.29417;1.595e7;2248.5;54.772;0.58823;0.58882;0.33363;0.17358;0.081027;0.17403;0.67236;3.1589e-4;0;0;0;0;0.029201;0.0098396;140;153.94;73.33;180;NaN;14.103;997.07;339.85;0.046546;0.024522
0.89536;42.57;101.38;127.23;107.27;134.57;-15.42;-4.1453e-4;15.42;-180;35.056;43.834;52;20;9.812;0.26637;7.4846e-7;-18.143;-0.0086016;15313;3663.4;6.6499;0.094102;1896.4;1326.2;4.0729;0.31239;16931526;2265.5;61.845;0.58975;0.58988;0.33325;0.17459;0.081914;0.079929;0.35417;2.2686e-5;0;0;0;0;-0.028335;0.010441;140;153.94;72.483;180;NaN;14.073;996.53;339.83;0.05;0.024999
0.94536;47.798;107.72;127.18;114.01;135.75;-17.229;-5.2643e-4;17.229;-180;37.336;47.455;52;20;9.812;0.83858;-1.6068e-6;-13.132;-6.2601e-4;15265;3615.7;6.6318;0.094067;1888.7;1324.5;4.0301;0.33236;18005644;2279;70.308;0.59154;0.59279;0.33282;0.17577;0.082947;0.25529;1.042;-4.1727e-4;0;0;0;0;-0.013115;0.0111;140;153.94;71.681;180;NaN;14.039;995.92;339.81;0.026758;0.025473
0.97212;50.726;111.12;127.12;117.64;136.19;-18.245;-5.9482e-4;18.245;-180;38.623;48.857;52;20;9.812;1.0209;-1.7474e-6;-8.511;0.00121;15227;3577.8;6.6174;0.09404;1886.5;1323.2;4.0233;0.34306;1.858e7;2287.4;75.08;0.59254;0.59438;0.33258;0.17643;0.083527;0.31239;1.2624;3.2035e-4;0;0;0;0;-0.0051715;0.011458;140;153.94;71.389;180;NaN;14.02;995.57;339.8;0.020693;0.025936
0.99281;53.053;113.75;127.29;120.46;136.59;-19.055;-6.5205e-4;19.055;-180;39.641;49.552;52;20;9.812;1.0704;-1.5518e-6;-4.2807;9.1459e-4;15204;3554.3;6.6085;0.094023;1886;1322.4;4.0259;0.35134;19025035;2294.4;78.859;0.59334;0.59536;0.33238;0.17696;0.083989;0.32817;1.3224;4.6586e-4;0;0;0;0;-0.0012473;0.011736;140;153.94;71.256;180;NaN;14.005;995.3;339.79;0.018814;0.026412
1.0116;55.215;116.14;127.59;123.03;136.97;-19.809;-7.0748e-4;19.809;-180;40.575;49.814;52;20;9.812;1.0398;-1.5814e-6;-0.22401;0.0017119;15184;3534.8;6.6011;0.094008;1886.6;1321.7;4.0353;0.3589;1.943e7;2300.9;82.354;0.5941;0.59602;0.3322;0.17748;0.084419;0.31887;1.2872;2.0465e-4;0;0;0;0;-3.2736e-6;0.011991;140;153.94;71.213;180;NaN;13.991;995.05;339.78;0.018507;0.02687
1.0301;57.386;118.5;128.02;125.56;137.33;-20.569;-7.6521e-4;20.569;-180;41.495;49.698;52;20;9.812;0.9405;-1.5682e-6;3.6921;0.0025511;15166;3516.4;6.594;0.093995;1888.2;1321;4.0513;0.36634;1.983e7;2307.7;85.846;0.59486;0.59644;0.33202;0.17799;0.084852;0.28809;1.1665;2.2042e-4;0;0;0;0;8.5353e-4;0.012241;140;153.94;71.246;180;NaN;13.977;994.79;339.77;0.019585;0.027397
1.0497;59.732;121.01;128.63;128.25;137.71;-21.391;-8.2983e-4;21.391;-180;42.463;49.172;52;20;9.812;0.76691;-1.5749e-6;7.4277;0.0029653;15147;3497.6;6.5868;0.093981;1890.8;1320.4;4.0749;0.37425;20253121;2315.2;89.612;0.59569;0.59675;0.33183;0.17855;0.085322;0.23428;0.95113;3.9277e-4;0;0;0;0;0.0033103;0.012507;140;153.94;71.355;180;NaN;13.962;994.52;339.76;0.022997;0.027834
1.0727;62.549;123.98;129.57;131.41;138.14;-22.38;-9.1041e-4;22.38;-180;43.579;47.888;52;20;9.812;0.42536;-1.2411e-6;10.633;0.0033951;15126;3476.5;6.5787;0.093966;1895.9;1319.6;4.1166;0.38371;2.076e7;2325.3;94.216;0.59671;0.59704;0.33158;0.17923;0.085898;0.12916;0.52502;-4.4071e-4;0;0;0;0;0.006454;0.012819;140;153.94;71.566;180;NaN;13.943;994.19;339.75;0.034496;0.028316
1.1072;66.903;128.47;131.13;136.18;138.81;-23.912;-0.001041;23.912;-180;45.187;45.506;52;20;9.812;0.10935;-6.9998e-7;-11.851;0.004127;15097;3448.1;6.5678;0.093946;1900.9;1318.6;4.1591;0.39793;21520812;2340;101.49;0.59828;0.5983;0.33121;0.18028;0.08679;0.033045;0.14505;-4.9765e-4;0;0;0;0;-0.007455;0.013285;140;153.94;71.967;180;NaN;13.915;993.68;339.73;0.05;0.02875
1.1572;73.491;135.06;132.52;143.13;139.19;-26.227;-0.0012508;26.227;-180;47.382;42.569;52;20;9.8119;0.61313;0;-6.4125;0.0020807;15055;3406;6.5515;0.093915;1894.3;1317.1;4.1231;0.41841;22615409;2347.9;112.87;0.60165;0.60234;0.33065;0.18287;0.088132;0.18783;0.77667;-4.2925e-4;0;0;0;0;-0.0019746;0.013958;140;153.94;72.452;180;NaN;13.872;992.9;339.71;0.022447;0.029192
1.1797;76.556;138.03;132.81;146.25;139.25;-27.301;-0.0013525;27.301;-180;48.328;41.85;52;20;9.8119;0.71488;0;-1.9094;0.0020834;15018;3368.6;6.537;0.093888;1893.2;1315.7;4.1246;0.42767;2.311e7;2349.7;118.25;0.60327;0.6042;0.33038;0.18412;0.08876;0.21977;0.90659;-4.0378e-4;0;0;0;0;-1.6758e-4;0.014258;140;153.94;72.547;180;NaN;13.852;992.54;339.69;0.018373;0.029624
1.198;79.114;140.48;132.86;148.81;139.27;-28.196;-0.001439;28.196;-180;49.096;41.76;52;20;9.8119;0.71462;0;2.2092;0.0017478;14996;3346.4;6.5284;0.093872;1893.4;1314.9;4.1322;0.43525;23513957;2351.4;122.71;0.60461;0.60554;0.33016;0.18516;0.089286;0.21994;0.90814;1.5226e-5;0;0;0;0;2.1661e-4;0.014504;140;153.94;72.544;180;NaN;13.836;992.24;339.68;0.01769;0.030063
1.2157;81.62;142.82;132.75;151.27;139.29;-29.071;-0.0015249;29.071;-180;49.837;42.162;52;20;9.8119;0.63854;3.1904e-7;6.0998;5.4598e-4;14976;3326.8;6.5207;0.093857;1894.7;1314.2;4.1466;0.44254;23902332;2353.1;127.05;0.60591;0.60666;0.32995;0.18616;0.089799;0.19643;0.81272;3.5595e-4;0;0;0;0;0.0015974;0.014741;140;153.94;72.47;180;NaN;13.819;991.95;339.67;0.019104;0.03053
1.2348;84.373;145.36;132.47;153.93;139.3;-30.031;-0.0016205;30.031;-180;50.651;43.089;52;20;9.8119;0.48807;4.6988e-7;9.7249;0.0012751;14956;3306.7;6.5129;0.093843;1897.1;1313.5;4.1688;0.45041;24321460;2355.1;131.81;0.60733;0.60777;0.32971;0.18725;0.090363;0.14985;0.62039;-4.992e-4;0;0;0;0;0.0039199;0.014998;140;153.94;72.318;180;NaN;13.802;991.63;339.66;0.024139;0.030988
1.259;87.92;148.55;131.92;157.29;139.31;-31.266;-0.001746;31.266;-180;51.711;44.758;52;20;9.8119;0.24385;0;12.772;0.0058897;14932;3283.2;6.5037;0.093826;1900.9;1312.6;4.2021;0.4604;24853037;2357.8;138;0.60915;0.60927;0.32941;0.18866;0.091093;0.074605;0.30694;3.8445e-4;0;0;0;0;0.0064716;0.015323;140;153.94;72.042;180;NaN;13.779;991.21;339.65;0.036208;0.031461
1.2952;93.385;153.31;130.91;162.34;139.3;-33.168;-0.0019447;33.168;-180;53.383;47.627;52;20;9.8119;0.12945;0;-13.429;0.011752;14900;3250.3;6.4908;0.093802;1903.1;1311.4;4.2261;0.4755;25655413;2361.8;147.76;0.61196;0.612;0.32893;0.19081;0.092227;0.03961;0.17414;3.7707e-5;0;0;0;0;-0.0067086;0.015815;140;153.94;71.554;-179.99;NaN;13.743;990.57;339.63;0.05;0.031916
1.3452;101.21;159.82;129.58;169.3;139.3;-35.899;-0.0022437;35.899;-180;55.862;51.115;52;19.999;9.8119;0.55622;4.7173e-6;-5.7229;0.003846;14853;3203.3;6.4723;0.093768;1897.8;1309.7;4.2008;0.49598;26741673;2364.8;161.79;0.61587;0.61645;0.32826;0.19379;0.093824;0.17235;0.7248;1.3731e-4;0;0;0;0;-0.00112;0.016502;140;153.94;71.042;-179.99;NaN;13.692;989.65;339.6;0.016967;0.032377
1.3621;103.94;162.02;129.52;171.66;139.34;-36.854;-0.0023527;36.854;-180;56.733;51.39;52;19.999;9.8118;0.55993;4.821e-6;-1.5686;0.0038634;14816;3166.9;6.4579;0.093741;1898;1308.3;4.2121;0.50299;27112938;2366.3;166.71;0.61724;0.61783;0.32802;0.19483;0.094386;0.17373;0.73176;4.7172e-4;0;0;0;0;-8.1818e-5;0.016737;140;153.94;70.98;-179.99;NaN;13.674;989.33;339.59;0.01631;0.032838
1.3784;106.6;164.13;129.59;173.93;139.29;-37.786;-0.0024613;37.786;-180;57.569;51.059;52;19.999;9.8118;0.48987;5.0082e-6;2.2762;0.0037985;14798;3148.8;6.4507;0.093728;1899.3;1307.6;4.2259;0.50975;27471051;2367.9;171.5;0.61857;0.61902;0.32779;0.19584;0.094936;0.15196;0.64222;-1.677e-5;0;0;0;0;1.6775e-4;0.016962;140;153.94;70.986;-179.99;NaN;13.657;989.02;339.58;0.018079;0.033306
1.3965;109.59;166.48;129.84;176.45;139.19;-38.835;-0.0025862;38.835;-180;58.485;50.148;52;19.999;9.8118;0.35034;5.0117e-6;5.7999;0.0046108;14779;3130;6.4432;0.093715;1901.6;1306.9;4.2473;0.51725;27867664;2369.9;176.88;0.62005;0.62029;0.32753;0.19696;0.095554;0.10851;0.45996;2.9642e-4;0;0;0;0;0.0010578;0.017211;140;153.94;71.061;-179.99;NaN;13.638;988.67;339.56;0.024497;0.03376
1.421;113.71;169.66;130.42;179.86;139.02;-40.283;-0.002763;40.283;-180;59.69;48.142;52;19.999;9.8118;0.076141;5.2464e-6;8.3235;0.010292;14756;3106.8;6.434;0.093698;1905.9;1306.1;4.2849;0.52747;28408033;2372.7;184.39;0.6221;0.62212;0.32718;0.19852;0.096411;0.023495;0.098974;-1.0683e-4;0;0;0;0;0.0020953;0.017547;140;153.94;71.24;-179.99;NaN;13.611;988.19;339.55;0.036745;0.034248
1.4578;120.03;174.47;131.23;184.96;138.77;-42.508;-0.0030439;42.508;-180;61.4;45.139;52;19.999;9.8118;0.28776;5.643e-6;-5.9186;6.3478e-4;14723;3073.5;6.4206;0.093674;1903.8;1304.8;4.2786;0.54273;29213145;2375.6;196.09;0.62522;0.62538;0.32663;0.20087;0.097721;0.089462;0.38409;3.4439e-4;0;0;0;0;-0.0010008;0.018045;140;153.94;71.521;-179.99;NaN;13.57;987.44;339.52;0.026585;0.034683
1.4844;124.72;177.96;131.39;188.65;138.67;-44.156;-0.0032579;44.156;-180;62.587;44.34;52;19.999;9.8118;0.35559;4.6468e-6;-1.1942;-0.0013198;14688;3039;6.4068;0.093649;1903.6;1303.5;4.2861;0.55353;29781837;2377.7;204.61;0.62746;0.6277;0.32623;0.20256;0.098671;0.11095;0.47547;2.5855e-4;0;0;0;0;-3.9174e-5;0.018403;140;153.94;71.618;-179.99;NaN;13.539;986.89;339.5;0.020613;0.035112
1.505;128.41;180.67;131.22;191.51;138.58;-45.455;-0.0034299;45.455;-180;63.502;44.576;52;19.999;9.8118;0.31152;4.4793e-6;2.7191;-0.0027419;14663;3013.3;6.3965;0.09363;1904.7;1302.5;4.3015;0.56188;30221215;2379.7;211.31;0.62921;0.6294;0.32591;0.20388;0.099419;0.097281;0.41827;-1.4267e-4;0;0;0;0;1.9712e-4;0.018681;140;153.94;71.602;-179.99;NaN;13.515;986.46;339.49;0.022714;0.035565
1.5277;132.55;183.65;130.71;194.65;138.48;-46.909;-0.0036257;46.909;-180;64.526;45.705;52;19.999;9.8118;0.17052;4.2966e-6;5.935;-0.0013022;14639;2989.7;6.3869;0.093613;1907.4;1301.6;4.3268;0.57103;30701818;2382.3;218.77;0.63116;0.63121;0.32557;0.20534;0.10025;0.053199;0.22888;3.3829e-4;0;0;0;0;9.0939e-4;0.018987;140;153.94;71.5;-179.99;NaN;13.488;985.98;339.47;0.034071;0.036016
1.5617;138.88;188.08;129.67;199.37;138.31;-49.135;-0.0039324;49.135;-180;66.124;48.114;52;19.999;9.8117;0.098823;3.9472e-6;-6.6313;0.0039115;14608;2958.8;6.3744;0.09359;1909.5;1300.5;4.35;0.58473;3.142e7;2386.1;230.27;0.63411;0.63413;0.32503;0.20755;0.10152;0.030879;0.13505;4.3504e-4;0;0;0;0;-0.0010829;0.019448;140;153.94;71.271;-179.99;NaN;13.447;985.23;339.45;0.05;0.036478
1.6117;148.45;194.54;128.7;206.27;137.98;-52.503;-0.0044136;52.503;-180;68.59;49.751;52;19.999;9.8117;0.26256;2.4596e-6;0.61898;0.0010135;14562;2913;6.3558;0.093557;1908.9;1298.7;4.3583;0.60486;32474313;2389.5;247.89;0.63854;0.63867;0.32423;0.21087;0.10344;0.082705;0.36069;-1.6524e-4;0;0;0;0;8.819e-6;0.02013;140;153.94;71.107;-179.99;NaN;13.385;984.11;339.41;0.02264;0.036935
1.6344;152.89;197.45;128.89;209.4;137.84;-54.068;-0.0046441;54.068;-180;69.708;48.859;52;19.999;9.8117;0.16622;2.233e-6;4.0357;0.0026227;14523;2873.4;6.3397;0.093528;1911.1;1297.2;4.3849;0.61411;32957592;2392;256.19;0.64061;0.64066;0.32385;0.21241;0.10435;0.052369;0.22886;3.6338e-4;0;0;0;0;3.6373e-4;0.020438;140;153.94;71.162;-179.99;NaN;13.356;983.59;339.39;0.03396;0.037402
1.6683;159.67;201.84;129.3;214.07;137.47;-56.463;-0.0050045;56.463;-179.99;71.33;46.665;52;19.999;9.8117;0.035391;1.1094e-6;-5.5109;1.5688e-4;14492;2842.6;6.327;0.093506;1914.2;1296;4.416;0.62789;33676766;2394.7;268.88;0.64374;0.64374;0.32327;0.21474;0.10572;0.011158;0.050014;9.8643e-5;0;0;0;0;-6.4889e-4;0.020897;140;153.94;71.337;-179.99;NaN;13.312;982.8;339.37;0.05;0.037868
1.7183;169.92;208.31;124.7;220.93;131.9;-60.087;-0.0055686;60.087;-179.99;73.599;42.987;52;19.999;9.8116;0.19779;1.7482e-6;-0.24979;0.0017486;14446;2796.9;6.3082;0.093473;1914;1294.2;4.4271;0.6481;34728390;2363.7;288.23;0.64841;0.64849;0.3224;0.21822;0.10779;0.062891;0.27851;-1.7899e-4;0;0;0;0;-1.2516e-6;0.021566;140;153.94;71.499;-179.99;NaN;13.246;981.59;339.33;0.025413;0.038363
1.7438;175.25;211.53;121.58;224.33;128.75;-61.971;-0.0058703;61.971;-179.99;74.711;42.361;52;19.999;9.8116;0.16235;1.3487e-6;3.625;0.0017387;14405;2755.9;6.2913;0.093443;1915.6;1292.6;4.4499;0.65818;35251881;2262.1;298.16;0.65079;0.65085;0.32196;0.21998;0.10885;0.051723;0.22996;4.6273e-4;0;0;0;0;2.556e-4;0.021898;140;153.94;71.455;-179.99;NaN;13.211;980.97;339.3;0.02978;0.038805
1.7735;181.61;215.1;107.2;228.12;114.17;-64.215;-0.0062362;64.215;-179.99;75.979;39.283;52;19.999;9.8116;0.030411;7.7733e-7;6.1426;0.028745;14376;2726.6;6.2791;0.093422;1918.7;1291.4;4.4803;0.66942;35833228;2077.5;309.44;0.65347;0.65348;0.32146;0.22197;0.11005;0.0096922;0.04296;4.6515e-4;0;0;0;0;7.0961e-4;0.022268;140;153.94;71.302;-179.99;NaN;13.17;980.22;339.28;0.04467;0.039241
1.8182;191.32;219.84;102.89;233.19;110.47;-67.649;-0.006809;67.649;-179.99;77.782;40.228;52;19.999;9.8116;0.13347;4.655e-7;-3.3363;0.0092323;14340;2690.4;6.2641;0.093396;1919;1290;4.4926;0.68453;3.661e7;2045.5;325.01;0.65713;0.65717;0.32077;0.22467;0.11169;0.04281;0.19249;2.0455e-4;0;0;0;0;-2.0024e-4;0.022768;140;153.94;71.071;-179.99;NaN;13.106;979.08;339.24;0.032812;0.039676
1.851;198.59;223.22;100.98;236.82;108.41;-70.223;-0.0072494;70.223;-179.99;79.106;39.435;52;19.999;9.8116;0.10976;0;0.67235;0.0073365;14304;2654.7;6.2491;0.09337;1920.6;1288.6;4.5144;0.69538;37165484;2016.1;336.46;0.6598;0.65982;0.32027;0.22664;0.11289;0.035297;0.15929;-1.037e-4;0;0;0;0;7.8819e-6;0.023127;140;153.94;71.029;-179.99;NaN;13.059;978.23;339.21;0.038366;0.040107
1.8894;207.23;227.09;98.595;240.96;105.32;-73.286;-0.0077891;73.286;-179.99;80.589;37.038;52;19.999;9.8115;0.0063292;9.2756e-7;-2.7054;0.064184;14271;2621.9;6.2354;0.093346;1923.5;1287.2;4.5449;0.70767;37792422;1979.6;349.69;0.66285;0.66285;0.31969;0.22889;0.11427;0.0020386;0.0093231;-3.6204e-4;0;0;0;0;-1.2325e-4;0.023536;140;153.94;71.108;-179.99;NaN;13.003;977.22;339.18;0.05;0.040572
1.9394;218.71;232;95.16;246.2;101.16;-77.361;-0.0085307;77.361;-179.99;82.385;34.327;52;19.999;9.8115;0.11454;5.221e-6;1.3225;4.8741e-4;14230;2581.1;6.2182;0.093316;1924;1285.6;4.56;0.72335;3.859e7;1945.1;367.05;0.66681;0.66684;0.31893;0.23181;0.11607;0.03715;0.16917;-4.9844e-4;0;0;0;0;2.8196e-5;0.02405;140;153.94;71.155;-179.99;NaN;12.928;975.87;339.13;0.033301;0.040997
1.9727;226.48;235.17;93.079;249.57;99.419;-80.124;-0.0090448;80.124;-179.99;83.545;34.937;52;19.999;9.8115;0.029425;4.5771e-6;4.2709;0.027619;14192;2542.7;6.2019;0.093288;1926.5;1284;4.5889;0.73338;39096780;1916.2;378.38;0.66938;0.66938;0.31844;0.2337;0.11725;0.009558;0.043793;-1.6613e-4;0;0;0;0;2.8612e-4;0.024381;140;153.94;71.053;-179.99;NaN;12.878;974.96;339.1;0.049951;0.041424
2.0226;238.35;239.77;89.663;254.51;96.655;-84.342;-0.0098448;84.342;-179.99;85.343;36.093;52;19.999;9.8114;0.11317;8.4474e-6;-1.0452;0.010171;14155;2505.7;6.1862;0.093261;1927.3;1282.5;4.6052;0.74788;39826927;1897.1;395.15;0.67314;0.67317;0.31772;0.23646;0.11897;0.036995;0.17023;1.7731e-4;0;0;0;0;-1.6481e-5;0.02487;140;153.94;70.898;-179.99;NaN;12.801;973.57;339.06;0.030873;0.041866
2.0535;245.79;242.55;88.727;257.49;95.467;-86.994;-0.010359;86.994;-179.99;86.456;35.234;52;19.999;9.8114;0.07778;8.6048e-6;2.7396;0.0072619;14120;2471;6.1714;0.093236;1929;1281.1;4.6274;0.75662;40264837;1879.9;405.44;0.67544;0.67545;0.31727;0.23814;0.12003;0.025483;0.11778;4.6909e-4;0;0;0;0;1.1066e-4;0.025167;140;153.94;70.928;-179.99;NaN;12.752;972.69;339.03;0.043532;0.042306
2.097;256.44;246.41;87.231;261.63;92.939;-90.789;-0.011113;90.789;-179.99;87.925;32.068;52;19.999;9.8114;0.081991;8.1485e-6;-2.0903;-0.0024182;14089;2439.4;6.1579;0.093213;1930.6;1279.8;4.6485;0.76889;40878014;1860.7;420.18;0.6787;0.67871;0.31664;0.24053;0.12153;0.026978;0.1251;4.3041e-4;0;0;0;0;-6.2396e-5;0.025574;140;153.94;71.059;-179.99;NaN;12.683;971.45;338.98;0.039649;0.042731
2.1367;266.27;249.86;85.379;265.3;91.01;-94.301;-0.01183;94.301;-179.99;89.187;31.517;52;19.999;9.8113;0.075644;8.699e-6;2.5298;-0.014764;14053;2404.2;6.1428;0.093188;1932.2;1278.4;4.6705;0.77979;4.142e7;1842;433.52;0.68163;0.68164;0.31607;0.24267;0.12288;0.024983;0.1161;3.0517e-4;0;0;0;0;8.8873e-5;0.025935;140;153.94;71.045;-179.99;NaN;12.619;970.29;338.95;0.041483;0.043164
2.1782;276.71;253.38;82.771;269.06;88.915;-98.028;-0.012616;98.028;-179.99;90.528;32.478;52;19.999;9.8113;0.024497;6.8898e-6;-3.5734;-0.04027;14019;2369.8;6.1279;0.093163;1934.6;1276.9;4.6974;0.79107;41979193;1820.9;447.59;0.68469;0.68469;0.31548;0.24491;0.1243;0.0081154;0.038147;3.5853e-4;0;0;0;0;-1.7235e-4;0.026306;140;153.94;70.901;-179.99;NaN;12.551;969.07;338.91;0.05;0.043596
2.2282;289.48;257.48;79.981;273.48;86.222;-102.6;-0.013611;102.6;-179.99;92.167;32.207;52;19.999;9.8113;0.054949;5.8228e-6;-0.22158;-6.5661e-4;13980;2331;6.1111;0.093135;1936.1;1275.3;4.7199;0.80431;42631351;1797.8;464.43;0.68833;0.68834;0.31477;0.24756;0.126;0.018305;0.086003;-2.0463e-4;0;0;0;0;-6.4124e-7;0.026745;140;153.94;70.81;-179.99;NaN;12.468;967.57;338.85;0.05;0.044021
2.2782;302.46;261.48;78.002;277.77;83.625;-107.24;-0.014651;107.24;-179.99;93.739;30.148;52;19.998;9.8112;0.020908;6.4323e-6;-0.68344;-0.0053253;13938;2288.6;6.0927;0.093104;1938.5;1273.5;4.7497;0.81709;43257339;1774.8;481.03;0.6919;0.6919;0.31407;0.25016;0.12766;0.0069946;0.033479;9.1753e-6;0;0;0;0;-5.9127e-6;0.02717;140;153.94;70.848;-179.99;NaN;12.384;966.05;338.8;0.05;0.044503
2.3282;315.63;265.37;75.824;281.94;81.163;-111.97;-0.015734;111.97;-179.99;95.228;28.95;52;19.998;9.8112;0.047451;8.6891e-6;1.9903;-0.0069916;13896;2246.7;6.0744;0.093073;1940.1;1271.8;4.7734;0.82968;4.387e7;1753.6;497.72;0.69545;0.69545;0.31337;0.25275;0.12933;0.015962;0.076285;3.2081e-4;0;0;0;0;4.865e-5;0.027581;140;153.94;70.813;-179.99;NaN;12.298;964.5;338.75;0.05;0.044976
2.3782;328.99;269.13;72.93;285.97;78.814;-116.77;-0.016862;116.77;-179.99;96.708;29.881;52;19.998;9.8112;0.043475;7.2905e-6;-2.5215;-0.0018279;13856;2206.6;6.0568;0.093044;1942;1270.1;4.7995;0.84186;44459429;1732.8;514.16;0.69893;0.69893;0.31269;0.25528;0.13096;0.014697;0.070881;-3.8198e-4;0;0;0;0;-7.5861e-5;0.027982;140;153.94;70.664;-179.99;NaN;12.212;962.94;338.7;0.05;0.045458
2.4282;342.54;272.75;70.831;289.89;76.369;-121.64;-0.018044;121.64;-179.99;98.195;28.549;52;19.998;9.8111;0.010697;8.3927e-6;0.72421;0.020139;13817;2167.5;6.0395;0.093016;1944.3;1268.4;4.8278;0.85359;45022170;1712;530.26;0.70231;0.70232;0.31202;0.25774;0.13256;0.0036316;0.017349;-4.4452e-4;0;0;0;0;6.0894e-6;0.028373;140;153.94;70.651;-179.98;NaN;12.123;961.35;338.65;0.05;0.045931
2.4782;356.27;276.29;68.785;293.69;73.916;-126.58;-0.019283;126.58;-179.99;99.588;27.06;52;19.998;9.8111;0.027927;1.4308e-5;1.0414;0.020118;13778;2128.4;6.0222;0.092988;1945.9;1266.7;4.8512;0.86501;45566628;1691.2;546.22;0.70565;0.70565;0.31136;0.26016;0.13413;0.0095319;0.046141;2.2561e-4;0;0;0;0;1.2266e-5;0.028749;140;153.94;70.647;-179.99;NaN;12.034;959.74;338.59;0.05;0.046406
2.5282;370.17;279.7;66.236;297.36;71.529;-131.6;-0.02056;131.6;-179.99;100.96;27.004;52;19.998;9.811;0.0068844;1.6075e-5;-1.6295;0.027091;13739;2089.3;6.0047;0.092959;1948;1265;4.8781;0.87611;46091740;1670.4;561.97;0.70893;0.70893;0.31071;0.26254;0.13568;0.0023604;0.011884;4.6021e-4;0;0;0;0;-2.9281e-5;0.029115;140;153.94;70.562;-179.99;NaN;11.944;958.11;338.54;0.05;0.046806
2.5782;384.23;282.99;63.902;300.92;69.129;-136.68;-0.021882;136.68;-179.99;102.31;26.368;52;19.998;9.811;0.011934;1.459e-5;-0.60951;3.9867e-4;13699;2050.2;5.9873;0.092931;1949.7;1263.3;4.9023;0.88682;46593968;1649.6;577.39;0.71213;0.71213;0.31007;0.26486;0.1372;0.0041124;0.02049;1.7339e-4;0;0;0;0;-3.9998e-6;0.029469;140;153.94;70.511;-179.98;NaN;11.852;956.46;338.48;0.05;0.047204
2.6282;398.46;286.18;61.809;304.35;66.738;-141.83;-0.023254;141.83;-179.99;103.61;25.171;52;19.998;9.8109;0.010198;1.5905e-5;0.64965;0.0087919;13660;2011;5.9697;0.092902;1951.4;1261.6;4.927;0.89718;47075425;1629.3;592.51;0.71525;0.71525;0.30945;0.26711;0.13868;0.0035312;0.017886;4.0545e-4;0;0;0;0;4.4412e-6;0.029812;140;153.94;70.49;-179.98;NaN;11.76;954.79;338.43;0.05;0.047608
2.6782;412.85;289.24;59.329;307.67;64.388;-147.04;-0.024674;147.04;-179.99;104.87;25.016;52;19.998;9.8109;0.018481;1.7362e-5;-0.80027;0.0063369;13622;1973;5.9525;0.092875;1953;1260;4.95;0.90709;47534810;1609.9;608.52;0.71984;0.71984;0.30811;0.27161;0.14012;0.0064311;0.031442;-2.1572e-5;0;0;0;0;-6.595e-6;0.030143;140;153.94;70.437;-179.98;NaN;11.666;953.17;338.37;0.05;0.048534
2.7282;427.38;292.2;57.408;310.86;61.898;-152.31;-0.026133;152.31;-179.99;106.1;23.145;52;19.998;9.8109;0.032332;1.4525e-5;0.41742;-0.014781;13586;1936.3;5.9359;0.092848;1954.4;1258.3;4.9719;0.91677;47980959;1590.5;624.95;0.72498;0.72498;0.30652;0.27693;0.14153;0.011307;0.056007;-7.6995e-5;0;0;0;0;1.7572e-6;0.030462;140;153.94;70.439;-179.98;NaN;11.572;951.55;338.31;0.05;0.049136
2.7782;442.07;295.04;54.64;313.93;59.554;-157.65;-0.027655;157.65;-179.99;107.27;23.688;52;19.998;9.8108;0.026179;1.2929e-5;-1.7705;0.012993;13549;1899.8;5.9193;0.092822;1956.1;1256.7;4.9952;0.92611;48406743;1571.1;641.01;0.72996;0.72996;0.30498;0.28206;0.14291;0.0091964;0.046277;8.7161e-5;0;0;0;0;-3.0991e-5;0.030769;140;153.94;70.335;-179.98;NaN;11.477;949.91;338.25;0.05;0.049599
2.8282;456.88;297.75;52.603;316.88;57.128;-163.04;-0.02921;163.04;-179.99;108.44;22.283;52;19.998;9.8108;0.0019069;9.1396e-6;-0.15205;-0.0057181;13513;1863.4;5.9026;0.092795;1957.9;1255.1;5.0198;0.93497;48805756;1551.7;656.44;0.73471;0.73471;0.30352;0.28695;0.14424;6.7249e-4;0.0034103;-4.1326e-4;0;0;0;0;-2.2432e-7;0.031066;140;153.94;70.333;-179.98;NaN;11.38;948.25;338.2;0.05;0.050076
2.8782;471.84;300.37;50.587;319.72;54.821;-168.49;-0.030819;168.49;-179.99;109.54;21.126;52;19.998;9.8107;0.02044;1.9504e-5;1.2418;0.0019884;13476;1826.9;5.8859;0.092769;1959;1253.5;5.0399;0.94362;49192449;1533.7;671.72;0.73939;0.73939;0.3021;0.29175;0.14554;0.0072411;0.036718;7.9528e-6;0;0;0;0;1.4693e-5;0.031349;140;153.94;70.304;-179.98;NaN;11.283;946.58;338.14;0.05;0.050604
2.9282;486.92;302.87;48.195;322.43;52.824;-173.99;-0.032472;173.99;-179.99;110.61;21.623;52;19.997;9.8107;0.028243;1.8362e-5;-0.98413;-0.0028636;13441;1791.3;5.8695;0.092743;1960.3;1251.9;5.0603;0.95189;49556754;1518.3;686.53;0.74396;0.74396;0.30074;0.29642;0.1468;0.010047;0.05122;-4.779e-4;0;0;0;0;-9.0725e-6;0.031623;140;153.94;70.215;-179.98;NaN;11.185;944.9;338.08;0.05;0.051171
2.9782;502.12;305.27;46.729;325.05;50.639;-179.55;-0.034179;179.55;-179.99;111.66;19.512;52;19.997;9.8106;0.031698;2.0849e-5;0.71382;0.0058629;13406;1756.7;5.8535;0.092718;1961.5;1250.3;5.0805;0.95991;49906786;1502.8;701.33;0.74869;0.7487;0.29942;0.30125;0.14803;0.011319;0.057384;3.2261e-4;0;0;0;0;4.6953e-6;0.031886;140;153.94;70.224;-179.98;NaN;11.086;943.2;338.02;0.05;0.051964
3.0282;517.44;307.57;44.159;327.56;48.711;-185.16;-0.035934;185.16;-179.99;112.66;20.559;52;19.997;9.8106;0.037632;3.2051e-5;-0.99644;0.012429;13372;1722.3;5.8374;0.092693;1962.7;1248.7;5.0998;0.96754;50235036;1488.3;715.53;0.75322;0.75323;0.29816;0.30585;0.14921;0.013486;0.069093;4.4548e-5;0;0;0;0;-9.0087e-6;0.032139;140;153.94;70.119;-179.98;NaN;10.987;941.49;337.96;0.04435;0.052497
3.0725;531.13;309.53;42.822;329.7;46.956;-190.17;-0.037518;190.17;-179.99;113.55;19.265;52;19.997;9.8105;0.0088357;4.2811e-5;1.1544;0.056428;13339;1689.8;5.8223;0.092669;1964.1;1247.2;5.1202;0.97382;50498937;1473.7;727.25;0.75696;0.75696;0.29713;0.30965;0.15019;0.0031737;0.016368;7.6765e-5;0;0;0;0;1.194e-5;0.032356;140;153.94;70.152;-179.98;NaN;10.898;939.96;337.9;0.05;0.052986
3.1225;546.66;311.66;41.042;332.02;44.85;-195.88;-0.039364;195.88;-179.99;114.49;18.085;52;19.997;9.8105;0.0092039;4.8842e-5;-0.17199;-0.013039;13307;1657.3;5.8071;0.092646;1965.1;1245.7;5.1383;0.98057;50778336;1457.9;739.93;0.761;0.761;0.29601;0.31373;0.15125;0.0033157;0.017239;-7.3034e-5;0;0;0;0;-2.6149e-7;0.03259;140;153.94;70.191;-179.98;NaN;10.797;938.22;337.84;0.05;0.053439
3.1725;562.29;313.69;38.95;334.24;42.767;-201.62;-0.041245;201.62;-179.99;115.4;17.661;52;19.997;9.8104;0.0024915;4.8991e-5;0.22386;-0.011558;13273;1623.5;5.7911;0.092621;1966.2;1244.2;5.1572;0.98708;51043859;1440.3;752.23;0.76491;0.76491;0.29494;0.31769;0.15228;8.9993e-4;0.0043166;4.9348e-5;0;0;0;0;4.3731e-7;0.032815;140;153.94;70.188;-179.98;NaN;10.695;936.48;337.78;0.05;0.054033
3.2225;578.02;315.62;37.043;336.35;40.655;-207.41;-0.043172;207.41;-179.99;116.27;16.753;52;19.997;9.8104;0.0047985;4.8472e-5;-0.074553;-0.0081583;13240;1590.6;5.7756;0.092597;1967.1;1242.6;5.1745;0.99331;51293401;1422.6;764.06;0.76866;0.76866;0.29392;0.32148;0.15327;0.0017377;0.0087366;-2.0411e-4;0;0;0;0;-4.7916e-8;0.033029;140;153.94;70.201;-179.98;NaN;10.593;934.72;337.72;0.05;0.054558
3.2725;593.85;317.46;35.131;338.37;38.558;-213.25;-0.045141;213.25;-179.99;117.1;15.891;52;19.997;9.8103;0.010837;4.8463e-5;0.26142;0.004884;13207;1558.1;5.7602;0.092574;1967.9;1241.1;5.191;0.99935;51531519;1404.9;775.57;0.77231;0.77231;0.29292;0.32516;0.15423;0.0039342;0.020097;4.005e-4;0;0;0;0;5.8226e-7;0.033233;140;153.94;70.195;-179.98;NaN;10.49;932.95;337.66;0.05;0.055009
3.3225;609.77;319.19;33.146;340.27;36.344;-219.12;-0.047155;219.12;-179.99;117.9;14.908;52;19.997;9.8103;0.020873;4.8245e-5;1.0805;0.0016252;13175;1525.6;5.7447;0.09255;1968.6;1239.6;5.2071;1.0053;51765262;1387.2;788.41;0.77727;0.77727;0.29194;0.33182;0.15352;0.0075963;0.039432;1.5673e-4;0;0;0;0;9.8334e-6;0.033426;140;153.94;70.153;-179.98;NaN;10.387;931.17;337.59;0.05;0.055465
3.3725;625.77;320.82;30.606;342.06;34.439;-225.04;-0.049223;225.04;-179.99;118.67;15.789;52;19.997;9.8102;0.035944;4.9822e-5;-0.83438;-0.015629;13142;1493.1;5.7292;0.092526;1969.2;1238;5.2223;1.011;51981567;1371.5;800.21;0.78158;0.78159;0.291;0.33792;0.15266;0.013112;0.068574;1.9903e-4;0;0;0;0;-5.8001e-6;0.03361;140;153.94;70.041;-179.98;NaN;10.283;929.38;337.53;0.040693;0.055943
3.4132;638.85;322.07;29.652;343.45;32.962;-229.88;-0.050937;229.88;-179.99;119.29;14.397;52;19.997;9.8102;0.0020053;5.0974e-5;0.83833;-0.094407;13113;1463.9;5.7152;0.092505;1970.2;1236.7;5.2393;1.0151;52132397;1358;808.75;0.78474;0.78474;0.29032;0.34239;0.15204;7.321e-4;0.0035863;-4.5213e-4;0;0;0;0;5.8092e-6;0.033752;140;153.94;70.067;-179.98;NaN;10.197;927.92;337.48;0.05;0.05644
3.4632;654.99;323.54;28.03;345.07;31.049;-235.86;-0.053084;235.86;-179.99;119.99;13.355;52;19.997;9.8102;0.012341;4.8875e-5;0.17836;0.033736;13085;1435.5;5.7015;0.092485;1970.7;1235.3;5.2526;1.0199;52302343;1343.4;818.66;0.78843;0.78843;0.28953;0.34758;0.15132;0.0045134;0.024023;3.2824e-4;0;0;0;0;2.6059e-7;0.033918;140;153.94;70.084;-179.98;NaN;10.093;926.12;337.41;0.05;0.057022
3.5132;671.2;324.92;26.065;346.6;29.402;-241.88;-0.055264;241.88;-179.99;120.66;13.603;52;19.996;9.8101;0.01715;6.607e-5;-0.49591;-0.0068111;13054;1404.6;5.6865;0.092462;1971.2;1233.8;5.2672;1.0247;52468816;1329.1;828.58;0.79213;0.79213;0.28875;0.35277;0.15062;0.0062826;0.033138;3.2335e-4;0;0;0;0;-1.9965e-6;0.034075;140;153.94;70.022;-179.98;NaN;9.9872;924.31;337.35;0.05;0.05746
3.5632;687.48;326.22;24.844;348.05;27.82;-247.93;-0.05749;247.93;-179.99;121.32;12.517;52;19.996;9.8101;0.0029527;6.1643e-5;0.30427;-0.0090722;13023;1373.8;5.6716;0.09244;1972;1232.4;5.283;1.029;5.261e7;1317;837.42;0.79548;0.79548;0.28804;0.35746;0.14999;0.0010828;0.0061413;2.71e-4;0;0;0;0;7.4563e-7;0.034224;140;153.94;70.041;-179.98;NaN;9.8814;922.49;337.29;0.05;0.057968
3.6132;703.82;327.45;23.614;349.42;26.339;-254.01;-0.059765;254.01;-179.99;121.95;11.668;52;19.996;9.81;0.015393;6.0359e-5;-0.021359;0.017789;12993;1343.5;5.6568;0.092418;1972.3;1230.9;5.296;1.0331;52740651;1305.5;845.83;0.79869;0.79869;0.28736;0.36193;0.14939;0.0056531;0.030299;-4.3454e-4;0;0;0;0;0;0.034366;140;153.94;70.049;-179.98;NaN;9.7752;920.66;337.22;0.05;0.058423
3.6632;720.22;328.61;22.031;350.71;24.96;-260.12;-0.062079;260.12;-179.99;122.54;11.732;52;19.996;9.8099;0.0034429;5.469e-5;-0.5428;-0.034718;12963;1313.6;5.6422;0.092396;1973;1229.4;5.3111;1.0372;52872253;1294;854.38;0.80194;0.80194;0.28668;0.36646;0.1488;0.0012656;0.0064702;2.7347e-4;0;0;0;0;-2.3371e-6;0.034501;140;153.94;69.989;-179.98;NaN;9.6686;918.83;337.16;0.05;0.058895
3.7132;736.68;329.7;20.569;351.94;23.609;-266.26;-0.064446;266.26;-179.99;123.12;11.589;52;19.996;9.8099;0.014332;4.7091e-5;-1.0717;0.061074;12933;1283.7;5.6275;0.092374;1973.3;1228;5.3239;1.0412;52993800;1282.7;862.54;0.80506;0.80506;0.28603;0.37081;0.14823;0.0052748;0.028158;-3.7522e-4;0;0;0;0;-9.0445e-6;0.034628;140;153.94;69.93;-179.98;NaN;9.5616;916.99;337.09;0.05;0.059534
3.7632;753.19;330.73;20.132;353.09;22.822;-272.43;-0.066845;272.43;-179.99;123.67;10.75;52;19.996;9.8098;0.0066081;2.8746e-5;0.82399;0.11687;12903;1253.8;5.6128;0.092353;1973.8;1226.5;5.338;1.0448;53095050;1280;869.8;0.80791;0.80791;0.28544;0.37475;0.14772;0.002434;0.01311;3.8784e-4;0;0;0;0;5.3122e-6;0.034749;140;153.94;69.93;-179.98;NaN;9.4543;915.15;337.03;0.05;0.06003
3.8132;769.75;331.72;19.807;354.21;22.446;-278.63;-0.069286;278.63;-179.99;124.22;10.559;52;19.996;9.8098;0.0091061;1.7463e-5;0.23157;0.029578;12873;1224.2;5.5981;0.092331;1974.2;1225.1;5.3511;1.0483;53190828;1281.4;876.86;0.81069;0.81069;0.28487;0.3786;0.14723;0.0033571;0.018043;-2.0959e-4;0;0;0;0;4.1694e-7;0.034867;140;153.94;69.908;-179.98;NaN;9.3466;913.3;336.96;0.05;0.060517
3.8632;786.36;332.69;19.338;355.32;22.25;-284.85;-0.071773;284.85;-179.99;124.76;11.005;52;19.996;9.8097;0.0087062;1.0818e-5;-0.29296;0.0028249;12844;1194.7;5.5835;0.09231;1974.6;1223.6;5.3643;1.0518;53286039;1282.7;882.82;0.81244;0.81244;0.28429;0.38141;0.14674;0.0032122;0.017593;-1.0548e-4;0;0;0;0;-6.6313e-7;0.034982;140;153.94;69.859;-179.97;NaN;9.2386;911.44;336.9;0.05;0.060999
3.9132;803.02;333.66;19.289;356.41;21.993;-291.1;-0.074318;291.1;-179.99;125.29;10.564;52;19.996;9.8097;0.0042941;1.1028e-5;0.94627;0.13107;12815;1165.3;5.5689;0.092288;1975;1222.1;5.3779;1.0552;53377799;1284;887.61;0.81318;0.81318;0.28372;0.3832;0.14626;0.0015853;0.0086621;-4.1189e-4;0;0;0;0;6.876e-6;0.035097;140;153.94;69.845;-179.98;NaN;9.1304;909.58;336.83;0.05;0.061487
3.9632;819.73;334.61;18.978;357.49;21.844;-297.38;-0.076886;297.38;-179.99;125.83;10.816;52;19.996;9.8096;0.0057986;1.2789e-5;-0.54847;-0.0060575;12785;1135.8;5.5541;0.092267;1975.4;1220.7;5.3909;1.0587;53470958;1285.4;892.48;0.81393;0.81393;0.28315;0.38501;0.14578;0.0021424;0.011998;-3.984e-4;0;0;0;0;-2.2957e-6;0.035211;140;153.94;69.796;-179.98;NaN;9.0218;907.71;336.77;0.05;0.061969
4.0132;836.48;335.56;19.018;358.56;21.481;-303.69;-0.079502;303.69;-179.99;126.35;9.9886;52;19.996;9.8096;0.019223;-4.7846e-6;1.1811;0.037492;12756;1106.4;5.5394;0.092246;1975.6;1219.2;5.4028;1.0622;53562255;1286.1;897.33;0.8147;0.8147;0.28257;0.38682;0.1453;0.0071087;0.038478;2.0868e-4;0;0;0;0;1.058e-5;0.035323;140;153.94;69.782;-179.98;NaN;8.9129;905.84;336.7;0.05;0.062456
4.0632;853.28;336.49;18.201;359.62;21.424;-310.02;-0.082164;310.02;-179.98;126.88;11.301;52;19.995;9.8095;0.025986;2.4467e-6;-0.47393;-0.022012;12726;1076.8;5.5245;0.092224;1975.9;1217.7;5.4154;1.0659;53662784;1286.5;902.57;0.81551;0.81551;0.28197;0.38874;0.1448;0.0096168;0.052044;-4.7459e-4;0;0;0;0;-1.6925e-6;0.035435;140;153.94;69.661;-179.97;NaN;8.8036;903.96;336.63;0.047828;0.06293
4.111;869.4;337.38;18.342;360.62;20.993;-316.1;-0.084775;316.1;-179.98;127.38;10.211;52;19.995;9.8095;0.0071559;-8.7827e-6;1.4069;0.094687;12697;1047.9;5.5099;0.092203;1976.4;1216.2;5.4299;1.069;53741342;1286.9;906.94;0.81622;0.81622;0.28145;0.3904;0.14437;0.0026486;0.013887;-4.3697e-4;0;0;0;0;1.4832e-5;0.035541;140;153.94;69.667;-179.98;NaN;8.6989;902.16;336.57;0.05;0.063402
4.161;886.29;338.28;17.951;361.65;20.801;-322.48;-0.087525;322.48;-179.98;127.91;10.508;52;19.995;9.8094;0.0048041;-7.4922e-6;-0.31924;-0.022155;12668;1019;5.4952;0.092182;1976.8;1214.8;5.4429;1.0724;53823345;1287.3;911.53;0.81697;0.81697;0.2809;0.39215;0.14392;0.0017789;0.0099239;4.4836e-4;0;0;0;0;-7.5925e-7;0.03565;140;153.94;69.617;-179.97;NaN;8.5891;900.28;336.5;0.05;0.063879
4.211;903.23;339.17;17.871;362.67;20.534;-328.89;-0.090317;328.89;-179.98;128.42;10.112;52;19.995;9.8094;0.0054208;-2.7139e-6;0.1456;-0.017276;12639;989.42;5.4801;0.092161;1977;1213.3;5.4556;1.0754;53888612;1287.7;915.49;0.81764;0.81764;0.2804;0.39373;0.14352;0.0020081;0.01053;4.6899e-4;0;0;0;0;1.571e-7;0.035758;140;153.94;69.634;-179.97;NaN;8.479;898.4;336.44;0.05;0.064376
4.261;920.21;340.06;17.778;363.68;20.266;-335.32;-0.093171;335.32;-179.98;128.94;9.728;52;19.995;9.8093;0.015147;1.5074e-6;-0.23;-0.011574;12609;959.86;5.465;0.092139;1977.2;1211.7;5.4675;1.0784;53957962;1288.1;919.53;0.81833;0.81833;0.27991;0.3953;0.14312;0.0056144;0.030415;-1.4364e-4;0;0;0;0;-3.9004e-7;0.035865;140;153.94;69.645;-179.98;NaN;8.3686;896.6;336.37;0.05;0.064858
4.311;937.23;340.93;17.189;364.68;20.196;-341.78;-0.096048;341.78;-179.98;129.45;10.603;52;19.995;9.8093;0.014936;3.2655e-5;0.44146;-0.029776;12580;930.29;5.4498;0.092118;1977.5;1210.2;5.4804;1.0816;54034731;1288.4;923.89;0.81905;0.81905;0.27938;0.39697;0.1427;0.005538;0.030371;4.6436e-4;0;0;0;0;1.429e-6;0.035971;140;153.94;69.588;-179.97;NaN;8.258;894.79;336.3;0.05;0.065319
4.361;954.3;341.8;17.055;365.67;19.912;-348.27;-0.098962;348.27;-179.98;129.94;10.276;52;19.995;9.8092;0.0069266;3.8565e-5;-1.3258;-0.12701;12550;900.72;5.4346;0.092096;1977.9;1208.7;5.494;1.0847;54108043;1288.8;928.14;0.81976;0.81976;0.27887;0.3986;0.14229;0.0025686;0.014162;-2.4491e-4;0;0;0;0;-1.282e-5;0.036075;140;153.94;69.576;-179.97;NaN;8.147;892.97;336.24;0.05;0.06576
4.411;971.41;342.65;16.762;366.64;19.681;-354.78;-0.10195;354.78;-179.98;130.44;10.314;52;19.995;9.8092;0.010241;2.1245e-5;-1.2105;0.065019;12520;871.16;5.4193;0.092075;1978.1;1207.2;5.5066;1.0879;54185943;1289.2;932.61;0.8205;0.8205;0.27834;0.4003;0.14186;0.0037988;0.02137;-2.4922e-4;0;0;0;0;-1.0628e-5;0.036179;140;153.94;69.528;-179.97;NaN;8.0358;891.15;336.17;0.05;0.066195
4.461;988.57;343.49;16.92;367.6;19.152;-361.31;-0.10498;361.31;-179.98;130.94;8.9723;52;19.995;9.8091;0.028136;3.4173e-6;1.131;0.037604;12491;841.6;5.4039;0.092054;1978.1;1205.6;5.5177;1.0909;54248863;1288.4;936.51;0.82118;0.82118;0.27785;0.40184;0.14148;0.010442;0.057964;-1.3546e-4;0;0;0;0;9.2316e-6;0.036281;140;153.94;69.558;-179.98;NaN;7.9243;889.32;336.1;0.040765;0.066732
4.5018;1002.6;344.16;16.164;368.37;19.072;-366.66;-0.10747;366.66;-179.98;131.34;10.123;52;19.995;9.8091;0.010452;7.9964e-6;-0.78319;0.0061359;12464;814.8;5.3899;0.092034;1978.5;1204.2;5.5308;1.0934;54306147;1286.9;939.95;0.82176;0.82176;0.27744;0.40317;0.14115;0.0038785;0.021271;-2.3438e-4;0;0;0;0;-4.4077e-6;0.036364;140;153.94;69.489;-179.97;NaN;7.8332;887.83;336.05;0.05;0.067158
4.5518;1019.8;344.97;16.099;369.3;18.562;-373.24;-0.11058;373.24;-179.98;131.83;9.2396;52;19.995;9.809;0.012804;-7.9848e-6;0.89471;-6.5203e-4;12437;788.03;5.3759;0.092015;1978.7;1202.8;5.5422;1.0962;54360860;1285.4;943.56;0.82241;0.82241;0.27698;0.40464;0.14079;0.004752;0.026709;-3.0579e-4;0;0;0;0;5.7251e-6;0.036463;140;153.94;69.511;-179.97;NaN;7.7212;886;335.98;0.05;0.067568
4.6018;1037.1;345.76;15.824;370.22;18.185;-379.84;-0.11374;379.84;-179.98;132.33;8.9591;52;19.994;9.809;0.017685;-1.4197e-5;-0.58186;0.018158;12408;758.54;5.3604;0.091993;1978.8;1201.2;5.5544;1.099;54415596;1283.8;947.21;0.82307;0.82307;0.27651;0.40613;0.14043;0.0065646;0.036598;-1.1732e-4;0;0;0;0;-2.41e-6;0.036561;140;153.94;69.503;-179.97;NaN;7.609;884.16;335.91;0.05;0.068055
4.6518;1054.4;346.53;15.215;371.11;18.033;-386.47;-0.11695;386.47;-179.98;132.81;9.6806;52;19.994;9.8089;0.0076807;-3.9737e-5;1.3699;0.079706;12378;729.06;5.3449;0.091972;1979.2;1199.7;5.5679;1.1018;54465290;1282.2;950.37;0.82344;0.82345;0.27619;0.40717;0.14008;0.0028506;0.015483;-5.2961e-6;0;0;0;0;1.3298e-5;0.036657;140;153.94;69.471;-179.97;NaN;7.4965;882.32;335.84;0.05;0.06852
4.7018;1071.7;347.3;14.59;371.99;17.956;-393.12;-0.12022;393.12;-179.98;133.26;10.467;52;19.994;9.8089;0.034576;-7.2451e-5;-0.44495;0.021664;12349;699.57;5.3293;0.09195;1979;1198.1;5.578;1.1045;54515214;1280.9;953.4;0.82368;0.82368;0.27594;0.408;0.13973;0.012839;0.072045;-2.5766e-4;0;0;0;0;-1.3964e-6;0.036751;140;153.94;69.432;-179.97;NaN;7.3837;880.48;335.77;0.031868;0.069029
4.7337;1082.8;347.78;15.055;372.54;17.374;-397.37;-0.12233;397.37;-179.98;133.56;8.6716;52;19.994;9.8088;0.018236;-6.3259e-5;0.093576;0.035702;12325;675.43;5.3165;0.091933;1979.4;1196.8;5.5897;1.1065;54557517;1279.6;955.72;0.82385;0.82385;0.27577;0.4086;0.13948;0.0067692;0.038236;9.0485e-5;0;0;0;0;6.1559e-8;0.036811;140;153.94;69.442;-179.97;NaN;7.3117;879.3;335.73;0.047802;0.069519
4.7815;1099.4;348.48;14.152;373.36;17.342;-403.77;-0.12553;403.77;-179.98;134.01;10.024;52;19.994;9.8088;0.025881;-7.1255e-5;0.41155;0.014237;12301;651.95;5.3039;0.091916;1979.4;1195.5;5.5993;1.1092;54609391;1277.9;958.79;0.82409;0.82409;0.27552;0.40942;0.13914;0.009608;0.053617;-2.8975e-4;0;0;0;0;1.1853e-6;0.036899;140;153.94;69.358;-179.97;NaN;7.2036;877.53;335.66;0.042399;0.070065
4.8239;1114.2;349.09;14.004;374.07;17.033;-409.46;-0.12842;409.46;-179.98;134.39;9.6966;52;19.994;9.8087;0.018763;-8.4502e-5;-0.27255;0.0087574;12275;625.48;5.2898;0.091897;1979.7;1194.1;5.6112;1.1113;54638191;1275.9;960.89;0.82427;0.82427;0.27533;0.41006;0.13888;0.0069643;0.039078;-4.1002e-4;0;0;0;0;-5.1809e-7;0.036975;140;153.94;69.373;-179.97;NaN;7.1075;875.96;335.61;0.05;0.070583
4.8739;1131.7;349.81;14.703;374.89;16.209;-416.19;-0.13187;416.19;-179.98;134.82;6.8224;52;19.994;9.8087;0.063317;-1.9672e-4;2.8219;0.091384;12248;598.49;5.2753;0.091877;1979.2;1192.6;5.6187;1.1139;54678439;1274.5;963.62;0.8245;0.82451;0.2751;0.41085;0.13855;0.023518;0.1321;-3.5101e-5;0;0;0;0;5.5301e-5;0.037063;140;153.94;69.443;-179.97;NaN;6.9939;874.1;335.54;0.017039;0.071073
4.8909;1137.7;350.06;13.98;375.17;16.41;-418.49;-0.13307;418.49;-179.98;134.95;8.5933;52;19.994;9.8087;0.01034;-1.9591e-4;5.2858;0.59342;12228;578.9;5.2648;0.091863;1980;1191.6;5.6316;1.1149;54698280;1273.6;964.77;0.82459;0.82459;0.27501;0.41115;0.13843;0.0038368;0.021062;-2.6824e-5;0;0;0;0;1.937e-4;0.037092;140;153.94;69.369;-179.97;NaN;6.9551;873.46;335.51;0.025559;0.071572
4.9165;1146.6;350.4;12.717;375.58;17.068;-421.94;-0.13485;421.94;-179.98;135.21;11.384;52;19.994;9.8086;0.074317;-1.8386e-4;-1.6912;0.061039;12216;566.46;5.2581;0.091854;1979.2;1190.9;5.6311;1.1163;54718386;1272.7;966.17;0.82471;0.82472;0.27489;0.41156;0.13826;0.027606;0.15524;-2.855e-4;0;0;0;0;-1.9786e-5;0.037138;140;153.94;69.267;-179.97;NaN;6.8969;872.51;335.48;0.014417;0.072228
4.9309;1151.7;350.58;12.786;375.81;16.886;-423.89;-0.13586;423.89;-179.98;135.37;11.03;52;19.994;9.8086;0.064302;-1.8325e-4;2.2843;0.070362;12204;554.78;5.2517;0.091845;1979.4;1190.2;5.6369;1.1169;54726586;1272;966.83;0.82477;0.82478;0.27482;0.41176;0.13818;0.02388;0.1342;-4.2784e-4;0;0;0;0;3.6059e-5;0.037165;140;153.94;69.272;-179.97;NaN;6.8641;871.97;335.46;0.016647;0.072682
4.9475;1157.5;350.8;13.497;376.08;16.142;-426.14;-0.13703;426.14;-179.98;135.54;8.8541;52;19.994;9.8086;0.0013004;-1.8211e-4;3.2313;3.0349;12195;545.7;5.2468;0.091839;1980.3;1189.7;5.6466;1.1177;54735786;1271.2;967.58;0.82484;0.82484;0.27475;0.412;0.13808;4.8236e-4;0.0025176;-2.1537e-5;0;0;0;0;7.2059e-5;0.037194;140;153.94;69.333;-179.97;NaN;6.8262;871.35;335.44;0.02497;0.073118
4.9725;1166.3;351.15;14.361;376.47;15.551;-429.53;-0.13882;429.53;-179.98;135.72;5.9659;52;19.994;9.8086;0.082301;-1.6782e-4;0.50647;0.044114;12183;533.54;5.2402;0.09183;1979.3;1189.1;5.6444;1.1191;54760773;1270.3;969.16;0.82497;0.82498;0.27463;0.41243;0.13791;0.03057;0.17273;3.9435e-4;0;0;0;0;1.7662e-6;0.037235;140;153.94;69.393;-179.97;NaN;6.7692;870.42;335.4;0.012878;0.073558
4.9854;1170.8;351.34;14.054;376.67;15.523;-431.28;-0.13975;431.28;-179.98;135.8;6.5903;52;19.994;9.8086;0.063272;-1.6846e-4;4.2198;0.056807;12172;522.49;5.2342;0.091822;1979.6;1188.5;5.6508;1.1199;54773983;1269.7;969.97;0.82503;0.82504;0.27456;0.41266;0.13782;0.023492;0.13263;-1.2007e-4;0;0;0;0;1.2246e-4;0.037255;140;153.94;69.361;-179.97;NaN;6.7398;869.94;335.38;0.01674;0.07399
5.0021;1176.7;351.57;12.976;376.93;15.839;-433.55;-0.14095;433.55;-179.98;135.93;9.0823;52;19.994;9.8085;0.011265;-1.6716e-4;-6.0099;0.29326;12163;513.83;5.2295;0.091816;1980.3;1188;5.6594;1.1208;5.479e7;1268.8;970.96;0.82511;0.82511;0.27447;0.41293;0.1377;0.0041781;0.023449;3.7234e-4;0;0;0;0;-2.4801e-4;0.037282;140;153.94;69.269;-179.97;NaN;6.7015;869.31;335.36;0.02511;0.074452
5.0272;1185.5;351.87;11.845;377.31;16.569;-436.97;-0.14276;436.97;-179.98;136.2;11.585;52;19.994;9.8085;0.08639;-1.6093e-4;0.10805;0.031252;12151;501.61;5.2229;0.091807;1979.4;1187.3;5.6577;1.122;54800982;1268;972.03;0.8252;0.82522;0.27437;0.41327;0.13756;0.032084;0.18172;-3.8655e-4;0;0;0;0;8.0018e-8;0.037327;140;153.94;69.187;-179.97;NaN;6.6441;868.37;335.33;0.012168;0.074887
5.0394;1189.8;352.02;12.172;377.5;16.154;-438.63;-0.14365;438.63;-179.98;136.34;10.621;52;19.994;9.8085;0.058369;-1.609e-4;3.6076;0.051897;12140;490.72;5.2169;0.091799;1979.8;1186.7;5.6648;1.1225;54806192;1267.4;972.52;0.82525;0.82526;0.27432;0.41344;0.13749;0.021665;0.12251;4.6016e-4;0;0;0;0;8.9123e-5;0.037349;140;153.94;69.211;-179.97;NaN;6.6163;867.92;335.31;0.018019;0.07533
5.0574;1196.1;352.25;13.211;377.77;15.208;-441.09;-0.14496;441.09;-179.98;136.5;7.5339;52;19.994;9.8085;0.030969;-1.6017e-4;-4.685;0.075965;12131;481.9;5.2121;0.091792;1980.2;1186.2;5.6712;1.1234;54815768;1266.4;973.32;0.82532;0.82532;0.27424;0.41369;0.13739;0.011488;0.065459;-1.8739e-4;0;0;0;0;-1.501e-4;0.037379;140;153.94;69.295;-179.97;NaN;6.5751;867.24;335.28;0.027029;0.075763
5.0845;1205.7;352.62;13.513;378.18;14.835;-444.78;-0.14696;444.78;-179.98;136.67;6.121;52;19.994;9.8085;0.070023;-1.4595e-4;2.32;0.020315;12118;468.74;5.2049;0.091783;1979.7;1185.5;5.6733;1.1247;54833933;1265.4;974.7;0.82543;0.82545;0.27412;0.41409;0.13722;0.025991;0.14756;1.1396e-4;0;0;0;0;3.6726e-5;0.03742;140;153.94;69.325;-179.97;NaN;6.5131;866.23;335.25;0.014896;0.076197
5.0994;1210.9;352.81;12.766;378.4;14.989;-446.81;-0.14806;446.81;-179.98;136.77;7.8546;52;19.993;9.8084;0.018546;-1.4579e-4;4.9916;0.060825;12106;456.51;5.1982;0.091774;1980.4;1184.8;5.6831;1.1255;54843557;1264.1;975.42;0.82549;0.8255;0.27405;0.41431;0.13713;0.0068767;0.039037;-4.0641e-4;0;0;0;0;1.6981e-4;0.037443;140;153.94;69.267;-179.97;NaN;6.479;865.67;335.23;0.022345;0.076625
5.1217;1218.8;353.08;11.454;378.73;15.657;-449.87;-0.14972;449.87;-179.98;136.99;10.675;52;19.993;9.8084;0.065953;-1.4348e-4;-2.3223;0.018325;12095;445.74;5.1923;0.091766;1979.9;1184.2;5.6834;1.1265;54853216;1262.6;976.36;0.82558;0.82559;0.27396;0.41462;0.137;0.024474;0.13915;-3.3916e-4;0;0;0;0;-3.6693e-5;0.03748;140;153.94;69.174;-179.97;NaN;6.4277;864.83;335.19;0.015734;0.077055
