# Time (s);Altitude (m);Vertical velocity (m/s);Vertical acceleration (m/s²);Total velocity (m/s);Total acceleration (m/s²);Position East of launch (m);Position North of launch (m);Lateral distance (m);Lateral direction (°);Lateral velocity (m/s);Lateral acceleration (m/s²);Latitude (°);Longitude (°);Gravitational acceleration (m/s²);Angle of attack (°);Roll rate (°/s);Pitch rate (°/s);Yaw rate (°/s);Mass (g);Propellant mass (g);Longitudinal moment of inertia (kg·m²);Rotational moment of inertia (kg·m²);CP location (mm);CG location (mm);Stability margin calibers (?);Mach number (?);Reynolds number (?);Thrust (N);Drag force (N);Drag coefficient (?);Axial drag coefficient (?);Friction drag coefficient (?);Pressure drag coefficient (?);Base drag coefficient (?);Normal force coefficient (?);Pitch moment coefficient (?);Yaw moment coefficient (?);Side force coefficient (?);Roll moment coefficient (?);Roll forcing coefficient (?);Roll damping coefficient (?);Pitch damping coefficient (?);Coriolis acceleration (m/s²);Reference length (mm);Reference area (cm²);Vertical orientation (zenith) (°);Lateral orientation (azimuth) (°);Wind velocity (m/s);Air temperature (°C);Air pressure (mbar);Speed of sound (m/s);Simulation time step (s);Computation time (s)
0;0;0;-3.2605;0;3.4698;0;0;0;0;0;1.1867;52;20;9.8122;70;0;0;0;16148;4498.6;6.9526;0.094708;NaN;1353.8;NaN;0.0083506;454308;92.865;0.0044153;0.6902;0.058641;0.45003;0.16608;0.074087;NaN;NaN;NaN;NaN;NaN;NaN;NaN;NaN;0;140;153.94;70;0;NaN;14.35;1001.5;340;0.01;0.0020008
0.01;0;0;23.587;0;25.1;0;0;0;0;0;8.5848;52;20;9.8122;70;0;0;0;16148;4498.6;6.9526;0.094708;NaN;1353.8;NaN;0.0082291;447698;554.21;0.0042966;0.69162;0.058762;0.45145;0.16608;0.074087;NaN;NaN;NaN;NaN;NaN;NaN;NaN;NaN;0;140;153.94;70;0;NaN;14.35;1001.5;340;0.01;0.0025367
0.02;0.0011796;0.23592;52.738;0.25107;56.123;4.2933e-4;0;4.2933e-4;0;0.085869;19.195;52;20;9.8122;65.255;0;0;0;16144;4495;6.9513;0.094705;NaN;1353.7;NaN;0.008389;456394;1054.9;0.0079163;0.68975;0.10418;0.44958;0.16608;0.074087;NaN;NaN;NaN;NaN;NaN;NaN;NaN;NaN;2.4608e-5;140;153.94;70;0;NaN;14.35;1001.5;339.99;0.01;0.0030621
0.03;0.0061763;0.76345;81.907;0.81244;87.164;0.002248;0;0.002248;0;0.27787;29.812;52;20;9.8122;55.691;0;0;0;16140;4490.5;6.9498;0.094702;NaN;1353.6;NaN;0.0090853;494277;1555.6;0.021251;0.68214;0.23844;0.44197;0.16608;0.074088;NaN;NaN;NaN;NaN;NaN;NaN;NaN;NaN;7.9632e-5;140;153.94;70;0;NaN;14.35;1001.5;339.99;0.01;0.0035267
0.04;0.017907;1.5827;104;1.6843;110.67;0.0065176;0;0.0065176;0;0.57606;37.852;52;20;9.8122;44.034;0;0;0;16135;4486;6.9482;0.094699;NaN;1353.4;NaN;0.010632;578437;1934.6;0.055835;0.66769;0.45744;0.42751;0.16609;0.074091;NaN;NaN;NaN;NaN;NaN;NaN;NaN;NaN;1.6509e-4;140;153.94;70;0;NaN;14.35;1001.5;339.99;0.01;0.0040109
0.05;0.038935;2.623;105.55;2.7914;112.32;0.014171;0;0.014171;0;0.95471;38.416;52;20;9.8122;33.826;0;0;0;16129;4479.7;6.946;0.094694;NaN;1353.2;NaN;0.013071;711109;1960.5;0.1201;0.64976;0.65103;0.40958;0.16609;0.074095;NaN;NaN;NaN;NaN;NaN;NaN;NaN;NaN;2.736e-4;140;153.94;70;0;NaN;14.35;1001.5;339.99;0.01;0.0045379
0.06;0.070445;3.679;105.81;3.9151;112.6;0.02564;0;0.02564;0;1.3391;38.512;52;20;9.8122;27.328;0;0;0;16120;4470.6;6.9428;0.094688;NaN;1352.9;NaN;0.015965;868542;1964;0.20427;0.63346;0.74226;0.39326;0.1661;0.074102;NaN;NaN;NaN;NaN;NaN;NaN;NaN;NaN;3.8375e-4;140;153.94;70;0;NaN;14.35;1001.5;339.99;0.01;0.0050163
0.07;0.11253;4.7377;106.08;5.0418;112.89;0.040957;0;0.040957;0;1.7244;38.611;52;20;9.8122;22.854;0;0;0;16110;4460.7;6.9394;0.09468;NaN;1352.6;NaN;0.019008;1034101;1967.5;0.30357;0.62002;0.77816;0.37981;0.16611;0.074111;NaN;NaN;NaN;NaN;NaN;NaN;NaN;NaN;4.9417e-4;140;153.94;70;0;NaN;14.349;1001.5;339.99;0.01;0.0054795
0.08;0.16521;5.7991;106.35;6.1713;113.18;0.060132;0;0.060132;0;2.1107;38.709;52;20;9.8122;19.62;0;0;0;16100;4450.8;6.9359;0.094673;NaN;1352.3;NaN;0.022143;1204647;1971;0.41592;0.60883;0.78565;0.36859;0.16612;0.074121;NaN;NaN;NaN;NaN;NaN;NaN;NaN;NaN;6.0488e-4;140;153.94;70;0;NaN;14.349;1001.5;339.99;0.01;0.0059285
0.09;0.22852;6.8632;106.62;7.3036;113.46;0.083175;0;0.083175;0;2.498;38.807;52;20;9.8122;17.189;0;0;0;16090;4441;6.9324;0.094666;NaN;1352;NaN;0.025339;1378509;1974.6;0.54013;0.59936;0.77914;0.3591;0.16613;0.074133;NaN;NaN;NaN;NaN;NaN;NaN;NaN;NaN;7.1587e-4;140;153.94;70;0;NaN;14.349;1001.5;339.99;0.01;0.0063622
0.1;0.30249;7.9299;106.89;8.4388;113.75;0.1101;0;0.1101;0;2.8863;38.905;52;20;9.8122;15.301;0;0;0;16080;4431.1;6.929;0.094659;NaN;1351.7;NaN;0.028578;1554734;1978.1;0.67338;0.59122;0.76362;0.35093;0.16615;0.074147;NaN;NaN;NaN;NaN;NaN;NaN;NaN;NaN;8.2714e-4;140;153.94;70;0;NaN;14.348;1001.5;339.99;0.01;0.0068075
0.11;0.38713;8.9994;107.16;9.5769;114.04;0.1409;0;0.1409;0;3.2755;39.002;52;20;9.8122;14.001;0;0;0;16070;4421.2;6.9255;0.094652;NaN;1351.4;NaN;0.031928;1736951;1981.6;0.81967;0.58397;0.74473;0.34364;0.16616;0.074163;NaN;NaN;NaN;NaN;NaN;NaN;NaN;NaN;9.3869e-4;140;153.94;70;0;NaN;14.347;1001.5;339.99;0.01;0.0072328
0.12;0.48249;10.071;107.43;10.718;114.32;0.17561;0;0.17561;0;3.6657;39.1;52;20;9.8122;12.946;0;0;0;16061;4411.3;6.9221;0.094645;NaN;1351.1;NaN;0.035299;1920332;1985.1;0.97672;0.5776;0.72601;0.33724;0.16618;0.074182;NaN;NaN;NaN;NaN;NaN;NaN;NaN;NaN;0.0010505;140;153.94;70;0;NaN;14.347;1001.5;339.99;0.01;0.0076663
0.13;0.58858;11.146;107.69;11.862;114.61;0.21422;0;0.21422;0;4.0569;39.197;52;20;9.8122;12.072;0;0;0;16051;4401.4;6.9186;0.094637;NaN;1350.7;NaN;0.038688;2104694;1988.7;1.1551;0.57689;0.71476;0.33649;0.1662;0.074202;NaN;NaN;NaN;NaN;NaN;NaN;NaN;NaN;0.0011626;140;153.94;70;0;NaN;14.346;1001.5;339.99;0.01;0.0080901
0.14;0.70543;12.224;107.96;13.008;114.89;0.25675;0;0.25675;0;4.4491;39.294;52;20;9.8122;11.337;0;0;0;16041;4391.6;6.9151;0.09463;NaN;1350.4;NaN;0.042093;2289906;1992.2;1.349;0.57693;0.70518;0.33648;0.16622;0.074224;NaN;NaN;NaN;NaN;NaN;NaN;NaN;NaN;0.001275;140;153.94;70;0;NaN;14.345;1001.4;339.99;0.01;0.0085305
0.15;0.83306;13.304;108.23;14.158;115.17;0.30321;0;0.30321;0;4.8422;39.391;52;20;9.8122;10.71;0;0;0;16031;4381.7;6.9116;0.094623;NaN;1350.1;NaN;0.045513;2475880;1995.7;1.5576;0.57697;0.6965;0.33647;0.16625;0.074248;NaN;NaN;NaN;NaN;NaN;NaN;NaN;NaN;0.0013877;140;153.94;70;0;NaN;14.345;1001.4;339.99;0.01;0.0089532
0.16;0.97152;14.387;108.49;15.31;115.46;0.3536;0;0.3536;0;5.2363;39.488;52;20;9.8122;9.8691;0;0;0;16021;4371.8;6.9081;0.094616;NaN;1349.8;NaN;0.048797;2654519;1999.2;1.7591;0.57701;0.68429;0.33646;0.16627;0.074273;NaN;NaN;NaN;NaN;NaN;NaN;NaN;NaN;0.0015006;140;153.94;70;0;NaN;14.344;1001.4;339.99;0.01;0.0093773
0.17;1.1208;15.472;108.76;16.465;115.74;0.40794;0;0.40794;0;5.6314;39.586;52;20;9.8122;9.1332;0;0;0;16011;4361.9;6.9047;0.094609;NaN;1349.5;NaN;0.052099;2834099;2002.8;1.9729;0.57705;0.67326;0.33645;0.1663;0.074299;NaN;NaN;NaN;NaN;NaN;NaN;NaN;NaN;0.0016139;140;153.94;70;0;NaN;14.343;1001.4;339.99;0.01;0.0097996
0.18;1.281;16.56;109.03;17.623;116.02;0.46624;0;0.46624;0;6.0275;39.682;52;20;9.8122;8.4838;0;0;0;16001;4352;6.9012;0.094602;NaN;1349.2;NaN;0.055416;3014533;2006.3;2.1995;0.5771;0.66341;0.33644;0.16633;0.074328;NaN;NaN;NaN;NaN;NaN;NaN;NaN;NaN;0.0017274;140;153.94;70;0;NaN;14.342;1001.4;339.99;0.01;0.01022
0.19;1.452;17.651;109.29;18.784;116.31;0.5285;0;0.5285;0;6.4245;39.779;52;20;9.8122;7.9068;0;0;0;15991;4342.2;6.8977;0.094594;NaN;1348.9;NaN;0.058749;3195752;2009.8;2.4393;0.57715;0.65467;0.33642;0.16636;0.074359;NaN;NaN;NaN;NaN;NaN;NaN;NaN;NaN;0.0018411;140;153.94;70;0;NaN;14.341;1001.4;339.99;0.01;0.01065
0.2;1.634;18.745;109.56;19.948;116.59;0.59473;0;0.59473;0;6.8225;39.876;52;20;9.8122;7.3908;0;0;0;15982;4332.3;6.8942;0.094587;NaN;1348.5;NaN;0.062094;3377701;2013.3;2.6928;0.5772;0.64693;0.33641;0.1664;0.074391;NaN;NaN;NaN;NaN;NaN;NaN;NaN;NaN;0.0019552;140;153.94;70;0;NaN;14.339;1001.3;339.99;0.01;0.011075
0.21;1.8269;19.841;109.82;21.114;116.87;0.66495;0;0.66495;0;7.2214;39.972;52;20;9.8122;7.0447;0;0;0;15972;4322.4;6.8907;0.09458;NaN;1348.2;NaN;0.065522;3564071;2016.9;2.9745;0.57725;0.64182;0.33639;0.16643;0.074426;NaN;NaN;NaN;NaN;NaN;NaN;NaN;NaN;0.0020695;140;153.94;70;0;NaN;14.338;1001.3;339.99;0.01;0.0115
0.22;2.0308;20.939;110.08;22.283;117.15;0.73916;0;0.73916;0;7.6213;40.068;52;20;9.8122;6.7322;0;0;0;15962;4312.5;6.8872;0.094573;NaN;1347.9;NaN;0.068959;3750997;2020.4;3.2714;0.57732;0.63729;0.33638;0.16647;0.074463;NaN;NaN;NaN;NaN;NaN;NaN;NaN;NaN;0.0021841;140;153.94;70;0;NaN;14.337;1001.3;339.99;0.01;0.01193
0.23;2.2457;22.041;110.35;23.455;117.43;0.81738;0;0.81738;0;8.0222;40.163;52;20;9.8122;6.4487;0;0;0;15952;4302.6;6.8837;0.094566;NaN;1347.6;NaN;0.072407;3938458;2023.9;3.5838;0.57738;0.63324;0.33636;0.16651;0.074502;NaN;NaN;NaN;NaN;NaN;NaN;NaN;NaN;0.002299;140;153.94;70;0;NaN;14.335;1001.3;339.99;0.01;0.012358
0.24;2.4717;23.145;110.61;24.63;117.71;0.89961;0;0.89961;0;8.424;40.259;52;20;9.8122;6.1903;0;0;0;15942;4292.8;6.8802;0.094559;NaN;1347.3;NaN;0.075865;4126442;2027.4;3.9116;0.57745;0.62963;0.33635;0.16656;0.074544;NaN;NaN;NaN;NaN;NaN;NaN;NaN;NaN;0.0024142;140;153.94;70;0;NaN;14.334;1001.2;339.99;0.01;0.012798
0.25;2.7086;24.251;110.87;25.808;117.99;0.98587;0;0.98587;0;8.8268;40.354;52;20;9.8122;5.9538;0;0;0;15932;4282.9;6.8767;0.094551;NaN;1347;NaN;0.079332;4314936;2031;4.2552;0.57751;0.62638;0.33633;0.1666;0.074587;NaN;NaN;NaN;NaN;NaN;NaN;NaN;NaN;0.0025296;140;153.94;70;0;NaN;14.332;1001.2;339.98;0.01;0.013227
0.26;2.9567;25.361;111.13;26.988;118.26;1.0762;0;1.0762;0;9.2305;40.449;52;20;9.8122;5.7405;0;0;0;15922;4273;6.8732;0.094544;NaN;1346.6;NaN;0.082811;4504078;2034.5;4.6153;0.57759;0.62352;0.33631;0.16665;0.074632;NaN;NaN;NaN;NaN;NaN;NaN;NaN;NaN;0.0026453;140;153.94;70;0;NaN;14.331;1001.2;339.98;0.01;0.01366
0.27;3.2159;26.472;111.39;28.171;118.54;1.1705;0;1.1705;0;9.6352;40.543;52;20;9.8122;5.5439;0;0;0;15912;4263.1;6.8696;0.094537;NaN;1346.3;NaN;0.0863;4693708;2038;4.9914;0.57766;0.62093;0.33629;0.1667;0.074679;NaN;NaN;NaN;NaN;NaN;NaN;NaN;NaN;0.0027613;140;153.94;70;0;NaN;14.329;1001.1;339.98;0.01;0.014087
0.28;3.4862;27.587;111.65;29.357;118.82;1.2689;0;1.2689;0;10.041;40.638;52;20;9.8122;5.362;0;0;0;15902;4253.2;6.8661;0.09453;NaN;1346;NaN;0.089797;4883818;2041.5;5.3836;0.57774;0.6186;0.33627;0.16675;0.074729;NaN;NaN;NaN;NaN;NaN;NaN;NaN;NaN;0.0028775;140;153.94;70;0;NaN;14.327;1001.1;339.98;0.01;0.01454
0.29;3.7676;28.704;111.91;30.546;119.09;1.3713;0;1.3713;0;10.447;40.732;52;20;9.8122;5.1934;0;0;0;15893;4243.4;6.8626;0.094523;NaN;1345.7;NaN;0.093304;5074400;2045.1;5.7922;0.57783;0.61648;0.33625;0.1668;0.07478;NaN;NaN;NaN;NaN;NaN;NaN;NaN;NaN;0.002994;140;153.94;70;0;NaN;14.326;1001.1;339.98;0.01;0.015012
0.3;4.0603;29.824;112.17;31.738;119.37;1.4778;0;1.4778;0;10.855;40.826;52;20;9.8122;5.0365;0;0;0;15883;4233.5;6.8591;0.094516;NaN;1345.4;NaN;0.096819;5265450;2048.6;6.2172;0.57792;0.61455;0.33622;0.16686;0.074834;NaN;NaN;NaN;NaN;NaN;NaN;NaN;NaN;0.0031108;140;153.94;70;0;NaN;14.324;1001;339.98;0.01;0.015475
0.31;4.3641;30.946;112.43;32.932;119.64;1.5884;0;1.5884;0;11.263;40.92;52;20;9.8122;4.8296;0;0;0;15873;4223.6;6.8555;0.094508;NaN;1345;NaN;0.10029;5454286;2052.1;6.6439;0.578;0.61204;0.3362;0.16691;0.074889;NaN;NaN;NaN;NaN;NaN;NaN;NaN;NaN;0.0032278;140;153.94;70;0;NaN;14.322;1001;339.98;0.01;0.015927
0.32;4.6792;32.07;112.69;34.129;119.92;1.7031;0;1.7031;0;11.673;41.014;52;20;9.8122;4.6362;0;0;0;15863;4213.7;6.852;0.094501;NaN;1344.7;NaN;0.10378;5643614;2055.6;7.0868;0.5781;0.60976;0.33618;0.16697;0.074946;NaN;NaN;NaN;NaN;NaN;NaN;NaN;NaN;0.0033452;140;153.94;70;0;NaN;14.32;1001;339.98;0.01;0.016382
0.33;5.0055;33.198;112.18;35.328;120.21;1.8219;0;1.8219;0;12.083;43.2;52;20;9.8122;4.4551;0;0;0;15853;4203.8;6.8485;0.094494;1837.8;1344.4;3.5245;0.10727;5833424;2060;7.546;0.57819;0.60769;0.33615;0.16704;0.075005;1.4386;5.0705;3.2557e-4;0;0;0;0;0;0.0034628;140;153.94;70;0;NaN;14.317;1000.9;339.98;0.015;0.016889
0.345;5.5161;34.882;112.61;37.133;120.66;2.008;1.5872e-7;2.008;4.5289e-6;12.731;43.322;52;20;9.8122;4.2449;0;1.1354;-2.0189e-5;15841;4191.5;6.844;0.094485;1840.4;1344;3.5459;0.11254;6119390;2066.6;8.2729;0.57835;0.6054;0.33611;0.16713;0.075098;1.3652;4.8395;4.7032e-4;0;0;0;0;8.5443e-4;0.0036411;140;153.94;69.992;7.6246e-7;NaN;14.314;1000.9;339.97;0.0225;0.017355
0.3675;6.3295;37.419;113.23;39.851;121.32;2.3054;1.0155e-6;2.3054;2.5237e-5;13.707;43.553;52;20;9.8121;4.0259;0;2.9574;2.6447e-5;15822;4173;6.8374;0.094472;1843.2;1343.4;3.5699;0.12056;6555171;2076.6;9.4589;0.57859;0.60318;0.33605;0.16729;0.075248;1.2894;4.5979;-2.5258e-4;0;0;0;0;0.0050511;0.0039096;140;153.94;69.946;2.6036e-6;NaN;14.309;1000.8;339.97;0.03375;0.017819
0.40125;7.657;41.247;114.09;43.953;122.31;2.7929;3.7895e-6;2.7929;7.7742e-5;15.182;44.092;52;20;9.8121;3.6815;0;5.985;-6.0056e-5;15794;4145.2;6.8274;0.094451;1847.6;1342.5;3.6077;0.13269;7214160;2090;11.395;0.57899;0.5999;0.33595;0.16755;0.075495;1.1715;4.2097;-3.8869e-4;0;0;0;0;0.017076;0.004315;140;153.94;69.796;1.5634e-5;NaN;14.3;1000.6;339.96;0.042578;0.01827
0.44383;9.5168;46.11;114.91;49.172;123.54;3.4796;1.0083e-5;3.4796;1.6604e-4;17.08;45.358;52;20;9.8121;2.7648;0;9.8874;2.3989e-4;15757;4107.5;6.8138;0.094424;1859.4;1341.2;3.7011;0.14769;8028004;2105.6;13.923;0.57954;0.59184;0.3358;0.16791;0.075832;0.86402;3.1603;1.6767e-4;0;0;0;0;0.037623;0.0048318;140;153.94;69.457;5.8972e-5;NaN;14.288;1000.4;339.96;0.045704;0.019051
0.48953;11.744;51.362;115.58;54.828;124.8;4.3081;2.0727e-5;4.3081;2.7566e-4;19.184;47.079;52;20;9.8121;2.0648;0;13.754;8.1569e-4;15713;4063.9;6.798;0.094392;1868.8;1339.8;3.7787;0.16432;8930248;2122.4;17.098;0.58023;0.58731;0.33563;0.16835;0.076249;0.63642;2.3459;4.7996e-4;0;0;0;0;0.058813;0.0053941;140;153.94;68.915;1.343e-4;NaN;14.274;1000.1;339.95;0.049637;0.019484
0.53917;14.436;57.094;116.08;61.032;126.17;5.3191;3.7496e-5;5.3191;4.039e-4;21.57;49.42;52;20;9.8121;1.4436;0;17.499;0.0016427;15666;4016.8;6.7809;0.094358;1877.5;1338.2;3.8519;0.18287;9936441;2139.9;21.075;0.58108;0.58464;0.33541;0.1689;0.076766;0.4396;1.6165;-2.8361e-4;0;0;0;0;0.076871;0.0060146;140;153.94;68.137;2.8534e-4;NaN;14.256;999.83;339.94;0.05;0.019942
0.58917;17.436;62.882;116.18;67.345;127.52;6.4605;6.0745e-5;6.4605;5.3872e-4;24.108;52.575;52;20;9.8121;0.44845;0;19.979;0.0091238;15617;3967.6;6.7629;0.094323;1891.8;1336.6;3.9655;0.20135;10937413;2157.6;25.441;0.58202;0.58238;0.33517;0.16951;0.077335;0.13383;0.44771;2.0374e-4;0;0;0;0;0.082661;0.0066514;140;153.94;67.191;5.0487e-4;NaN;14.237;999.48;339.93;0.05;0.020395
0.63917;20.725;68.669;116.05;73.719;128.87;7.733;9.1588e-5;7.733;6.7861e-4;26.815;56.031;52;20;9.8121;0.45177;0;-19.642;0.012376;15567;3918.2;6.7448;0.094287;1892;1334.9;3.979;0.22006;1.195e7;2175.2;30.432;0.58308;0.58344;0.33491;0.1702;0.077968;0.135;0.6041;-2.9569e-4;0;0;0;0;-0.066891;0.0073014;140;153.94;66.188;8.9111e-4;NaN;14.215;999.09;339.91;0.05;0.020828
0.68917;24.303;74.449;115.9;80.151;130.17;9.145;1.3192e-4;9.145;8.2651e-4;29.69;59.262;52;20;9.8121;1.0476;0;-16.296;0.0053299;15518;3868.8;6.7266;0.094251;1883.9;1333.3;3.9329;0.23916;12983279;2191.5;36.097;0.58425;0.58616;0.33461;0.17096;0.078672;0.31754;1.2882;4.8253e-4;0;0;0;0;-0.038987;0.0079645;140;153.94;65.278;0.00144;NaN;14.192;998.67;339.9;0.042284;0.021294
0.73145;27.554;79.334;115.9;85.634;131.19;10.454;1.7529e-4;10.454;9.6072e-4;32.238;61.467;52;20;9.8121;1.3125;3.1486e-7;-11.423;0.0036939;15472;3823.2;6.7097;0.094218;1880.5;1331.7;3.9198;0.25551;13866726;2204.2;41.335;0.58534;0.58832;0.33434;0.17167;0.079321;0.40063;1.5872;-2.2531e-5;0;0;0;0;-0.016785;0.008535;140;153.94;64.686;0.0018342;NaN;14.171;998.29;339.89;0.030003;0.021746
0.76146;29.987;82.805;116;89.551;131.84;11.449;2.1212e-4;11.449;0.0010615;34.097;62.658;52;20;9.8121;1.4231;0;-7.098;0.0031646;15437;3787.5;6.6964;0.094192;1879.2;1330.5;3.9193;0.26704;1.449e7;2214;45.243;0.58616;0.58965;0.33414;0.17222;0.079805;0.43581;1.7142;1.4801e-4;0;0;0;0;-0.0059332;0.0089446;140;153.94;64.407;0.0020678;NaN;14.155;998;339.88;0.025389;0.022177
0.78685;32.126;85.748;116.24;92.881;132.42;12.335;2.4762e-4;12.335;0.0011502;35.696;63.436;52;20;9.8121;1.4948;0;-2.8143;0.0028274;15409;3760.1;6.6862;0.094172;1878.4;1329.6;3.9203;0.27666;15008803;2222.4;48.635;0.58687;0.59072;0.33396;0.17268;0.080224;0.45886;1.7994;-1.9335e-4;0;0;0;0;-8.6906e-4;0.009294;140;153.94;64.28;0.0022411;NaN;14.141;997.75;339.87;0.022505;0.022678
0.80935;34.086;88.364;116.69;95.847;132.92;13.155;2.8264e-4;13.155;0.0012311;37.126;63.651;52;20;9.8121;1.3807;0;1.2583;0.0027299;15386;3736.5;6.6773;0.094155;1880.1;1328.7;3.9387;0.2854;1.548e7;2230.4;51.757;0.58754;0.59084;0.3338;0.17312;0.080619;0.42315;1.6664;-4.9142e-4;0;0;0;0;1.6325e-4;0.0096055;140;153.94;64.262;0.0023876;NaN;14.128;997.52;339.86;0.022811;0.023122
0.83216;36.132;91.03;117.42;98.865;133.41;14.018;3.2173e-4;14.018;0.001315;38.573;63.339;52;20;9.8121;1.0759;0;4.9525;0.0025831;15363;3714.1;6.6689;0.094139;1884.6;1328;3.9757;0.29457;15974458;2239.2;55.068;0.58826;0.59029;0.33362;0.1736;0.081045;0.3279;1.3011;-1.8754e-4;0;0;0;0;0.0023743;0.0099222;140;153.94;64.335;0.0025339;NaN;14.115;997.28;339.85;0.027399;0.023575
0.85956;38.67;94.256;118.48;102.51;134.01;15.098;3.7369e-4;15.098;0.0014181;40.296;62.626;52;20;9.812;0.68163;0;8.3068;0.002251;15339;3689.3;6.6596;0.094121;1890.3;1327.1;4.0231;0.30553;16565198;2251.2;59.196;0.58916;0.58999;0.3334;0.17419;0.081573;0.20623;0.82308;-2.0793e-5;0;0;0;0;0.0062092;0.010303;140;153.94;64.519;0.0026757;NaN;14.099;996.99;339.84;0.040214;0.024061
0.89977;42.557;99.044;120.23;107.89;134.91;16.769;4.6033e-4;16.769;0.0015728;42.782;61.198;52;20;9.812;0.13663;0;10.815;0.0020222;15305;3655.9;6.647;0.094096;1898.5;1325.9;4.0897;0.32145;17422562;2267.1;65.562;0.59055;0.59058;0.33306;0.17511;0.082374;0.040924;0.15763;4.2522e-4;0;0;0;0;0.0095096;0.010863;140;153.94;64.914;0.0028692;NaN;14.073;996.53;339.83;0.05;0.024507
0.94977;47.66;105.09;122.4;114.63;135.95;18.984;5.8602e-4;18.984;0.0017687;45.782;59.162;52;20;9.812;0.46521;-1.0484e-6;-9.1416;-0.0021159;15261;3611.3;6.6302;0.094064;1894.2;1324.4;4.0705;0.34133;18491449;2283.9;74.149;0.59237;0.59277;0.33262;0.17632;0.083432;0.14064;0.57819;4.9652e-4;0;0;0;0;-0.0060265;0.011559;140;153.94;65.434;0.0030884;NaN;14.04;995.93;339.81;0.045714;0.02494
0.99549;52.592;110.71;123.98;120.84;136.81;21.138;7.1931e-4;21.138;0.0019498;48.445;57.837;52;20;9.812;0.81432;0;-3.079;-0.0014206;15213;3564;6.6122;0.09403;1889.8;1322.7;4.0505;0.35976;19481372;2296.1;82.687;0.59419;0.59537;0.33218;0.17753;0.084469;0.24857;1.0079;3.8011e-4;0;0;0;0;-6.1546e-4;0.012195;140;153.94;65.727;0.0032174;NaN;14.008;995.35;339.79;0.023555;0.025372
1.019;55.234;113.63;124.37;124.06;137.13;22.295;7.9495e-4;22.295;0.0020429;49.803;57.763;52;20;9.812;0.82647;0;1.1252;-0.0023363;15179;3529.8;6.5992;0.094005;1889.9;1321.5;4.0598;0.36922;19989276;2304.2;87.216;0.59516;0.59639;0.33195;0.17819;0.085022;0.25264;1.0255;2.1903e-4;0;0;0;0;7.8044e-5;0.012524;140;153.94;65.751;0.0033186;NaN;13.991;995.04;339.78;0.021942;0.025806
1.041;57.758;116.36;124.63;127.07;137.56;23.402;8.6977e-4;23.402;0.0021295;51.073;58.224;52;20;9.812;0.74264;-5.6412e-7;5.0555;-0.0023476;15157;3507.3;6.5906;0.093988;1891.3;1320.7;4.0756;0.37805;20462628;2312.1;91.517;0.5961;0.59709;0.33173;0.17882;0.085552;0.22686;0.9232;-2.5252e-4;0;0;0;0;0.0015027;0.012831;140;153.94;65.683;0.0034742;NaN;13.975;994.75;339.77;0.023226;0.026232
1.0642;60.494;119.25;124.75;130.27;138.03;24.604;9.5376e-4;24.604;0.0022211;52.433;59.087;52;20;9.812;0.60758;-4.4701e-7;8.7774;-0.002365;15134;3485;6.582;0.093972;1893.5;1319.9;4.0968;0.38754;20971354;2321;96.253;0.59713;0.5978;0.33148;0.17951;0.086135;0.18531;0.75468;1.248e-5;0;0;0;0;0.004311;0.013157;140;153.94;65.521;0.0036529;NaN;13.957;994.43;339.76;0.027011;0.026684
1.0912;63.76;122.61;124.67;134;138.6;26.042;0.0010579;26.042;0.0023277;54.045;60.562;52;20;9.812;0.389;0;12.19;-0.0024309;15109;3460.2;6.5725;0.093954;1896.9;1319;4.1276;0.39871;21569355;2332.8;101.98;0.59836;0.59864;0.33119;0.18034;0.08684;0.11827;0.47985;-1.6772e-6;0;0;0;0;0.0078565;0.01354;140;153.94;65.235;0.0038783;NaN;13.936;994.04;339.74;0.040092;0.027115
1.1313;68.776;127.59;123.88;139.55;139.42;28.258;0.0012264;28.258;0.0024867;56.534;63.974;52;20;9.812;0.19419;0;-13.312;0.0043414;15076;3427.1;6.5597;0.09393;1900.1;1317.8;4.1593;0.41474;22426330;2346;110.73;0.60102;0.60109;0.33075;0.18238;0.087886;0.05893;0.25363;2.2043e-4;0;0;0;0;-0.0086602;0.014114;140;153.94;64.703;0.0041584;NaN;13.903;993.46;339.72;0.05;0.02755
1.1813;75.31;133.74;122.58;146.51;139.6;31.166;0.0014613;31.166;0.0026865;59.817;66.816;52;20;9.8119;0.60877;1.0803e-6;-6.2211;0.0048912;15030;3380.9;6.5418;0.093897;1894.9;1316.2;4.1338;0.43513;23515211;2350;122.64;0.60458;0.60526;0.33017;0.18514;0.089277;0.18694;0.7741;-3.9514e-4;0;0;0;0;-0.0017184;0.014843;140;153.94;64.19;0.0045743;NaN;13.86;992.69;339.7;0.020798;0.02798
1.2021;78.118;136.29;122.48;149.41;139.68;32.425;0.0015679;32.425;0.0027705;61.211;67.147;52;20;9.8119;0.60984;1.0039e-6;-2.0771;0.0047429;14993;3343.3;6.5272;0.093869;1895.2;1314.8;4.1455;0.44375;23974941;2351.9;127.83;0.60612;0.60681;0.32991;0.18633;0.089885;0.18752;0.77757;2.1993e-4;0;0;0;0;-1.8421e-4;0.015147;140;153.94;64.104;0.0048136;NaN;13.842;992.36;339.69;0.019871;0.02842
1.222;80.85;138.73;122.58;152.17;139.67;33.654;0.0016749;33.654;0.0028514;62.544;66.944;52;20;9.8119;0.53554;1.1306e-6;1.7983;0.0041549;14970;3321.1;6.5185;0.093853;1896.5;1314;4.1607;0.45197;24413461;2353.8;132.86;0.60761;0.60814;0.32966;0.18747;0.090476;0.16463;0.68488;-3.2363e-4;0;0;0;0;1.331e-4;0.015438;140;153.94;64.101;0.0050043;NaN;13.824;992.04;339.68;0.021725;0.028844
1.2437;83.893;141.39;122.94;155.2;139.62;35.029;0.0017979;35.029;0.0029409;63.992;66.187;52;20.001;9.8119;0.37991;1.0199e-6;5.3332;0.0032983;14948;3298.5;6.5097;0.093837;1899;1313.2;4.1845;0.46097;24892613;2356.1;138.47;0.60926;0.60953;0.32939;0.18874;0.091135;0.11658;0.4862;2.6237e-4;0;0;0;0;0.0011255;0.015756;140;153.94;64.181;0.0051679;NaN;13.805;991.68;339.66;0.02939;0.02927
1.2731;88.102;145.02;123.64;159.29;139.52;36.938;0.0019747;36.938;0.0030631;65.915;64.662;52;20.001;9.8119;0.12679;9.0551e-7;8.0768;0.0060715;14920;3270.6;6.4988;0.093817;1903;1312.1;4.2204;0.473;25532723;2359.5;146.2;0.6115;0.61153;0.32901;0.19045;0.092037;0.038778;0.16082;1.3004e-4;0;0;0;0;0.002452;0.016185;140;153.94;64.384;0.0052932;NaN;13.777;991.19;339.65;0.044085;0.029704
1.3172;94.615;150.49;124.69;165.44;139.36;39.906;0.0022623;39.906;0.0032482;68.709;62.238;52;20.001;9.8119;0.20921;1.5404e-6;-6.921;-0.0023181;14880;3230.6;6.483;0.093788;1902.5;1310.7;4.2272;0.49084;2.648e7;2363.6;158.19;0.61488;0.61497;0.32843;0.19304;0.093417;0.064294;0.27385;9.9489e-5;0;0;0;0;-0.0016722;0.016822;140;153.94;64.735;0.0054643;NaN;13.735;990.42;339.62;0.045892;0.03013
1.3631;101.65;156.23;125.17;171.83;139.23;43.124;0.0025902;43.124;0.0034415;71.533;60.959;52;20.001;9.8119;0.34051;4.7295e-6;-1.2595;-0.0018356;14831;3181.6;6.4637;0.093752;1901.3;1308.9;4.232;0.50931;27459479;2366.9;171.21;0.61848;0.6187;0.32781;0.19577;0.0949;0.10529;0.44567;-1.0287e-4;0;0;0;0;-5.1444e-5;0.017481;140;153.94;64.932;0.0057443;NaN;13.689;989.6;339.59;0.026135;0.030571
1.3892;105.78;159.5;125.12;175.46;139.19;45.014;0.0027902;45.014;0.0035515;73.124;60.979;52;20.001;9.8118;0.32785;6.0206e-6;2.8753;-0.0021163;14792;3142.4;6.4481;0.093724;1902;1307.4;4.2472;0.52004;28027575;2369.3;179.03;0.62061;0.62082;0.32744;0.19739;0.095786;0.10155;0.43072;-1.0547e-4;0;0;0;0;2.5718e-4;0.017855;140;153.94;64.911;0.0058421;NaN;13.662;989.12;339.58;0.025888;0.030998
1.4151;109.95;162.74;124.63;179.07;139.12;46.928;0.0029979;46.928;0.0036603;74.712;61.817;52;20.001;9.8118;0.2111;6.1024e-6;6.339;3.3646e-4;14763;3114;6.4368;0.093703;1904.2;1306.3;4.2705;0.53063;28587822;2372.2;186.91;0.62274;0.62283;0.32706;0.199;0.096679;0.065365;0.27765;-3.3584e-4;0;0;0;0;0.0012007;0.018227;140;153.94;64.789;0.0059555;NaN;13.635;988.63;339.56;0.038524;0.031427
1.4536;116.31;167.51;123.43;184.42;139;49.852;0.0033252;49.852;0.0038216;77.134;63.905;52;20.001;9.8118;0.048777;6.7868e-6;-7.8638;0.014015;14728;3079;6.4228;0.093678;1907.4;1305;4.3029;0.54639;2.942e7;2376.2;199.02;0.62597;0.62598;0.32649;0.20144;0.098041;0.0151;0.06659;-8.1421e-5;0;0;0;0;-0.0017431;0.018782;140;153.94;64.5;0.0061804;NaN;13.594;987.88;339.54;0.05;0.031859
1.5036;124.84;173.66;122.3;191.35;138.76;53.79;0.0037846;53.79;0.0040313;80.376;65.55;52;20.001;9.8118;0.20691;9.0535e-6;-3.9112;0.0037398;14680;3030.8;6.4035;0.093643;1906.6;1303.2;4.31;0.56719;30516694;2380.1;215.77;0.63034;0.63042;0.32571;0.20473;0.0999;0.064547;0.27887;-3.5067e-4;0;0;0;0;-4.0023e-4;0.019506;140;153.94;64.19;0.0068604;NaN;13.539;986.88;339.5;0.033456;0.032292
1.5371;130.72;177.74;121.88;195.99;138.63;56.516;0.0041167;56.516;0.0041736;82.582;66.063;52;20.001;9.8118;0.26277;7.6736e-6;1.0384;0.007126;14635;2985.3;6.3852;0.09361;1906.8;1301.5;4.3239;0.58055;31218736;2382.7;226.93;0.6332;0.63334;0.3252;0.20687;0.10113;0.082309;0.35572;-4.6796e-4;0;0;0;0;2.6933e-5;0.019993;140;153.94;64.139;0.0073455;NaN;13.5;986.19;339.48;0.024981;0.032717
1.5621;135.2;180.79;122.14;199.44;138.46;58.599;0.0043788;58.599;0.0042814;84.225;65.219;52;20.001;9.8118;0.16764;7.6187e-6;4.6209;0.013281;14603;2953.5;6.3723;0.093586;1909;1300.2;4.348;0.59064;31748510;2385.6;235.55;0.6354;0.63545;0.3248;0.20852;0.10208;0.052528;0.22814;-8.5932e-5;0;0;0;0;5.1528e-4;0.020356;140;153.94;64.213;0.0077125;NaN;13.471;985.67;339.46;0.037471;0.033144
1.5995;142.06;185.38;123.01;204.62;138.07;61.8;0.0047959;61.8;0.0044464;86.623;62.709;52;20.001;9.8117;0.091801;8.2734e-6;-5.479;0.015561;14569;2919.5;6.3585;0.093562;1911.4;1298.9;4.3744;0.60595;32551738;2389.6;249.02;0.63878;0.6388;0.32418;0.21105;0.10355;0.028822;0.12715;-4.8781e-5;0;0;0;0;-6.8841e-4;0.020895;140;153.94;64.42;0.0079115;NaN;13.427;984.86;339.44;0.05;0.033582
1.6495;151.48;191.55;123.31;211.51;137.58;66.209;0.0053961;66.209;0.0046697;89.702;61.02;52;20.001;9.8117;0.235;2.953e-6;1.3836;0.0019768;14521;2871.8;6.339;0.093527;1911.3;1297.1;4.3868;0.62632;33617377;2392.9;267.7;0.64338;0.64349;0.32334;0.21448;0.10556;0.074366;0.32659;-2.9025e-4;0;0;0;0;4.1101e-5;0.021608;140;153.94;64.536;0.007661;NaN;13.365;983.76;339.4;0.023266;0.034051
1.6728;155.97;194.41;122.8;214.71;137.46;68.312;0.0056914;68.312;0.0047735;91.129;61.755;52;20.001;9.8117;0.15381;3.8005e-6;4.8582;0.0044958;14481;2831.9;6.3227;0.093498;1913.3;1295.6;4.4126;0.63569;34106333;2395.6;276.51;0.64553;0.64558;0.32294;0.21608;0.10651;0.048706;0.21456;3.002e-4;0;0;0;0;4.9194e-4;0.021938;140;153.94;64.461;0.0075697;NaN;13.336;983.23;339.38;0.034308;0.034555
1.7071;162.71;198.6;119.94;219.42;135.49;71.476;0.006144;71.476;0.0049251;93.281;63.013;52;20.001;9.8117;0.041774;3.8356e-6;-6.3222;0.026349;14450;2800.6;6.3098;0.093475;1916.3;1294.3;4.4428;0.6495;34826049;2361.9;289.84;0.64874;0.64875;0.32234;0.21846;0.10794;0.013246;0.059624;3.5952e-4;0;0;0;0;-7.9818e-4;0.022428;140;153.94;64.255;0.0077815;NaN;13.292;982.44;339.35;0.05;0.035026
1.7571;172.79;204.53;102.6;226.13;117.17;76.219;0.0068422;76.219;0.0051434;96.464;56.585;52;20.001;9.8116;0.16458;5.9586e-6;-0.91977;0.0055067;14404;2754.8;6.2908;0.093442;1916.8;1292.5;4.4588;0.66934;35857616;2157.3;309.71;0.65345;0.65351;0.32146;0.22196;0.11004;0.052594;0.23422;4.4771e-4;0;0;0;0;-1.591e-5;0.023132;140;153.94;64.062;0.0084484;NaN;13.227;981.26;339.31;0.028261;0.035532
1.7854;178.61;207.48;99.62;229.49;113.44;78.968;0.0072591;78.968;0.0052669;98.08;54.265;52;20.001;9.8116;0.092111;5.5406e-6;2.4315;0.0032701;14363;2713.9;6.2739;0.093413;1918.9;1290.9;4.4858;0.67933;36373102;2068.7;319.95;0.65586;0.65588;0.32101;0.22374;0.11112;0.029475;0.13198;1.7543e-4;0;0;0;0;1.0796e-4;0.023486;140;153.94;64.088;0.0086698;NaN;13.189;980.57;339.29;0.042392;0.035993
1.8278;187.5;211.7;97.343;234.27;109.75;83.174;0.0079142;83.174;0.0054518;100.32;50.682;52;20.001;9.8116;0.08531;6.1337e-6;-2.3424;-8.5343e-4;14330;2680.6;6.26;0.093388;1920.7;1289.6;4.5079;0.69353;37104032;2030.6;334.88;0.65934;0.65936;0.32035;0.22631;0.11268;0.027406;0.12337;1.2924e-4;0;0;0;0;-9.6153e-5;0.023986;140;153.94;64.211;0.0086109;NaN;13.131;979.53;339.26;0.049821;0.036465
1.8776;198.17;216.54;93.932;239.71;105.76;88.234;0.0087255;88.234;0.005666;102.82;48.592;52;20.001;9.8116;0.11917;1.5818e-5;3.4474;-0.0079163;14287;2638;6.2422;0.093358;1922.2;1287.9;4.531;0.70986;37940780;1996.1;352.55;0.6634;0.66343;0.31958;0.2293;0.11452;0.038498;0.174;-8.954e-5;0;0;0;0;1.9885e-4;0.024552;140;153.94;64.179;0.0088955;NaN;13.062;978.28;339.21;0.033665;0.036934
1.9112;205.51;219.69;91.293;243.27;103.83;91.723;0.0092991;91.723;0.0058087;104.48;49.451;52;20.001;9.8115;0.013192;1.6585e-5;-5.6902;-0.056043;14249;2599.5;6.226;0.09333;1925;1286.3;4.5622;0.72048;38482792;1961.5;364.31;0.66608;0.66609;0.31907;0.23127;0.11574;0.0042664;0.020275;-1.456e-4;0;0;0;0;-5.2597e-4;0.024925;140;153.94;64.013;0.0096485;NaN;13.014;977.42;339.19;0.05;0.037418
1.9612;216.61;224.19;86.843;248.42;99.831;97.011;0.010198;97.011;0.0060229;107;49.24;52;20.001;9.8115;0.12673;9.9132e-6;0.25359;-0.0085121;14210;2560.9;6.2097;0.093302;1925.4;1284.8;4.576;0.73552;39246320;1929.2;381.38;0.66993;0.66997;0.31833;0.2341;0.1175;0.041272;0.18872;2.4597e-4;0;0;0;0;1.0027e-6;0.025469;140;153.94;63.87;0.0094237;NaN;12.942;976.12;339.14;0.028825;0.037884
1.9901;223.1;226.71;86.502;251.3;98.585;100.12;0.010738;100.12;0.0061456;108.41;47.29;52;20.001;9.8115;0.010875;9.2009e-6;2.5664;-0.0916;14174;2524.8;6.1944;0.093275;1928.2;1283.3;4.6063;0.74426;39689315;1909.2;391.49;0.6722;0.6722;0.3179;0.23577;0.11854;0.0035435;0.01638;9.9133e-5;0;0;0;0;1.003e-4;0.025773;140;153.94;63.919;0.0089615;NaN;12.9;975.36;339.12;0.043237;0.038352
2.0333;232.99;230.45;84.757;255.53;96.113;104.85;0.011573;104.85;0.0063243;110.41;45.319;52;20.002;9.8114;0.051965;9.3252e-6;-0.52153;-0.013955;14143;2493.4;6.181;0.093253;1929.3;1282;4.6233;0.75654;40307870;1887.7;405.97;0.67542;0.67542;0.31728;0.23813;0.12002;0.017016;0.078543;-1.8586e-4;0;0;0;0;-4.0098e-6;0.026217;140;153.94;63.992;0.0092494;NaN;12.836;974.2;339.08;0.05;0.038818
2.0833;244.62;234.66;82.319;260.31;93.449;110.42;0.012578;110.42;0.0065264;112.67;44.231;52;20.002;9.8114;0.048838;1.3101e-5;2.0161;-0.027124;14103;2453.8;6.1641;0.093224;1931.3;1280.4;4.6494;0.77075;41021162;1864.6;423.12;0.67919;0.6792;0.31655;0.24089;0.12176;0.01607;0.074183;2.8322e-4;0;0;0;0;5.7748e-5;0.026719;140;153.94;63.949;0.010887;NaN;12.76;972.83;339.03;0.05;0.039292
2.1333;256.45;238.75;79.487;264.96;90.931;116.11;0.013644;116.11;0.0067327;114.9;44.163;52;20.002;9.8114;0.014385;1.0296e-5;-3.0708;-0.10894;14061;2411.4;6.1459;0.093193;1933.8;1278.7;4.6796;0.78484;41726001;1841.6;440.56;0.68299;0.68299;0.31581;0.24367;0.12352;0.0047539;0.02189;2.5582e-4;0;0;0;0;-1.2924e-4;0.027208;140;153.94;63.802;0.011877;NaN;12.683;971.44;338.98;0.05;0.039764
2.1833;268.49;242.7;76.888;269.48;88.406;121.91;0.014777;121.91;0.0069448;117.12;43.632;52;20.002;9.8113;0.046318;-5.8304e-7;-0.6419;4.135e-4;14018;2369;6.1276;0.093162;1935.3;1276.9;4.7031;0.79835;42397388;1818.5;457.65;0.68669;0.68669;0.31509;0.24637;0.12523;0.015393;0.071919;3.3692e-5;0;0;0;0;-5.4592e-6;0.027686;140;153.94;63.709;0.010619;NaN;12.605;970.03;338.94;0.05;0.040234
2.2333;280.72;246.53;74.943;273.87;85.817;127.82;0.015956;127.82;0.007152;119.28;41.81;52;20.002;9.8113;3.8994e-4;-3.1245e-6;-0.57639;-0.47473;13976;2326.6;6.1092;0.093131;1937.9;1275.1;4.734;0.81127;43034980;1795.4;474.33;0.69027;0.69027;0.31439;0.24898;0.1269;1.3011e-4;8.5848e-4;-1.8464e-4;0;0;0;0;-4.2639e-6;0.028152;140;153.94;63.731;0.010759;NaN;12.525;968.6;338.89;0.05;0.040704
2.2833;293.14;250.28;72.987;278.14;83.222;133.84;0.017183;133.84;0.0073559;121.34;39.984;52;20.002;9.8113;0.045975;-8.0162e-6;1.1773;-0.0081755;13933;2284.2;6.0908;0.093101;1939.2;1273.4;4.7561;0.82405;43663302;1772.6;491.21;0.69385;0.69386;0.31369;0.25159;0.12858;0.01543;0.073507;2.3182e-4;0;0;0;0;1.7246e-5;0.028601;140;153.94;63.726;0.011985;NaN;12.445;967.14;338.84;0.05;0.041182
2.3333;305.74;253.9;70.321;282.28;80.809;139.96;0.018474;139.96;0.007563;123.35;39.813;52;20.002;9.8112;0.0027147;-7.122e-6;-2.8477;0.10042;13892;2242.6;6.0726;0.09307;1941.8;1271.6;4.7868;0.83665;44279413;1751.5;508.17;0.69743;0.69743;0.31298;0.25419;0.13026;9.1501e-4;0.004962;-4.4335e-5;0;0;0;0;-9.7917e-5;0.029038;140;153.94;63.601;0.011766;NaN;12.363;965.66;338.79;0.05;0.041654
2.3833;318.53;257.38;67.705;286.29;78.456;146.17;0.019817;146.17;0.0077678;125.36;39.641;52;20.002;9.8112;0.050657;-3.9066e-6;-0.38201;0.0036228;13852;2202.6;6.055;0.093041;1943;1269.9;4.8075;0.84854;44855546;1730.9;524.46;0.70085;0.70086;0.31231;0.25668;0.13187;0.017175;0.082627;3.4659e-4;0;0;0;0;-1.7136e-6;0.029466;140;153.94;63.516;0.011913;NaN;12.28;964.16;338.74;0.048834;0.042139
2.4321;331.18;260.69;66.457;290.09;75.969;152.34;0.02118;152.34;0.0079657;127.25;36.808;52;20.002;9.8111;0.053139;-6.7315e-6;0.033344;-0.014795;13813;2163.9;6.0379;0.093013;1944.8;1268.3;4.8322;0.86013;45414844;1711.5;540.64;0.70422;0.70423;0.31164;0.25912;0.13346;0.018107;0.087642;-4.5083e-4;0;0;0;0;1.2709e-8;0.02987;140;153.94;63.546;0.012529;NaN;12.197;962.68;338.69;0.04475;0.042612
2.4769;342.91;263.65;64.004;293.47;73.92;158.07;0.022474;158.07;0.008146;128.9;36.982;52;20.002;9.8111;0.0045648;-3.8144e-6;-3.3588;-0.064004;13777;2127.3;6.0217;0.092987;1947.1;1266.7;4.86;0.87037;45905819;1691.8;555.15;0.70723;0.70723;0.31104;0.26131;0.13488;0.001561;0.0075447;-4.4705e-4;0;0;0;0;-1.2598e-4;0.030227;140;153.94;63.44;0.013001;NaN;12.121;961.3;338.64;0.05;0.043087
2.5269;356.17;266.81;61.475;297.14;71.457;164.57;0.023979;164.57;0.0083486;130.78;36.428;52;20.002;9.8111;0.031402;-8.8137e-6;0.13378;0.0064698;13740;2090.3;6.0052;0.09296;1948.5;1265.1;4.8815;0.88126;46422754;1671;570.8;0.71046;0.71046;0.3104;0.26365;0.13641;0.010797;0.052334;4.6824e-5;0;0;0;0;1.9501e-7;0.030619;140;153.94;63.373;0.013068;NaN;12.035;959.75;338.59;0.05;0.043562
2.5769;369.59;269.89;59.836;300.68;68.972;171.15;0.02554;171.15;0.00855;132.56;34.303;52;20.003;9.811;0.024611;-7.3426e-6;0.34405;6.4557e-4;13700;2051.2;5.9877;0.092932;1950.3;1263.4;4.9067;0.89185;46922149;1650.2;586.25;0.71364;0.71364;0.30977;0.26595;0.13792;0.008503;0.041673;1.3481e-4;0;0;0;0;1.2597e-6;0.030997;140;153.94;63.39;0.013891;NaN;11.948;958.18;338.54;0.05;0.044022
2.6269;383.16;272.85;57.329;304.11;66.62;177.82;0.027167;177.82;0.0087536;134.28;33.937;52;20.003;9.811;0.0091196;-9.4064e-6;-1.3911;-0.029028;13661;2012.1;5.9701;0.092903;1952.2;1261.7;4.9326;0.90208;4.74e7;1629.8;601.77;0.7172;0.7172;0.30894;0.26887;0.13939;0.0031652;0.015677;2.2702e-4;0;0;0;0;-2.0135e-5;0.031362;140;153.94;63.321;0.014336;NaN;11.859;956.58;338.49;0.05;0.0445
2.6769;396.87;275.7;55.252;307.4;64.169;184.58;0.028858;184.58;0.0089582;135.97;32.632;52;20.003;9.8109;0.0034256;-7.1441e-6;0.39518;-0.0070813;13623;1974;5.953;0.092875;1954;1260;4.957;0.91197;47858535;1610.4;618.47;0.72242;0.72242;0.30731;0.27429;0.14083;0.0011946;0.0062032;-3.2588e-4;0;0;0;0;1.5904e-6;0.031715;140;153.94;63.292;0.014478;NaN;11.77;954.98;338.43;0.05;0.044972
2.7269;410.72;278.45;53.327;310.58;61.649;191.42;0.030608;191.42;0.0091617;137.58;30.932;52;20.003;9.8109;0.035008;-6.2258e-6;1.8046;-0.00902;13586;1937.2;5.9363;0.092849;1955.2;1258.4;4.9774;0.92186;48317802;1591;635.51;0.72769;0.72769;0.30568;0.27972;0.14228;0.012274;0.06109;-3.934e-5;0;0;0;0;3.2467e-5;0.032054;140;153.94;63.243;0.014419;NaN;11.68;953.41;338.38;0.05;0.045444
2.7769;424.71;281.08;50.255;313.63;59.335;198.33;0.032415;198.33;0.0093644;139.15;31.544;52;20.003;9.8109;0.041524;-1.2573e-5;-2.1721;0.0032056;13550;1900.8;5.9197;0.092822;1956.7;1256.8;4.9997;0.93133;48754119;1572.6;652.08;0.73276;0.73276;0.30412;0.28494;0.14369;0.014628;0.073583;-4.7602e-4;0;0;0;0;-4.6102e-5;0.032382;140;153.94;63.091;0.014202;NaN;11.589;951.85;338.32;0.045081;0.045921
2.822;437.43;283.34;49.194;316.28;57.054;204.64;0.03409;204.64;0.0095446;140.55;28.898;52;20.003;9.8108;0.038986;-1.9663e-5;0.22381;-0.0050232;13515;1866.1;5.9039;0.092797;1958.1;1255.2;5.0209;0.93967;49135644;1554.7;666.88;0.73725;0.73725;0.30275;0.28956;0.14495;0.01379;0.068929;-4.8494e-4;0;0;0;0;4.8094e-7;0.032667;140;153.94;63.086;0.014208;NaN;11.507;950.43;338.27;0.047219;0.046396
2.8692;450.87;285.63;46.086;318.95;54.988;211.31;0.035883;211.31;0.0097297;141.92;29.995;52;20.003;9.8108;0.053274;-2.1208e-5;-3.0749;-0.002844;13482;1832.5;5.8884;0.092773;1959.3;1253.7;5.0401;0.94796;4.951e7;1539.4;681.76;0.74174;0.74175;0.30138;0.29416;0.1462;0.018924;0.095747;6.7767e-5;0;0;0;0;-8.9228e-5;0.032953;140;153.94;62.931;0.016075;NaN;11.419;948.93;338.22;0.033366;0.046858
2.9026;460.42;287.16;44.945;320.76;53.829;216.06;0.037192;216.06;0.0098627;142.93;29.623;52;20.003;9.8107;0.059959;-2.005e-5;2.3831;0.010312;13453;1803.4;5.8751;0.092752;1960.1;1252.4;5.0548;0.95312;49737730;1529.4;691.15;0.74468;0.74469;0.30053;0.29716;0.14699;0.021353;0.10809;-1.0718e-4;0;0;0;0;5.3029e-5;0.033153;140;153.94;62.926;0.016529;NaN;11.357;947.86;338.18;0.029202;0.047323
2.9318;468.83;288.49;45.194;322.32;52.416;220.24;0.038368;220.24;0.0099812;143.75;26.552;52;20.003;9.8107;0.051566;-1.8097e-5;-2.3934;0.015432;13431;1781.6;5.865;0.092736;1961;1251.4;5.0682;0.95783;49946559;1519.7;699.92;0.74747;0.74747;0.29976;0.3;0.14771;0.018402;0.093213;2.6301e-4;0;0;0;0;-5.2974e-5;0.033321;140;153.94;63.013;0.015463;NaN;11.303;946.92;338.15;0.033508;0.04779
2.9653;478.52;290;43.897;324.06;50.965;225.08;0.039738;225.08;0.010116;144.63;25.894;52;20.003;9.8107;0.051404;-1.2257e-5;2.8004;0.012133;13409;1760;5.8549;0.09272;1961.8;1250.4;5.0812;0.96309;50177307;1509.4;709.75;0.75058;0.75058;0.29889;0.30316;0.14852;0.018389;0.092889;-2.9412e-4;0;0;0;0;7.1749e-5;0.033506;140;153.94;62.997;0.015011;NaN;11.24;945.84;338.11;0.03324;0.04863
2.9985;488.18;291.43;41.572;325.74;49.809;229.9;0.041114;229.9;0.010246;145.52;27.436;52;20.003;9.8107;0.039885;-8.0779e-6;-2.8415;0.0031179;13386;1737;5.8443;0.092703;1962.8;1249.4;5.0955;0.96813;50396635;1497.8;719.23;0.75357;0.75357;0.29806;0.30621;0.1493;0.014298;0.073094;-2.9463e-5;0;0;0;0;-7.3119e-5;0.033688;140;153.94;62.885;0.016763;NaN;11.177;944.76;338.07;0.041775;0.049373
3.0403;500.39;293.15;40.239;327.79;47.939;236;0.042893;236;0.010413;146.66;26.058;52;20.003;9.8106;0.015287;-6.7941e-6;1.1552;9.7086e-4;13360;1711.1;5.8322;0.092685;1964;1248.2;5.1131;0.97423;50659181;1483.7;730.77;0.75721;0.75721;0.29706;0.30989;0.15025;0.0054926;0.027741;8.4726e-5;0;0;0;0;1.1937e-5;0.033913;140;153.94;62.882;0.016853;NaN;11.097;943.39;338.02;0.05;0.049863
3.0903;515.1;295.16;38.53;330.15;45.834;243.37;0.045078;243.37;0.010613;147.92;24.824;52;20.004;9.8106;0.0036154;-1.0007e-5;-0.24512;-0.0039109;13329;1679.5;5.8175;0.092662;1965.2;1246.7;5.132;0.98101;50944722;1468.3;743.64;0.76126;0.76126;0.29594;0.314;0.15132;0.0013026;0.0064857;-4.3122e-4;0;0;0;0;-5.3025e-7;0.034169;140;153.94;62.901;0.017326;NaN;11.002;941.75;337.97;0.05;0.050812
3.1403;529.91;297.07;36.828;332.41;43.757;250.79;0.047333;250.79;0.010814;149.15;23.631;52;20.004;9.8105;0.0071595;-8.5502e-6;0.22772;0.018165;13294;1645.1;5.8013;0.092637;1966.2;1245.2;5.1502;0.98764;51221403;1451.7;756.34;0.76524;0.76524;0.29485;0.31803;0.15237;0.0025868;0.013584;1.2277e-4;0;0;0;0;4.5167e-7;0.034415;140;153.94;62.899;0.016955;NaN;10.906;940.09;337.91;0.05;0.05147
3.1903;544.81;298.89;34.811;334.57;41.657;258.28;0.049644;258.28;0.011013;150.33;22.879;52;20.004;9.8105;0.0011332;-7.8832e-6;-0.44841;0.07865;13261;1611.6;5.7855;0.092612;1967.2;1243.6;5.1686;0.99407;51485881;1434;768.72;0.76911;0.76911;0.29379;0.32194;0.15339;4.1047e-4;0.0016429;3.5316e-4;0;0;0;0;-1.7294e-6;0.03465;140;153.94;62.869;0.017058;NaN;10.809;938.43;337.85;0.05;0.051998
3.2403;559.8;300.62;32.916;336.62;39.458;265.82;0.052003;265.82;0.011209;151.46;21.76;52;20.004;9.8104;0.0049944;-1.0368e-5;1.1501;-0.062034;13228;1579.1;5.7701;0.092589;1968.1;1242.1;5.1857;1.0004;51746169;1416.3;781.71;0.77356;0.77356;0.29274;0.32655;0.15427;0.0018137;0.0089748;3.559e-4;0;0;0;0;1.1236e-5;0.034874;140;153.94;62.825;0.018353;NaN;10.711;936.76;337.79;0.05;0.052561
3.2903;574.87;302.24;30.853;338.56;37.312;273.42;0.054433;273.42;0.011406;152.55;20.983;52;20.004;9.8104;0.0024109;-1.0395e-5;-0.92996;0.25925;13196;1546.6;5.7547;0.092565;1969;1240.6;5.2029;1.0065;51988548;1398.6;794.45;0.77815;0.77815;0.29175;0.33306;0.15334;8.7749e-4;0.0047198;2.2036e-4;0;0;0;0;-7.2609e-6;0.035088;140;153.94;62.765;0.016585;NaN;10.613;935.07;337.73;0.05;0.053238
3.3403;590.02;303.77;28.954;340.39;35.202;281.08;0.056896;281.08;0.011598;153.59;20.021;52;20.004;9.8104;0.0018241;-9.4604e-6;-0.69898;0.029631;13163;1514.1;5.7392;0.092542;1969.8;1239;5.2194;1.0121;52206172;1380.9;806.24;0.78241;0.78241;0.29082;0.33909;0.15249;6.6522e-4;0.0032699;-2.2301e-4;0;0;0;0;-4.0582e-6;0.03529;140;153.94;62.729;0.018098;NaN;10.515;933.38;337.67;0.05;0.053975
3.3903;605.24;305.2;27.222;342.12;33.333;288.78;0.059421;288.78;0.011789;154.59;19.237;52;20.004;9.8103;0.005294;-9.9201e-6;0.35813;-0.020998;13131;1481.6;5.7236;0.092518;1970.4;1237.5;5.2348;1.0169;52384601;1364.6;816.36;0.78612;0.78612;0.29002;0.34433;0.15177;0.001934;0.010212;1.4041e-4;0;0;0;0;1.0555e-6;0.035482;140;153.94;62.736;0.018374;NaN;10.416;931.68;337.61;0.05;0.054684
3.4403;620.54;306.56;25.786;343.75;31.51;296.54;0.062002;296.54;0.01198;155.53;18.11;52;20.004;9.8103;0.0067007;-1.178e-5;0.66886;0.0071518;13099;1449.8;5.7084;0.092495;1971;1236;5.2501;1.0218;52563280;1350.1;826.64;0.78989;0.78989;0.28922;0.34963;0.15104;0.002452;0.012683;-1.1392e-4;0;0;0;0;3.6481e-6;0.035663;140;153.94;62.728;0.018965;NaN;10.317;929.97;337.55;0.05;0.055322
3.4903;635.9;307.83;24.093;345.3;29.815;304.34;0.064642;304.34;0.01217;156.44;17.563;52;20.004;9.8102;0.0025531;-1.1118e-5;-0.14107;0.0058391;13068;1418.8;5.6934;0.092473;1971.7;1234.5;5.2653;1.0264;52725245;1335.6;836.29;0.79346;0.79346;0.28847;0.35462;0.15037;9.3552e-4;0.0046163;-9.3527e-5;0;0;0;0;-1.609e-7;0.035835;140;153.94;62.7;0.019408;NaN;10.217;928.25;337.49;0.05;0.055924
3.5403;651.32;309.02;22.684;346.76;28.216;312.18;0.067344;312.18;0.01236;157.31;16.781;52;20.005;9.8102;8.5755e-4;-1.1434e-5;-0.22276;0.11377;13037;1387.8;5.6784;0.09245;1972.2;1233;5.2799;1.0307;52869381;1322.3;845.18;0.79678;0.79678;0.28777;0.35927;0.14975;3.1462e-4;0.0019419;2.749e-4;0;0;0;0;-3.9802e-7;0.035998;140;153.94;62.693;0.018749;NaN;10.116;926.53;337.43;0.05;0.05639
3.5903;666.8;310.15;21.409;348.14;26.743;320.07;0.070095;320.07;0.012548;158.14;16.026;52;20.005;9.8101;0.0026162;-1.375e-5;0.67099;5.1472e-4;13007;1357.3;5.6636;0.092428;1972.7;1231.6;5.294;1.0349;5.301e7;1310.8;854.02;0.80007;0.80007;0.28707;0.36386;0.14914;9.6105e-4;0.0050501;-3.197e-4;0;0;0;0;3.5833e-6;0.036153;140;153.94;62.668;0.020108;NaN;10.016;924.8;337.37;0.05;0.057137
3.6403;682.33;311.21;20.049;349.44;25.269;327.99;0.072903;327.99;0.012735;158.93;15.381;52;20.005;9.8101;0.0020779;-1.5723e-5;1.2224;-0.083839;12977;1327.3;5.6489;0.092406;1973.2;1230.1;5.3081;1.0391;53153821;1299.3;863.08;0.80343;0.80343;0.28637;0.36854;0.14852;7.6421e-4;0.0042128;2.478e-4;0;0;0;0;1.1799e-5;0.0363;140;153.94;62.608;0.020437;NaN;9.9148;923.06;337.31;0.05;0.057715
3.6903;697.92;312.19;18.712;350.67;23.95;335.96;0.075772;335.96;0.012923;159.71;14.949;52;20.005;9.81;0.0051263;-1.7889e-5;-0.0019231;-0.0026788;12947;1297.4;5.6343;0.092384;1973.6;1228.6;5.3212;1.0427;53262059;1287.8;870.52;0.80629;0.80629;0.28578;0.3725;0.14801;0.0018872;0.010259;-1.8533e-4;0;0;0;0;0;0.036441;140;153.94;62.587;0.019866;NaN;9.8135;921.32;337.25;0.05;0.058247
3.7403;713.55;313.13;17.795;351.83;22.746;343.96;0.078692;343.96;0.013108;160.43;14.167;52;20.005;9.81;0.004611;-2.6249e-5;1.6035;-0.10665;12917;1267.5;5.6195;0.092363;1974.1;1227.2;5.3349;1.0466;53383829;1279.8;878.71;0.80938;0.80938;0.28514;0.37678;0.14746;0.0016991;0.0085748;-2.4247e-5;0;0;0;0;2.0027e-5;0.036572;140;153.94;62.537;0.021638;NaN;9.7119;919.58;337.18;0.05;0.059128
3.7903;729.23;314;17.288;352.93;22.309;352;0.081684;352;0.013296;161.14;14.1;52;20.005;9.8099;7.2546e-4;-2.8087e-5;1.2329;-1.0877;12887;1237.7;5.6049;0.092341;1974.6;1225.7;5.3489;1.0506;53508698;1280.7;886.75;0.81219;0.81219;0.28448;0.3808;0.1469;2.6755e-4;0.0014383;4.7349e-4;0;0;0;0;1.1755e-5;0.036699;140;153.94;62.444;0.022149;NaN;9.61;917.83;337.12;0.05;0.059885
3.8403;744.95;314.85;17.022;354.02;22.153;360.08;0.084753;360.08;0.013486;161.85;14.178;52;20.005;9.8099;0.004903;-4.0871e-5;-0.52371;0.084852;12857;1208.2;5.5902;0.09232;1974.9;1224.3;5.3616;1.054;53603278;1282.1;891.56;0.81291;0.81291;0.28393;0.38255;0.14643;0.0018097;0.0095704;-3.1205e-4;0;0;0;0;-2.1083e-6;0.036824;140;153.94;62.403;0.02025;NaN;9.5078;916.07;337.06;0.05;0.060374
3.8903;760.71;315.7;16.94;355.09;21.91;368.19;0.087873;368.19;0.013674;162.55;13.896;52;20.005;9.8098;0.0024193;-4.3725e-5;0.9738;0.26727;12828;1178.8;5.5756;0.092298;1975.3;1222.8;5.3749;1.0574;53697990;1283.4;896.41;0.81365;0.81365;0.28337;0.38432;0.14596;8.9355e-4;0.0048934;4.8108e-4;0;0;0;0;7.245e-6;0.036948;140;153.94;62.373;0.020626;NaN;9.4054;914.31;337;0.05;0.060863
3.9403;776.52;316.54;16.755;356.16;21.733;376.33;0.091046;376.33;0.013862;163.25;13.842;52;20.005;9.8098;0.0016629;-4.658e-5;0.46981;0.074217;12799;1149.3;5.5609;0.092277;1975.7;1221.3;5.3879;1.0607;53786394;1284.8;901.05;0.81436;0.81436;0.28282;0.38603;0.14551;6.1456e-4;0.0029255;3.9744e-4;0;0;0;0;1.6765e-6;0.037071;140;153.94;62.341;0.022202;NaN;9.3026;912.54;336.94;0.05;0.061343
3.9903;792.37;317.37;16.542;357.21;21.563;384.51;0.094283;384.51;0.014049;163.94;13.832;52;20.006;9.8097;0.0010138;-4.6568e-5;-0.28213;-0.28842;12769;1119.9;5.5461;0.092256;1976;1219.9;5.4009;1.0639;5.387e7;1285.9;905.54;0.81507;0.81507;0.28229;0.38771;0.14507;3.7487e-4;0.0016005;9.7641e-5;0;0;0;0;-6.0116e-7;0.037193;140;153.94;62.315;0.024129;NaN;9.1996;910.77;336.87;0.05;0.061842
4.0403;808.26;318.19;16.311;358.26;21.308;392.72;0.0976;392.72;0.014239;164.63;13.711;52;20.006;9.8097;1.9594e-4;-4.7396e-5;-0.72176;-0.10721;12740;1090.4;5.5313;0.092234;1976.3;1218.4;5.4139;1.0672;53956676;1286.4;910.19;0.8158;0.8158;0.28175;0.38943;0.14462;7.2492e-5;6.9178e-4;-3.3886e-4;0;0;0;0;-3.9116e-6;0.037313;140;153.94;62.281;0.022841;NaN;9.0963;909;336.81;0.05;0.062325
4.0903;824.19;319;16.063;359.29;21.059;400.97;0.10097;400.97;0.014428;165.31;13.618;52;20.006;9.8096;6.9491e-4;-4.7933e-5;-0.66273;0.28132;12710;1060.8;5.5164;0.092213;1976.6;1216.9;5.4268;1.0705;54041085;1286.7;914.78;0.81653;0.81653;0.28121;0.39114;0.14418;2.5723e-4;0.0014983;-1.155e-4;0;0;0;0;-3.2791e-6;0.037433;140;153.94;62.246;0.022673;NaN;8.9928;907.22;336.75;0.05;0.06282
4.1403;840.16;319.8;15.885;360.31;20.837;409.26;0.10441;409.26;0.014618;165.99;13.485;52;20.006;9.8096;5.7092e-4;-5.0693e-5;0.22687;0.06068;12681;1031.3;5.5014;0.092191;1976.9;1215.4;5.4395;1.0734;5.411e7;1287.1;918.82;0.8172;0.8172;0.28072;0.3927;0.14378;2.1142e-4;8.9252e-4;-1.2419e-4;0;0;0;0;3.8229e-7;0.037552;140;153.94;62.236;0.023554;NaN;8.889;905.43;336.69;0.05;0.063302
4.1903;856.17;320.59;15.665;361.32;20.579;417.57;0.10791;417.57;0.014807;166.66;13.345;52;20.006;9.8095;0.001975;-5.7978e-5;0.70758;-0.38709;12651;1001.7;5.4864;0.09217;1977.2;1213.9;5.4523;1.0767;54191710;1287.5;923.35;0.81793;0.81793;0.28019;0.39439;0.14335;7.3171e-4;0.0043364;-4.8338e-4;0;0;0;0;3.6977e-6;0.037669;140;153.94;62.2;0.025934;NaN;8.7849;903.64;336.62;0.05;0.063783
4.2403;872.22;321.37;15.327;362.32;20.329;425.92;0.11149;425.92;0.014998;167.32;13.355;52;20.006;9.8095;0.0022761;-6.4067e-5;-1.1972;-0.099397;12621;972.14;5.4713;0.092148;1977.5;1212.4;5.4653;1.0801;54282935;1287.9;928.31;0.81872;0.81872;0.27962;0.3962;0.14289;8.4361e-4;0.0046295;-3.8967e-4;0;0;0;0;-1.0521e-5;0.037784;140;153.94;62.132;0.024746;NaN;8.6806;901.85;336.56;0.05;0.064259
4.2903;888.3;322.13;15.22;363.3;20.15;434.3;0.11514;434.3;0.01519;168;13.206;52;20.006;9.8094;0.0014596;-1.0479e-4;0.031154;-0.24208;12592;942.57;5.4561;0.092127;1977.8;1210.9;5.4778;1.0827;54331384;1288.3;931.6;0.81931;0.81931;0.2792;0.39757;0.14255;5.4112e-4;0.003396;-2.1041e-4;0;0;0;0;7.0937e-9;0.0379;140;153.94;62.149;0.021528;NaN;8.576;900.05;336.5;0.05;0.064776
4.3403;904.43;322.89;15.183;364.28;19.914;442.72;0.11884;442.72;0.01538;168.65;12.886;52;20.006;9.8094;0.0077788;-1.2051e-4;-0.041793;0.10152;12562;913.01;5.4409;0.092105;1977.9;1209.3;5.4898;1.0854;54385473;1288.7;935.11;0.81992;0.81993;0.27875;0.39898;0.14219;0.0028848;0.016203;4.7012e-4;0;0;0;0;-1.2707e-8;0.038013;140;153.94;62.162;0.022518;NaN;8.4712;898.27;336.43;0.05;0.065242
4.3903;920.59;323.64;14.754;365.24;19.723;451.17;0.12258;451.17;0.015567;169.3;13.089;52;20.007;9.8093;0.0027861;-1.4066e-4;-0.57793;-0.34798;12533;883.44;5.4256;0.092084;1978.2;1207.8;5.5032;1.0887;54473144;1289.1;939.89;0.82068;0.82068;0.2782;0.40072;0.14176;0.0010334;0.0053193;4.6038e-4;0;0;0;0;-2.416e-6;0.038126;140;153.94;62.093;0.027882;NaN;8.3662;896.56;336.37;0.05;0.065755
4.4403;936.79;324.37;14.185;366.19;19.487;459.65;0.12639;459.65;0.015754;169.94;13.361;52;20.007;9.8093;0.016275;-1.7047e-4;-1.7314;-0.26226;12503;853.87;5.4103;0.092062;1978.4;1206.3;5.515;1.0923;54572646;1288.8;945.18;0.82151;0.82151;0.27762;0.40259;0.1413;0.0060392;0.033286;9.7053e-7;0;0;0;0;-2.1551e-5;0.038236;140;153.94;61.993;0.031542;NaN;8.2609;894.83;336.3;0.05;0.066256
4.4903;953.03;325.09;14.087;367.13;19.007;468.16;0.13031;468.16;0.015947;170.58;12.76;52;20.007;9.8092;0.0017436;-1.8511e-4;-1.5424;0.52621;12474;824.33;5.3949;0.092041;1978.8;1204.7;5.529;1.0952;54636037;1287.3;949.05;0.82217;0.82217;0.27715;0.40409;0.14093;6.4696e-4;0.0036556;3.3703e-4;0;0;0;0;-1.7019e-5;0.038346;140;153.94;61.984;0.024502;NaN;8.1553;893.11;336.24;0.05;0.066779
4.5403;969.3;325.79;14.169;368.04;18.399;476.71;0.13427;476.71;0.016138;171.22;11.737;52;20.007;9.8092;0.026067;-1.737e-4;1.4049;0.16796;12444;794.84;5.3795;0.09202;1978.7;1203.2;5.5395;1.0982;5.471e7;1285.8;953.37;0.82288;0.82288;0.27664;0.40571;0.14053;0.0096772;0.053153;1.2115e-4;0;0;0;0;1.4047e-5;0.038454;140;153.94;61.962;0.018957;NaN;8.0496;891.37;336.18;0.043561;0.067295
4.5838;983.5;326.38;13.323;368.82;18.384;484.18;0.13772;484.18;0.016297;171.77;12.668;52;20.007;9.8091;0.0084869;-1.4849e-4;-0.16851;-0.060355;12416;767.25;5.365;0.092;1979.1;1201.7;5.5528;1.1007;54764808;1284.3;956.65;0.82336;0.82336;0.27628;0.40686;0.14021;0.0031498;0.017188;1.9088e-4;0;0;0;0;-2.0125e-7;0.038547;140;153.94;61.894;0.027046;NaN;7.9572;889.86;336.12;0.05;0.067807
4.6338;999.84;327.05;12.973;369.7;18.086;492.78;0.14176;492.78;0.016482;172.38;12.602;52;20.007;9.8091;0.01117;-1.3195e-4;-1.1568;-0.14499;12389;739.66;5.3505;0.09198;1979.2;1200.2;5.5644;1.1035;54823410;1282.8;959.92;0.8236;0.8236;0.27603;0.40771;0.13986;0.0041459;0.023072;-3.996e-4;0;0;0;0;-9.4388e-6;0.03865;140;153.94;61.861;0.029897;NaN;7.851;888.13;336.06;0.05;0.068398
4.6838;1016.2;327.71;13.024;370.56;17.539;501.42;0.14589;501.42;0.016671;172.98;11.747;52;20.007;9.809;0.011532;-9.9667e-5;2.1394;-0.077923;12359;710.17;5.3349;0.091958;1979.4;1198.7;5.5771;1.1065;54890925;1281.2;963.53;0.82385;0.82385;0.27576;0.40861;0.13948;0.0042801;0.024101;-9.4333e-5;0;0;0;0;3.2124e-5;0.038752;140;153.94;61.83;0.026564;NaN;7.7446;886.38;335.99;0.05;0.069107
4.7338;1032.6;328.34;12.79;371.41;17.226;510.08;0.15009;510.08;0.016859;173.61;11.54;52;20.007;9.809;0.013921;-8.2353e-5;-0.24865;-0.05374;12330;680.68;5.3193;0.091937;1979.6;1197.1;5.5894;1.1092;54939455;1279.6;966.46;0.82408;0.82408;0.27553;0.40941;0.13915;0.0051667;0.028517;5.8655e-5;0;0;0;0;-4.3204e-7;0.038854;140;153.94;61.804;0.024301;NaN;7.638;884.64;335.93;0.05;0.069688
4.7838;1049;328.96;12.318;372.24;16.981;518.78;0.15434;518.78;0.017046;174.21;11.689;52;20.008;9.8089;0.0044634;-5.4429e-5;-0.51192;-0.0092215;12300;651.21;5.3036;0.091915;1979.9;1195.5;5.6028;1.1118;54990727;1277.7;969.51;0.82432;0.82432;0.27528;0.41022;0.13881;0.0016562;0.0087993;4.6334e-4;0;0;0;0;-1.8232e-6;0.038953;140;153.94;61.759;0.025983;NaN;7.5312;882.89;335.86;0.05;0.070171
4.8338;1065.5;329.57;11.346;373.06;17.024;527.5;0.15863;527.5;0.01723;174.79;12.691;52;20.008;9.8089;0.032333;1.0845e-5;-0.1217;-0.14037;12271;621.88;5.2879;0.091894;1979.7;1193.9;5.6127;1.1146;55046850;1275.9;972.76;0.82456;0.82457;0.27503;0.41107;0.13846;0.012002;0.066968;1.4159e-5;0;0;0;0;-1.0256e-7;0.03905;140;153.94;61.672;0.033294;NaN;7.4242;881.14;335.8;0.033377;0.070768
4.8672;1076.5;329.97;12.036;373.59;16.278;533.34;0.1616;533.34;0.01736;175.18;10.96;52;20.008;9.8089;0.01944;-6.1189e-6;0.12806;0.046069;12247;597.52;5.2748;0.091876;1980;1192.6;5.6242;1.1165;55083594;1274.1;974.9;0.82473;0.82473;0.27486;0.41163;0.13823;0.0072136;0.040993;1.8048e-4;0;0;0;0;1.1322e-7;0.039114;140;153.94;61.688;0.024764;NaN;7.3527;879.97;335.75;0.05;0.071317
4.9172;1093;330.54;10.901;374.37;16.38;542.11;0.16603;542.11;0.017548;175.77;12.226;52;20.008;9.8088;0.025625;1.4776e-4;1.4471;-0.21625;12222;573.17;5.2617;0.091859;1980;1191.2;5.6341;1.1191;55130603;1272.1;977.84;0.82497;0.82497;0.27463;0.41243;0.13791;0.0095083;0.05357;4.5748e-4;0;0;0;0;1.4393e-5;0.039209;140;153.94;61.597;0.028048;NaN;7.2453;878.21;335.69;0.041322;0.071871
4.9585;1106.7;331.02;11.277;375;15.758;549.39;0.16974;549.39;0.017702;176.22;11.006;52;20.008;9.8088;0.0090528;9.3534e-5;1.2961;-0.24454;12196;546.49;5.2473;0.091839;1980.3;1189.8;5.6469;1.1212;55160844;1270.1;979.94;0.82514;0.82514;0.27444;0.41304;0.13766;0.0033575;0.018617;-2.5722e-4;0;0;0;0;1.1509e-5;0.039285;140;153.94;61.612;0.031483;NaN;7.1565;876.76;335.64;0.05;0.072664
5.0085;1123.3;331.57;10.898;375.76;15.384;558.21;0.17433;558.21;0.017893;176.79;10.859;52;20.008;9.8087;0.0083325;1.4123e-4;0.6061;-0.11786;12169;519.81;5.2328;0.09182;1980.5;1188.3;5.6585;1.124;55215333;1268;983.15;0.82537;0.82537;0.27419;0.41387;0.13731;0.0030895;0.017393;4.6447e-4;0;0;0;0;2.5052e-6;0.039376;140;153.94;61.542;0.027646;NaN;7.0488;875;335.57;0.05;0.073231
5.0585;1139.9;332.1;9.8199;376.49;15.524;567.06;0.17901;567.06;0.018087;177.35;12.023;52;20.008;9.8087;0.032971;2.8611e-4;-0.0050465;-0.009475;12140;490.59;5.2169;0.091799;1980.3;1186.7;5.6687;1.1268;55268890;1266.2;986.35;0.8256;0.82561;0.27394;0.4147;0.13697;0.012227;0.069414;-4.7961e-4;0;0;0;0;0;0.039465;140;153.94;61.427;0.018903;NaN;6.941;873.23;335.51;0.03137;0.073823
5.0899;1150.3;332.42;10.472;376.94;14.808;572.63;0.18189;572.63;0.0182;177.7;10.47;52;20.008;9.8086;0.013022;2.7379e-4;-0.83979;-0.13192;12116;466.82;5.2039;0.091782;1980.6;1185.4;5.6804;1.1282;55284047;1263.9;987.67;0.82572;0.82572;0.27381;0.41511;0.1368;0.0048265;0.027747;3.4517e-4;0;0;0;0;-4.7767e-6;0.039521;140;153.94;61.458;0.031841;NaN;6.8732;872.12;335.46;0.047055;0.074332
5.137;1165.9;332.9;9.5223;377.6;14.764;581.01;0.1864;581.01;0.018382;178.21;11.283;52;20.008;9.8086;0.018849;3.047e-4;0.96758;-0.087347;12093;444.08;5.1914;0.091765;1980.6;1184.1;5.6896;1.1301;55297255;1260.1;989.3;0.82588;0.82588;0.27364;0.41567;0.13657;0.0069854;0.039255;-3.252e-4;0;0;0;0;6.322e-6;0.039602;140;153.94;61.42;0.022284;NaN;6.7715;870.46;335.4;0.05;0.074887
5.187;1182.6;333.4;8.8197;378.29;14.7;589.93;0.19122;589.93;0.018572;178.73;11.76;52;20.009;9.8085;0.039147;4.6232e-4;-1.2147;-0.2023;12065;416.09;5.176;0.091745;1980.5;1182.5;5.6995;1.1319;5.53e7;1257.1;990.6;0.82603;0.82604;0.27348;0.4162;0.13636;0.01451;0.082627;-1.7546e-4;0;0;0;0;-9.9362e-6;0.039685;140;153.94;61.411;0.021055;NaN;6.6632;868.69;335.34;0.026048;0.075322
5.213;1191.3;333.64;9.2895;378.64;14.133;594.59;0.19376;594.59;0.018671;179.03;10.651;52;20.009;9.8085;0.0079496;4.3522e-4;1.8665;-0.9842;12043;394.17;5.1639;0.091729;1980.9;1181.3;5.7114;1.1329;55304468;1254.6;991.41;0.82612;0.82612;0.27338;0.4165;0.13623;0.0029444;0.017128;-4.5142e-4;0;0;0;0;2.3424e-5;0.03973;140;153.94;61.435;0.020471;NaN;6.6067;867.76;335.3;0.039073;0.075773
5.2521;1204.3;334.02;9.1158;379.15;13.649;601.59;0.19753;601.59;0.018813;179.41;10.159;52;20.009;9.8085;0.0033802;3.5718e-4;1.2904;-0.55242;12025;375.41;5.1535;0.091715;1981;1180.2;5.7199;1.1345;55319305;1251.1;992.92;0.82626;0.82626;0.27323;0.417;0.13603;0.0012515;0.0069555;-2.3732e-4;0;0;0;0;1.1166e-5;0.039792;140;153.94;61.425;0.034504;NaN;6.5219;866.37;335.25;0.05;0.07624
5.3021;1221;334.46;8.7656;379.79;13.112;610.58;0.20249;610.58;0.019002;179.92;9.7516;52;20.009;9.8084;0.0091864;3.7483e-4;0.80572;-0.42896;11999;349.73;5.1393;0.091697;1981;1178.8;5.7304;1.1369;55346323;1247.2;995.18;0.82646;0.82646;0.27302;0.41768;0.13576;0.0034005;0.019135;-1.9043e-4;0;0;0;0;4.3371e-6;0.039872;140;153.94;61.377;0.037663;NaN;6.4133;864.6;335.19;0.05;0.076701
5.3521;1237.8;334.89;8.7398;380.4;12.606;619.58;0.20757;619.58;0.019195;180.43;9.0842;52;20.009;9.8084;0.023977;6.4664e-4;-0.24038;-0.44596;11970;320.91;5.1232;0.091676;1980.9;1177.1;5.7412;1.1387;5.535e7;1244.1;996.56;0.82662;0.82662;0.27285;0.41823;0.13553;0.008875;0.050943;-9.9454e-5;0;0;0;0;-3.8495e-7;0.039949;140;153.94;61.375;0.029055;NaN;6.3045;862.82;335.12;0.041598;0.077168
5.3937;1251.7;335.24;7.9098;380.9;12.84;627.1;0.21182;627.1;0.019353;180.84;10.115;52;20.009;9.8083;0.010591;6.3129e-4;-0.53554;0.017731;11944;294.66;5.1085;0.091657;1981.2;1175.6;5.7536;1.1405;55362226;1241.8;998.06;0.82677;0.82677;0.2727;0.41874;0.13533;0.0039183;0.022733;-3.304e-5;0;0;0;0;-1.9054e-6;0.040011;140;153.94;61.307;0.027024;NaN;6.2139;861.33;335.06;0.05;0.077632
5.4437;1268.5;335.65;7.5581;381.49;12.629;636.15;0.21693;636.15;0.019538;181.31;10.118;52;20.009;9.8083;0.014511;7.8635e-4;-1.7451;-0.45389;11918;268.6;5.0939;0.091638;1981.2;1174.1;5.7644;1.1424;5.537e7;1239.4;999.58;0.82691;0.82692;0.27252;0.4193;0.1351;0.0053668;0.030855;1.6107e-4;0;0;0;0;-2.0172e-5;0.040085;140;153.94;61.272;0.034728;NaN;6.1049;859.55;335;0.05;0.078073
5.4937;1285.3;336.04;7.6828;382.06;11.993;645.23;0.22204;645.23;0.019717;181.78;9.2087;52;20.009;9.8082;0.014902;0.0013247;2.224;-2.7017;11889;240.17;5.0779;0.091617;1981.2;1172.5;5.7766;1.1447;55391977;1236.9;1001.7;0.82709;0.82709;0.27231;0.41994;0.13483;0.0055091;0.031363;-3.8995e-4;0;0;0;0;3.2645e-5;0.040156;140;153.94;61.233;0.057749;NaN;5.9958;857.76;334.93;0.05;0.078555
5.5437;1302.1;336.41;8.559;382.61;11.027;654.33;0.22731;654.33;0.019904;182.27;6.9532;52;20.01;9.8082;0.074059;0.0039256;1.4599;-1.6901;11861;211.74;5.0618;0.091596;1980.5;1170.9;5.7833;1.1469;5.541e7;1235.4;1003.6;0.82725;0.82727;0.27212;0.42056;0.13457;0.027396;0.15803;-2.1608e-5;0;0;0;0;1.4018e-5;0.040229;140;153.94;61.232;0.059285;NaN;5.8865;855.98;334.87;0.013166;0.078995
5.5568;1306.5;336.52;7.9195;382.76;11.384;656.73;0.22861;656.73;0.019945;182.37;8.1774;52;20.01;9.8081;0.04436;0.0039192;3.9872;-2.8933;11843;193.78;5.0516;0.091583;1980.9;1169.8;5.7936;1.1474;55413101;1234.5;1004;0.82729;0.8273;0.27207;0.42072;0.13451;0.016399;0.094467;-2.29e-4;0;0;0;0;1.0448e-4;0.040245;140;153.94;61.186;0.082391;NaN;5.8577;855.5;334.85;0.019749;0.079433
5.5766;1313.2;336.66;6.3162;382.97;12.473;660.34;0.23083;660.34;0.020029;182.56;10.756;52;20.01;9.8081;0.04404;0.0038498;-4.0723;-2.2181;11834;184.43;5.0462;0.091577;1980.9;1169.3;5.7977;1.1482;55417471;1233.5;1004.7;0.82736;0.82736;0.27199;0.42095;0.13441;0.016277;0.094598;1.0503e-4;0;0;0;0;-1.0885e-4;0.040271;140;153.94;61.084;0.056437;NaN;5.8145;854.8;334.82;0.021905;0.079881
5.5985;1320.5;336.79;6.0168;383.2;12.556;664.34;0.23343;664.34;0.020132;182.8;11.02;52;20.01;9.8081;0.054799;0.0037455;0.38162;-0.97906;11822;172.58;5.0395;0.091568;1980.8;1168.6;5.8018;1.1491;55421837;1232.6;1005.4;0.82743;0.82743;0.27191;0.4212;0.13431;0.020254;0.11711;4.5088e-4;0;0;0;0;9.546e-7;0.040304;140;153.94;61.044;0.0013359;NaN;5.7666;854.01;334.79;0.01766;0.080321
5.6162;1326.5;336.91;7.0337;383.39;11.403;667.57;0.23536;667.57;0.0202;182.98;8.975;52;20.01;9.8081;0.018601;0.0037155;-0.4892;-2.4041;11811;161.34;5.0331;0.09156;1981.3;1167.9;5.81;1.1499;55427757;1231.4;1006.1;0.82748;0.82749;0.27184;0.42142;0.13422;0.0068692;0.04026;-4.3936e-4;0;0;0;0;-1.5668e-6;0.04033;140;153.94;61.077;-0.0033653;NaN;5.7279;853.38;334.77;0.02649;0.080765
