# Time (s);Altitude (m);Vertical velocity (m/s);Vertical acceleration (m/s²);Total velocity (m/s);Total acceleration (m/s²);Position East of launch (m);Position North of launch (m);Lateral distance (m);Lateral direction (°);Lateral velocity (m/s);Lateral acceleration (m/s²);Latitude (°);Longitude (°);Gravitational acceleration (m/s²);Angle of attack (°);Roll rate (°/s);Pitch rate (°/s);Yaw rate (°/s);Mass (g);Propellant mass (g);Longitudinal moment of inertia (kg·m²);Rotational moment of inertia (kg·m²);CP location (mm);CG location (mm);Stability margin calibers (?);Mach number (?);Reynolds number (?);Thrust (N);Drag force (N);Drag coefficient (?);Axial drag coefficient (?);Friction drag coefficient (?);Pressure drag coefficient (?);Base drag coefficient (?);Normal force coefficient (?);Pitch moment coefficient (?);Yaw moment coefficient (?);Side force coefficient (?);Roll moment coefficient (?);Roll forcing coefficient (?);Roll damping coefficient (?);Pitch damping coefficient (?);Coriolis acceleration (m/s²);Reference length (mm);Reference area (cm²);Vertical orientation (zenith) (°);Lateral orientation (azimuth) (°);Wind velocity (m/s);Air temperature (°C);Air pressure (mbar);Speed of sound (m/s);Simulation time step (s);Computation time (s)
0;0;0;-2.4914;0;2.6513;0;0;0;0;0;0.9068;52;20;9.8122;70;0;0;0;14136;4498.6;6.0035;0.091656;NaN;1424.2;NaN;0.0099715;542490;92.865;0.0061434;0.6735;0.057222;0.43332;0.16609;0.07409;NaN;NaN;NaN;NaN;NaN;NaN;NaN;NaN;0;140;153.94;70;0;NaN;14.35;1001.5;340;0.01;0.0015827
0.01;0;0;28.177;0;29.986;0;0;0;0;0;10.256;52;20;9.8122;70;0;0;0;14136;4498.6;6.0035;0.091656;NaN;1424.2;NaN;0.0097415;529977;554.21;0.0058819;0.67564;0.057404;0.43547;0.16609;0.074089;NaN;NaN;NaN;NaN;NaN;NaN;NaN;NaN;0;140;153.94;70;0;NaN;14.35;1001.5;340;0.01;0.0019385
0.02;0.0014092;0.28185;61.481;0.29994;65.427;5.129e-4;0;5.129e-4;0;0.10258;22.377;52;20;9.8122;65.171;0;0;0;14132;4495;6.0025;0.091654;NaN;1424.1;NaN;0.0098482;535781;1054.9;0.010767;0.67464;0.10282;0.43446;0.16609;0.074089;NaN;NaN;NaN;NaN;NaN;NaN;NaN;NaN;2.9399e-5;140;153.94;70;0;NaN;14.35;1001.5;339.99;0.01;0.0022533
0.03;0.0073024;0.89684;94.807;0.9544;100.89;0.0026579;0;0.0026579;0;0.32642;34.507;52;20;9.8122;55.557;0;0;0;14128;4490.5;6.0012;0.091651;NaN;1424;NaN;0.010576;575367;1555.6;0.028477;0.66817;0.2358;0.42799;0.16609;0.074091;NaN;NaN;NaN;NaN;NaN;NaN;NaN;NaN;9.3546e-5;140;153.94;70;0;NaN;14.35;1001.5;339.99;0.01;0.00257
0.04;0.021012;1.8452;120.05;1.9636;127.75;0.0076478;0;0.0076478;0;0.67159;43.694;52;20;9.8122;43.795;0;0;0;14123;4486;6;0.091647;NaN;1423.8;NaN;0.01229;668622;1934.6;0.073987;0.65499;0.45367;0.41481;0.16609;0.074094;NaN;NaN;NaN;NaN;NaN;NaN;NaN;NaN;1.9246e-4;140;153.94;70;0;NaN;14.35;1001.5;339.99;0.01;0.0029059
0.05;0.045468;3.0461;121.82;3.2416;129.64;0.016549;0;0.016549;0;1.1087;44.34;52;20;9.8122;33.443;0;0;0;14117;4479.7;5.9982;0.091643;NaN;1423.6;NaN;0.015042;818327;1960.5;0.15795;0.63821;0.64656;0.39801;0.1661;0.0741;NaN;NaN;NaN;NaN;NaN;NaN;NaN;NaN;3.1773e-4;140;153.94;70;0;NaN;14.35;1001.5;339.99;0.01;0.003218
0.06;0.082023;4.265;122.14;4.5387;129.97;0.029854;0;0.029854;0;1.5523;44.454;52;20;9.8122;26.699;0;0;0;14108;4470.6;5.9956;0.091636;NaN;1423.4;NaN;0.018291;995082;1964;0.26675;0.62293;0.73847;0.38271;0.16611;0.074108;NaN;NaN;NaN;NaN;NaN;NaN;NaN;NaN;4.4487e-4;140;153.94;70;0;NaN;14.349;1001.5;339.99;0.01;0.0035441
0.07;0.13078;5.4871;122.45;5.8392;130.31;0.047601;0;0.047601;0;1.9971;44.57;52;20;9.8122;22.024;0;0;0;14098;4460.7;5.9928;0.091629;NaN;1423.1;NaN;0.021725;1181912;1967.5;0.39379;0.6102;0.77273;0.36996;0.16612;0.07412;NaN;NaN;NaN;NaN;NaN;NaN;NaN;NaN;5.7234e-4;140;153.94;70;0;NaN;14.349;1001.5;339.99;0.01;0.0039863
0.08;0.19178;6.7124;122.77;7.1431;130.65;0.069802;0;0.069802;0;2.4431;44.685;52;20;9.8122;18.634;0;0;0;14088;4450.8;5.99;0.091622;NaN;1422.7;NaN;0.025274;1374958;1971;0.53596;0.59954;0.77713;0.35927;0.16613;0.074133;NaN;NaN;NaN;NaN;NaN;NaN;NaN;NaN;7.0014e-4;140;153.94;70;0;NaN;14.349;1001.5;339.99;0.01;0.0043858
0.09;0.26504;7.9408;123.09;8.4504;130.99;0.096468;0;0.096468;0;2.8902;44.801;52;20;9.8122;16.079;0;0;0;14078;4441;5.9872;0.091615;NaN;1422.4;NaN;0.028898;1572144;1974.6;0.69079;0.59048;0.76612;0.35018;0.16615;0.074149;NaN;NaN;NaN;NaN;NaN;NaN;NaN;NaN;8.2828e-4;140;153.94;70;0;NaN;14.348;1001.5;339.99;0.01;0.0048881
0.1;0.35061;9.1724;123.41;9.761;131.33;0.12761;0;0.12761;0;3.3385;44.916;52;20;9.8122;14.093;0;0;0;14068;4431.1;5.9844;0.091607;NaN;1422.1;NaN;0.032577;1772275;1978.1;0.8524;0.58268;0.74389;0.34234;0.16617;0.074167;NaN;NaN;NaN;NaN;NaN;NaN;NaN;NaN;9.5674e-4;140;153.94;70;0;NaN;14.348;1001.5;339.99;0.01;0.0052064
0.11;0.44851;10.407;123.72;11.075;131.66;0.16324;0;0.16324;0;3.7879;45.031;52;20;9.8122;12.928;0;0;0;14058;4421.2;5.9816;0.0916;NaN;1421.8;NaN;0.036469;1983956;1981.6;1.0409;0.57687;0.7249;0.33649;0.16619;0.074188;NaN;NaN;NaN;NaN;NaN;NaN;NaN;NaN;0.0010855;140;153.94;70;0;NaN;14.347;1001.5;339.99;0.01;0.0055212
0.12;0.55877;11.645;124.04;12.392;132;0.20337;0;0.20337;0;4.2385;45.145;52;20;9.8122;11.986;0;0;0;14048;4411.3;5.9788;0.091593;NaN;1421.5;NaN;0.040382;2196818;1985.1;1.2565;0.57691;0.71369;0.33648;0.16621;0.074213;NaN;NaN;NaN;NaN;NaN;NaN;NaN;NaN;0.0012147;140;153.94;70;0;NaN;14.346;1001.5;339.99;0.01;0.0058283
0.13;0.68142;12.886;124.35;13.713;132.33;0.24802;0;0.24802;0;4.6902;45.259;52;20;9.8122;11.207;0;0;0;14038;4401.4;5.976;0.091586;NaN;1421.2;NaN;0.044314;2410689;1988.7;1.4914;0.57695;0.70345;0.33647;0.16624;0.074239;NaN;NaN;NaN;NaN;NaN;NaN;NaN;NaN;0.0013441;140;153.94;70;0;NaN;14.346;1001.4;339.99;0.01;0.0061375
0.14;0.8165;14.13;124.66;15.037;132.66;0.29718;0;0.29718;0;5.143;45.373;52;20;9.8122;10.554;0;0;0;14029;4391.6;5.9732;0.091579;NaN;1420.9;NaN;0.048262;2625449;1992.2;1.746;0.577;0.69431;0.33646;0.16627;0.074269;NaN;NaN;NaN;NaN;NaN;NaN;NaN;NaN;0.0014739;140;153.94;70;0;NaN;14.345;1001.4;339.99;0.01;0.0064515
0.15;0.96404;15.378;124.97;16.365;132.99;0.35088;0;0.35088;0;5.597;45.487;52;20;9.8122;9.9974;0;0;0;14019;4381.7;5.9703;0.091572;NaN;1420.6;NaN;0.052225;2841016;1995.7;2.0207;0.57705;0.68624;0.33645;0.1663;0.074301;NaN;NaN;NaN;NaN;NaN;NaN;NaN;NaN;0.001604;140;153.94;70;0;NaN;14.344;1001.4;339.99;0.01;0.0068168
0.16;1.1241;16.628;125.29;17.695;133.33;0.40913;0;0.40913;0;6.0521;45.601;52;20;9.8122;9.0992;0;0;0;14009;4371.8;5.9675;0.091564;NaN;1420.3;NaN;0.055972;3044815;1999.2;2.2756;0.5771;0.67281;0.33643;0.16634;0.074333;NaN;NaN;NaN;NaN;NaN;NaN;NaN;NaN;0.0017344;140;153.94;70;0;NaN;14.343;1001.4;339.99;0.01;0.0071241
0.17;1.2966;17.882;125.6;19.029;133.66;0.47193;0;0.47193;0;6.5084;45.715;52;20;9.8122;8.3124;0;0;0;13999;4361.9;5.9647;0.091557;NaN;1420;NaN;0.059741;3249788;2002.8;2.5464;0.57716;0.66087;0.33642;0.16637;0.074368;NaN;NaN;NaN;NaN;NaN;NaN;NaN;NaN;0.0018652;140;153.94;70;0;NaN;14.342;1001.4;339.99;0.01;0.0074649
0.18;1.4817;19.138;125.91;20.367;133.99;0.5393;0;0.5393;0;6.9658;45.828;52;20;9.8122;7.618;0;0;0;13989;4352;5.9619;0.09155;NaN;1419.7;NaN;0.06353;3455820;2006.3;2.8338;0.57722;0.65038;0.3364;0.16641;0.074406;NaN;NaN;NaN;NaN;NaN;NaN;NaN;NaN;0.0019963;140;153.94;70;0;NaN;14.34;1001.3;339.99;0.01;0.0079908
0.19;1.6794;20.398;126.22;21.707;134.32;0.61125;0;0.61125;0;7.4243;45.942;52;20;9.8122;7.0008;0;0;0;13979;4342.2;5.959;0.091543;NaN;1419.3;NaN;0.067336;3662820;2009.8;3.1386;0.57729;0.64121;0.33639;0.16645;0.074446;NaN;NaN;NaN;NaN;NaN;NaN;NaN;NaN;0.0021277;140;153.94;70;0;NaN;14.339;1001.3;339.99;0.01;0.0085725
0.2;1.8897;21.661;126.53;23.051;134.66;0.68779;0;0.68779;0;7.884;46.055;52;20;9.8122;6.4489;0;0;0;13969;4332.3;5.9562;0.091536;NaN;1419;NaN;0.071159;3870715;2013.3;3.4613;0.57736;0.63322;0.33637;0.1665;0.074488;NaN;NaN;NaN;NaN;NaN;NaN;NaN;NaN;0.0022594;140;153.94;70;0;NaN;14.338;1001.3;339.99;0.01;0.0089338
0.21;2.1126;22.927;126.84;24.398;134.98;0.76894;0;0.76894;0;8.3448;46.166;52;20;9.8122;6.4074;0;0;0;13959;4322.4;5.9534;0.091529;NaN;1418.7;NaN;0.075292;4095400;2016.9;3.8718;0.57743;0.63271;0.33635;0.16655;0.074537;NaN;NaN;NaN;NaN;NaN;NaN;NaN;NaN;0.0023914;140;153.94;70;0;NaN;14.336;1001.3;339.99;0.01;0.0092888
0.22;2.3483;24.196;127.14;25.749;135.3;0.85469;0;0.85469;0;8.8067;46.277;52;20;9.8122;6.3695;0;0;0;13950;4312.5;5.9505;0.091521;NaN;1418.4;NaN;0.079433;4320591;2020.4;4.3062;0.57752;0.63226;0.33633;0.1666;0.074588;NaN;NaN;NaN;NaN;NaN;NaN;NaN;NaN;0.0025238;140;153.94;70;0;NaN;14.335;1001.2;339.99;0.01;0.00962
0.23;2.5966;25.468;127.45;27.103;135.63;0.94508;0;0.94508;0;9.2697;46.387;52;20;9.8122;6.3346;0;0;0;13940;4302.6;5.9477;0.091514;NaN;1418.1;NaN;0.083584;4546284;2023.9;4.7649;0.5776;0.63185;0.3363;0.16666;0.074642;NaN;NaN;NaN;NaN;NaN;NaN;NaN;NaN;0.0026565;140;153.94;70;0;NaN;14.333;1001.2;339.98;0.01;0.010001
0.24;2.8576;26.743;127.75;28.46;135.95;1.0401;0;1.0401;0;9.7338;46.497;52;20;9.8122;6.3023;0;0;0;13930;4292.8;5.9449;0.091507;NaN;1417.8;NaN;0.087745;4772477;2027.4;5.2479;0.5777;0.63149;0.33628;0.16672;0.0747;NaN;NaN;NaN;NaN;NaN;NaN;NaN;NaN;0.0027895;140;153.94;70;0;NaN;14.331;1001.2;339.98;0.01;0.010317
0.25;3.1315;28.021;128.05;29.82;136.27;1.1398;0;1.1398;0;10.199;46.606;52;20;9.8122;6.2723;0;0;0;13920;4282.9;5.942;0.0915;NaN;1417.5;NaN;0.091915;4999166;2031;5.7555;0.57779;0.63117;0.33625;0.16678;0.07476;NaN;NaN;NaN;NaN;NaN;NaN;NaN;NaN;0.0029228;140;153.94;70;0;NaN;14.33;1001.2;339.98;0.01;0.010629
0.26;3.4181;29.303;128.35;31.183;136.59;1.2441;0;1.2441;0;10.665;46.717;52;20;9.8122;5.9303;0;0;0;13910;4273;5.9392;0.091493;NaN;1417.2;NaN;0.095837;5212350;2034.5;6.2103;0.57789;0.62646;0.33623;0.16684;0.074819;NaN;NaN;NaN;NaN;NaN;NaN;NaN;NaN;0.0030565;140;153.94;70;0;NaN;14.328;1001.1;339.98;0.01;0.011032
0.27;3.7175;30.587;128.66;32.55;136.91;1.3531;0;1.3531;0;11.133;46.827;52;20;9.8122;5.6147;0;0;0;13900;4263.1;5.9363;0.091486;NaN;1416.8;NaN;0.099772;5426205;2038;6.6851;0.57799;0.62224;0.3362;0.16691;0.074881;NaN;NaN;NaN;NaN;NaN;NaN;NaN;NaN;0.0031904;140;153.94;70;0;NaN;14.326;1001.1;339.98;0.01;0.01134
0.28;4.0298;31.874;128.96;33.92;137.24;1.4667;0;1.4667;0;11.601;46.937;52;20;9.8122;5.3226;0;0;0;13890;4253.2;5.9335;0.091478;NaN;1416.5;NaN;0.10372;5640710;2041.5;7.1802;0.5781;0.61845;0.33618;0.16697;0.074945;NaN;NaN;NaN;NaN;NaN;NaN;NaN;NaN;0.0033247;140;153.94;70;0;NaN;14.324;1001;339.98;0.01;0.01166
0.29;4.355;33.164;129.26;35.293;137.56;1.5851;0;1.5851;0;12.071;47.047;52;20;9.8122;5.0514;0;0;0;13880;4243.4;5.9306;0.091471;NaN;1416.2;NaN;0.10768;5855848;2045.1;7.6959;0.57821;0.61505;0.33615;0.16704;0.075012;NaN;NaN;NaN;NaN;NaN;NaN;NaN;NaN;0.0034593;140;153.94;70;0;NaN;14.322;1001;339.98;0.01;0.011976
0.3;4.6931;34.458;129.56;36.669;137.88;1.7082;0;1.7082;0;12.542;47.157;52;20;9.8122;4.799;0;0;0;13871;4233.5;5.9278;0.091464;NaN;1415.9;NaN;0.11165;6071601;2048.6;8.2325;0.57832;0.61199;0.33612;0.16712;0.075082;NaN;NaN;NaN;NaN;NaN;NaN;NaN;NaN;0.0035941;140;153.94;70;0;NaN;14.319;1001;339.98;0.01;0.012296
0.31;5.0442;35.754;129.24;38.048;138.21;1.8359;0;1.8359;0;13.013;48.975;52;20;9.8122;4.5548;0;0;0;13861;4223.6;5.9249;0.091457;1836.7;1415.6;3.008;0.11562;6287513;2053;8.7874;0.57844;0.60913;0.33609;0.16719;0.075155;1.4741;4.4341;4.2034e-4;0;0;0;0;0;0.0037294;140;153.94;70;0;NaN;14.317;1000.9;339.98;0.015;0.012703
0.325;5.595;37.694;129.73;40.123;138.72;2.0366;1.7104e-7;2.0366;4.8118e-6;13.748;49.137;52;20;9.8122;4.2454;0;1.3236;-5.8247e-6;13848;4211.3;5.9213;0.091448;1840.5;1415.2;3.038;0.12161;6612780;2059.6;9.6655;0.57862;0.60569;0.33604;0.16731;0.075269;1.3658;4.1484;1.5127e-4;0;0;0;0;9.9425e-4;0.0039339;140;153.94;69.99;9.9528e-7;NaN;14.314;1000.9;339.97;0.0225;0.01341
0.3475;6.476;40.617;130.41;43.249;139.49;2.3584;1.0949e-6;2.3584;2.6599e-5;14.856;49.493;52;20;9.8121;3.7947;0;3.3834;1.4013e-4;13830;4192.7;5.9159;0.091434;1846.1;1414.6;3.0825;0.13063;7102981;2069.5;11.066;0.57892;0.60102;0.33596;0.16751;0.075451;1.2102;3.7246;3.5279e-4;0;0;0;0;0.0056303;0.004242;140;153.94;69.937;-4.6335e-7;NaN;14.308;1000.8;339.97;0.03375;0.013927
0.38125;7.9212;45.026;131.39;47.966;140.63;2.8881;4.0867e-6;2.8881;8.1074e-5;16.533;50.13;52;20;9.8121;3.4546;0;6.7145;9.7116e-5;13802;4164.9;5.9079;0.091414;1850.5;1413.7;3.1204;0.14463;7862862;2082.2;13.494;0.57943;0.59804;0.33583;0.16783;0.07576;1.0948;3.398;-4.1161e-4;0;0;0;0;0.018092;0.0047073;140;153.94;69.768;8.8737e-6;NaN;14.299;1000.6;339.96;0.038423;0.014437
0.41967;9.7484;50.08;132.24;53.379;141.86;3.5606;1.005e-5;3.5606;1.6172e-4;18.476;51.353;52;20;9.8121;2.8835;0;10.864;6.0202e-4;13766;4129.3;5.8974;0.091388;1858;1412.5;3.182;0.16058;8728547;2095.6;16.502;0.58007;0.59339;0.33567;0.16825;0.076151;0.90387;2.8376;7.6028e-5;0;0;0;0;0.038419;0.0052421;140;153.94;69.431;1.8654e-5;NaN;14.287;1000.4;339.96;0.037268;0.014934
0.45694;11.707;55.007;132.78;58.673;143.02;4.2851;1.8679e-5;4.2851;2.4975e-4;20.416;53.142;52;20;9.8121;2.1381;0;14.695;0.0011203;13729;4091.9;5.8865;0.091361;1868;1411.3;3.262;0.17602;9566552;2109.5;19.656;0.58075;0.58833;0.3355;0.16869;0.076568;0.66043;2.0954;-8.5288e-5;0;0;0;0;0.058508;0.0057671;140;153.94;68.953;5.4101e-5;NaN;14.274;1000.1;339.95;0.04193;0.015424
0.49887;14.13;60.568;133.11;64.679;144.36;5.1886;3.2091e-5;5.1886;3.5437e-4;22.694;55.855;52;20;9.8121;1.1749;0;18.061;0.0028715;13690;4052.8;5.875;0.091333;1881.4;1410;3.3667;0.19343;10510511;2125.7;23.554;0.5816;0.58399;0.33528;0.16924;0.077085;0.35597;1.1252;7.7029e-5;0;0;0;0;0.07319;0.0063662;140;153.94;68.261;1.4264e-4;NaN;14.258;999.86;339.94;0.05;0.015923
0.54887;17.324;67.207;133.22;71.907;145.96;6.3945;5.393e-5;6.3945;4.8322e-4;25.57;59.619;52;20;9.8121;0.17433;0;19.887;0.027638;13644;4007.4;5.8616;0.0913;1895.9;1408.5;3.4813;0.21458;11656338;2143.4;28.917;0.58276;0.58281;0.33499;0.16999;0.077777;0.05176;0.10774;3.4324e-4;0;0;0;0;0.07211;0.0070937;140;153.94;67.302;3.5477e-4;NaN;14.237;999.49;339.93;0.05;0.016416
0.59887;20.851;73.842;132.99;79.203;147.47;7.7491;8.3366e-5;7.7491;6.164e-4;28.644;63.731;52;20;9.8121;0.78744;0;-18.337;0.0083002;13595;3958;5.8469;0.091264;1887.5;1406.9;3.4326;0.23579;12804540;2161;35.041;0.58404;0.58513;0.33467;0.17082;0.078544;0.2373;0.86574;-3.9632e-4;0;0;0;0;-0.050777;0.0078365;140;153.94;66.33;7.0607e-4;NaN;14.214;999.08;339.91;0.05;0.016916
0.64887;24.709;80.467;132.9;86.564;148.92;9.2624;1.2233e-4;9.2624;7.5671e-4;31.912;67.208;52;20;9.8121;1.2828;4.7509e-7;-13.183;0.0062795;13546;3908.6;5.8322;0.091228;1880.9;1405.2;3.3978;0.25754;13980839;2175.1;42.012;0.58548;0.58833;0.33431;0.17177;0.079405;0.39136;1.3522;2.0242e-4;0;0;0;0;-0.022;0.0085942;140;153.94;65.529;0.0012523;NaN;14.189;998.62;339.9;0.030119;0.017411
0.67899;27.193;84.461;132.92;91.03;149.62;10.254;1.5164e-4;10.254;8.4728e-4;33.955;68.686;52;20;9.8121;1.3856;5.4209e-7;-8.7715;0.0054533;13506;3869;5.8203;0.091199;1879.8;1403.9;3.399;0.2708;14697267;2184.9;46.547;0.58643;0.58975;0.33407;0.1724;0.079967;0.42415;1.4507;2.5262e-4;0;0;0;0;-0.0088107;0.0090572;140;153.94;65.197;0.0016489;NaN;14.173;998.33;339.89;0.025349;0.017727
0.70434;29.376;87.827;133.21;94.808;150.27;11.137;1.8039e-4;11.137;9.2806e-4;35.706;69.541;52;20;9.8121;1.3695;5.6216e-7;-4.6061;0.0050535;13479;3841.6;5.8121;0.09118;1880.2;1403;3.4089;0.282;15302226;2193.5;50.531;0.58728;0.59052;0.33386;0.17295;0.080464;0.41949;1.4318;9.4809e-5;0;0;0;0;-0.0022405;0.00945;140;153.94;65.027;0.0019752;NaN;14.159;998.08;339.88;0.023656;0.018035
0.72799;31.491;90.979;133.66;98.349;150.87;12.001;2.1106e-4;12.001;0.0010076;37.354;69.98;52;20;9.8121;1.2902;5.8294e-7;-0.54551;0.0054727;13454;3817.4;5.8048;0.091162;1881.5;1402.2;3.4242;0.29244;15865738;2201.8;54.37;0.58809;0.59099;0.33366;0.17348;0.080945;0.39493;1.3528;3.2649e-4;0;0;0;0;-2.9223e-5;0.0098188;140;153.94;64.966;0.0022838;NaN;14.145;997.83;339.87;0.023259;0.018339
0.75125;33.643;94.09;134.31;101.85;151.45;12.889;2.4521e-4;12.889;0.00109;38.981;69.984;52;20;9.8121;1.1255;6.2399e-7;3.3653;0.0056408;13431;3794.2;5.7978;0.091145;1884;1401.4;3.4477;0.30276;16422221;2210.3;58.275;0.58893;0.59115;0.33345;0.17404;0.081438;0.34365;1.1839;7.806e-5;0;0;0;0;0.0010377;0.010183;140;153.94;64.999;0.0025787;NaN;14.131;997.58;339.86;0.024772;0.018645
0.77603;36.015;97.424;135.28;105.59;152.04;13.876;2.8635e-4;13.876;0.0011824;40.706;69.412;52;20;9.8121;0.81663;9.0914e-7;6.9664;0.006169;13408;3770.5;5.7906;0.091128;1888.6;1400.6;3.4861;0.31393;17024595;2220.2;62.629;0.58989;0.59107;0.33322;0.17467;0.081991;0.248;0.85992;4.6088e-4;0;0;0;0;0.0041363;0.010572;140;153.94;65.129;0.0028587;NaN;14.116;997.3;339.85;0.031691;0.01895
0.80772;39.171;101.73;136.78;110.4;152.81;15.201;3.4676e-4;15.201;0.001307;42.883;68.118;52;20;9.812;0.35463;1.0951e-6;9.9713;0.0087761;13380;3742.6;5.7821;0.091108;1895.5;1399.6;3.5422;0.32829;17798303;2234.2;68.501;0.59117;0.59139;0.33291;0.17552;0.082731;0.1068;0.37036;3.6335e-4;0;0;0;0;0.0077495;0.01107;140;153.94;65.403;0.0031128;NaN;14.095;996.93;339.84;0.047537;0.01926
0.85525;44.162;108.27;139.26;117.66;153.94;17.315;4.5472e-4;17.315;0.0015047;46.055;65.615;52;20;9.812;0.32796;-3.6447e-7;-9.8802;0.0021652;13341;3703.5;5.7702;0.091079;1896.4;1398.3;3.5584;0.34994;18964085;2251.4;78.054;0.5932;0.59339;0.33242;0.17687;0.08391;0.098957;0.35917;2.0687e-5;0;0;0;0;-0.0066967;0.011816;140;153.94;65.897;0.0035908;NaN;14.063;996.34;339.82;0.05;0.019583
0.90525;49.75;115.27;141.37;125.36;155.02;19.699;5.9374e-4;19.699;0.0017269;49.269;63.592;52;20;9.812;0.77514;-3.1082e-6;-3.6288;-0.0016224;13292;3655.3;5.7554;0.091044;1890.7;1396.6;3.5294;0.37285;20195359;2264.2;89.03;0.59555;0.59663;0.33186;0.17845;0.085238;0.2368;0.83702;3.4211e-5;0;0;0;0;-7.9588e-4;0.012599;140;153.94;66.256;0.0041856;NaN;14.027;995.69;339.8;0.022978;0.019897
0.92823;52.436;118.52;141.79;128.92;155.31;20.848;6.6718e-4;20.848;0.0018336;50.724;63.39;52;20;9.812;0.7993;-3.1331e-6;0.60713;-0.0026707;13256;3619.2;5.7443;0.091018;1890.6;1395.3;3.5381;0.38333;20758241;2272;94.265;0.59667;0.59782;0.33159;0.1792;0.085875;0.24464;0.86538;-2.3398e-4;0;0;0;0;2.1078e-5;0.01296;140;153.94;66.291;0.004342;NaN;14.009;995.37;339.79;0.020992;0.020211
0.94922;54.956;121.49;142.09;132.18;155.75;21.926;7.3973e-4;21.926;0.001933;52.057;63.797;52;20;9.812;0.73435;-2.7857e-6;4.5853;-0.0022503;13235;3597.5;5.7376;0.091002;1891.8;1394.6;3.552;0.39294;21273657;2279.5;99.165;0.59772;0.59869;0.33134;0.1799;0.086473;0.22474;0.79752;2.8464e-4;0;0;0;0;0.0011442;0.01329;140;153.94;66.237;0.0044196;NaN;13.993;995.08;339.78;0.021659;0.020522
0.97088;57.62;124.57;142.19;135.55;156.22;23.069;8.2013e-4;23.069;0.0020369;53.446;64.689;52;20;9.812;0.60761;-2.7951e-6;8.3699;-0.0021138;13214;3576.5;5.7311;0.090987;1893.9;1393.8;3.5721;0.40294;2.181e7;2287.7;104.42;0.59901;0.59968;0.33107;0.18082;0.087112;0.1857;0.65962;2.8767e-4;0;0;0;0;0.0036259;0.013633;140;153.94;66.095;0.0044023;NaN;13.975;994.76;339.77;0.024883;0.020858
0.99577;60.764;128.1;142.04;139.44;156.76;24.419;9.1944e-4;24.419;0.0021573;55.072;66.318;52;20;9.812;0.38272;-2.6988e-6;11.755;-0.0025899;13191;3553.5;5.724;0.09097;1897.4;1393;3.6032;0.41448;22428129;2298.7;110.73;0.60097;0.60124;0.33076;0.18235;0.087869;0.11661;0.41356;-3.2307e-4;0;0;0;0;0.00676;0.014028;140;153.94;65.842;0.0043442;NaN;13.955;994.4;339.76;0.037324;0.021394
1.0331;65.644;133.38;141.48;145.29;157.63;26.521;0.0010821;26.521;0.0023377;57.6;69.493;52;20;9.812;0.017673;-2.0431e-6;-13.687;0.0090747;13160;3522.7;5.7144;0.090948;1903.2;1391.9;3.6521;0.43189;2.336e7;2314.1;120.71;0.60401;0.60401;0.33026;0.1847;0.089051;0.0053568;0.027877;-2.8787e-4;0;0;0;0;-0.0084416;0.014628;140;153.94;65.354;0.0042591;NaN;13.923;993.82;339.74;0.05;0.022062
1.0831;72.489;140.41;140.67;153.16;158.71;29.49;0.0013257;29.49;0.0025757;61.171;73.487;52;20;9.8119;0.43948;-5.562e-7;-9.3902;0.0039837;13117;3479.6;5.701;0.090917;1898;1390.4;3.6256;0.45536;24614943;2327.4;135.1;0.60823;0.60859;0.32956;0.18795;0.090723;0.1349;0.49316;-8.1193e-5;0;0;0;0;-0.0035747;0.015444;140;153.94;64.75;0.0045234;NaN;13.879;993.02;339.71;0.025969;0.02237
1.1091;76.183;144.06;140.42;157.27;159.01;31.104;0.0014647;31.104;0.0026981;63.093;74.594;52;20;9.8119;0.51616;0;-4.8306;0.001972;13079;3442.1;5.6892;0.09089;1897.3;1389;3.6306;0.46761;25268654;2335.7;142.96;0.61049;0.61099;0.32918;0.18968;0.09163;0.15902;0.57869;1.7607e-4;0;0;0;0;-8.9717e-4;0.015873;140;153.94;64.564;0.0046931;NaN;13.855;992.59;339.69;0.020953;0.022681
1.13;79.232;147;140.62;160.59;159.3;32.442;0.0015833;32.442;0.0027962;64.657;74.851;52;20;9.8119;0.48909;0;-0.79224;-3.5404e-4;13056;3418.9;5.6819;0.090873;1898;1388.2;3.6418;0.4775;25796241;2343.1;149.46;0.61234;0.61279;0.32887;0.1911;0.092381;0.15084;0.5495;-3.3968e-4;0;0;0;0;-2.3144e-5;0.016221;140;153.94;64.505;0.0047337;NaN;13.835;992.23;339.68;0.021141;0.022985
1.1512;82.371;149.97;140.94;163.95;159.36;33.826;0.0017089;33.826;0.0028946;66.235;74.365;52;20;9.8119;0.3848;-5.5323e-7;2.9096;-0.0011079;13035;3398;5.6753;0.090858;1899.9;1387.4;3.6603;0.4875;26329150;2347.5;156.17;0.61424;0.61452;0.32854;0.19255;0.093155;0.11862;0.43353;-4.2961e-4;0;0;0;0;2.9951e-4;0.016572;140;153.94;64.528;0.0047341;NaN;13.815;991.86;339.67;0.025688;0.02332
1.1768;86.27;153.6;141.44;168.03;159.18;35.551;0.0018694;35.551;0.0030129;68.13;73.038;52;20.001;9.8119;0.19845;-9.3517e-7;6.0761;-7.5113e-4;13011;3373.5;5.6676;0.09084;1903;1386.5;3.6887;0.49959;26972504;2350.4;164.5;0.61658;0.61665;0.32814;0.19432;0.094113;0.06107;0.22397;-1.8992e-4;0;0;0;0;0.0012439;0.016997;140;153.94;64.648;0.0048286;NaN;13.789;991.4;339.66;0.038532;0.02366
1.2154;92.294;159.07;142.39;174.15;158.88;38.23;0.0021268;38.23;0.0031874;70.894;70.477;52;20.001;9.8119;0.10424;0;-6.6457;-0.0081731;12976;3338.5;5.6565;0.090814;1905.1;1385.3;3.7128;0.5176;2.793e7;2354.5;177.44;0.62012;0.62014;0.32752;0.19702;0.095582;0.032123;0.12033;5.3808e-5;0;0;0;0;-0.0013865;0.017632;140;153.94;64.908;0.0051939;NaN;13.75;990.7;339.63;0.05;0.023965
1.2654;100.43;166.21;143.05;182.08;158.49;41.862;0.0024929;41.862;0.0034121;74.357;68.217;52;20.001;9.8119;0.3209;-1.8224e-6;-1.1332;-0.0055946;12927;3290.3;5.6412;0.090779;1903.2;1383.5;3.7125;0.5409;29165671;2357.9;195.12;0.62484;0.62504;0.32669;0.20059;0.097562;0.099797;0.37016;-1.2887e-4;0;0;0;0;-3.6923e-5;0.018447;140;153.94;65.122;0.0059967;NaN;13.697;989.74;339.6;0.024345;0.02428
1.2897;104.51;169.69;143.02;185.94;158.39;43.692;0.0026858;43.692;0.003522;76.015;68.053;52;20.001;9.8118;0.33224;-8.5027e-7;3.1643;-0.0059185;12887;3249.8;5.6282;0.09075;1903.8;1382;3.7273;0.55242;29776300;2360;204.2;0.62723;0.62744;0.32627;0.20239;0.098573;0.10359;0.38569;-1.6401e-4;0;0;0;0;2.7603e-4;0.018842;140;153.94;65.098;0.0062797;NaN;13.671;989.26;339.58;0.022359;0.024588
1.3121;108.34;172.89;142.4;189.48;158.24;45.409;0.0028721;45.409;0.003624;77.544;68.988;52;20.001;9.8118;0.22442;-1.0228e-6;6.766;-0.0092901;12861;3224.3;5.62;0.090732;1906;1381;3.7499;0.56287;30328840;2362.5;212.6;0.62942;0.62952;0.32588;0.20404;0.099508;0.06997;0.26073;-2.0365e-4;0;0;0;0;0.0012157;0.019205;140;153.94;64.985;0.0064765;NaN;13.646;988.81;339.57;0.031827;0.024894
1.3439;113.92;177.39;140.9;194.51;158;47.912;0.0031532;47.912;0.0037707;79.779;71.487;52;20.001;9.8118;0.037321;0;-8.4769;-0.036549;12832;3194.8;5.6105;0.09071;1909.8;1379.9;3.7844;0.57755;31104650;2366.1;224.77;0.63255;0.63256;0.32531;0.20639;0.10085;0.011628;0.04575;-2.6981e-4;0;0;0;0;-0.0018127;0.019724;140;153.94;64.73;0.0066393;NaN;13.61;988.16;339.55;0.047741;0.025196
1.3916;122.55;184.08;139.24;202.03;157.52;51.804;0.0036105;51.804;0.0039932;83.256;73.653;52;20.001;9.8118;0.222;5.5587e-6;-3.7476;-0.0034942;12789;3151.5;5.5965;0.090679;1909;1378.3;3.7906;0.59999;32287973;2369.5;244.24;0.63745;0.63755;0.32442;0.21006;0.10297;0.069788;0.26472;-1.3671e-4;0;0;0;0;-3.2834e-4;0.020508;140;153.94;64.421;0.0066208;NaN;13.553;987.15;339.51;0.02752;0.0255
1.4192;127.67;187.91;138.91;206.36;157.29;54.123;0.0038936;54.123;0.0041219;85.287;73.797;52;20.001;9.8118;0.22611;6.9468e-6;0.45252;-0.0028998;12748;3110.5;5.5832;0.090649;1910.1;1376.8;3.8094;0.61271;32957610;2372;255.69;0.64029;0.64039;0.3239;0.21218;0.10421;0.071301;0.27181;-2.4701e-5;0;0;0;0;4.5913e-6;0.02096;140;153.94;64.375;0.0064228;NaN;13.52;986.55;339.49;0.025654;0.025806
1.4448;132.53;191.47;139.02;210.38;156.97;56.335;0.004169;56.335;0.0042401;87.171;72.879;52;20.001;9.8118;0.14852;7.8525e-6;3.9566;-0.0054935;12719;3081.5;5.5737;0.090628;1912.3;1375.7;3.8329;0.62447;33575164;2374.9;266.52;0.64295;0.643;0.32342;0.21416;0.10538;0.046895;0.17938;6.8724e-5;0;0;0;0;3.3794e-4;0.021381;140;153.94;64.435;0.00639;NaN;13.489;985.98;339.47;0.037382;0.026107
1.4822;139.79;196.68;139.74;216.23;156.36;59.644;0.0045893;59.644;0.0044086;89.846;70.132;52;20.001;9.8117;0.066385;8.3566e-6;-5.0879;-0.01831;12684;3047.2;5.5625;0.090603;1915.2;1374.4;3.8628;0.64167;34477487;2378.9;282.88;0.64691;0.64692;0.32268;0.21711;0.10713;0.021017;0.081256;-1.7215e-4;0;0;0;0;-5.2936e-4;0.021989;140;153.94;64.621;0.0066787;NaN;13.441;985.13;339.44;0.05;0.026408
1.5322;149.8;203.68;139.9;224.03;155.53;64.222;0.005189;64.222;0.0046294;93.284;67.947;52;20.001;9.8117;0.20773;8.4114e-6;1.4121;-4.9746e-4;12637;2999.6;5.5468;0.090568;1915.7;1372.5;3.8794;0.66478;35687097;2382.2;305.85;0.65236;0.65245;0.32167;0.22115;0.10955;0.066361;0.25719;-4.575e-4;0;0;0;0;3.7998e-5;0.022793;140;153.94;64.727;0.0070369;NaN;13.376;983.95;339.4;0.022942;0.02671
1.5551;154.51;206.89;139.3;227.59;155.27;66.381;0.0054789;66.381;0.0047291;94.848;68.59;52;20.001;9.8117;0.14979;9.2419e-6;5.0676;0.0047545;12597;2959.9;5.5337;0.09054;1917.7;1371;3.9048;0.67538;36240777;2384.6;316.71;0.65491;0.65495;0.32119;0.22303;0.11069;0.047935;0.18662;4.2291e-4;0;0;0;0;4.7417e-4;0.02316;140;153.94;64.651;0.007083;NaN;13.346;983.4;339.39;0.030578;0.027012
1.5857;160.9;211.12;137.68;232.33;154.79;69.313;0.0058798;69.313;0.0048604;96.977;70.733;52;20.001;9.8117;0.018302;7.8426e-6;-6.9016;0.061343;12568;2930.8;5.524;0.090518;1921.1;1369.9;3.9377;0.68941;36972243;2388.1;331.45;0.65833;0.65833;0.32054;0.22556;0.11223;0.0058646;0.024153;4.8107e-4;0;0;0;0;-8.442e-4;0.02365;140;153.94;64.457;0.0072521;NaN;13.304;982.65;339.36;0.045866;0.027315
1.6316;170.72;217.39;135.72;239.4;153.99;73.837;0.0065129;73.837;0.0050539;100.28;72.747;52;20.001;9.8116;0.16572;6.5451e-6;-1.7959;0.003609;12526;2889.1;5.5101;0.090488;1921.6;1368.2;3.9529;0.71035;38061585;2391.3;354.29;0.66353;0.66358;0.31956;0.22939;0.11458;0.053593;0.21183;4.0509e-4;0;0;0;0;-5.3854e-5;0.024389;140;153.94;64.241;0.0073132;NaN;13.24;981.5;339.32;0.024296;0.027618
1.6559;176.05;220.68;135.57;243.14;153.58;76.295;0.0068639;76.295;0.0051546;102.05;72.166;52;20.001;9.8116;0.12873;7.9254e-6;1.9506;9.7181e-4;12488;2850.9;5.4974;0.09046;1923.6;1366.7;3.9774;0.72137;38633215;2393.8;366.65;0.66631;0.66634;0.31903;0.23144;0.11584;0.041738;0.16614;1.0079e-4;0;0;0;0;6.1611e-5;0.02478;140;153.94;64.244;0.0074576;NaN;13.206;980.87;339.3;0.029987;0.027918
1.6859;182.72;224.75;135.77;247.73;152.82;79.387;0.0073121;79.387;0.0052773;104.18;70.152;52;20.001;9.8116;0.015161;9.1941e-6;4.3411;-0.0090451;12458;2821.3;5.4874;0.090439;1926.9;1365.6;4.0095;0.73479;39328319;2389.1;382.05;0.66975;0.66975;0.31837;0.23397;0.11741;0.0049256;0.019176;-1.713e-4;0;0;0;0;2.9417e-4;0.02526;140;153.94;64.347;0.007953;NaN;13.162;980.09;339.28;0.044981;0.028266
1.7309;192.97;230.85;127.23;254.55;142.06;84.143;0.0080216;84.143;0.0054622;107.26;63.205;52;20.001;9.8116;0.12515;6.9013e-6;-0.73516;-0.0026606;12418;2780.6;5.4737;0.090409;1928.1;1363.9;4.0295;0.75487;40365347;2341.7;405.88;0.67498;0.67501;0.31736;0.2378;0.11981;0.041019;0.16565;1.0987e-4;0;0;0;0;-7.9956e-6;0.025967;140;153.94;64.48;0.0089155;NaN;13.096;978.89;339.23;0.027403;0.028611
1.7583;199.35;234.44;117;258.55;130.88;87.106;0.0084785;87.106;0.0055769;109.04;58.668;52;20.001;9.8116;0.10668;5.6353e-6;3.1695;0.0010313;12378;2741.3;5.4603;0.090381;1930;1362.4;4.0543;0.76675;40976940;2142.6;420.39;0.67813;0.67815;0.31675;0.24011;0.12126;0.035094;0.14222;-1.7232e-4;0;0;0;0;1.4407e-4;0.02638;140;153.94;64.445;0.0088987;NaN;13.054;978.14;339.21;0.030884;0.028917
1.7891;206.64;238.02;109.61;262.57;123.59;90.502;0.0090147;90.502;0.0057071;110.86;57.11;52;20.001;9.8115;0.018304;4.7386e-6;5.7221;0.045646;12349;2711.6;5.4502;0.090359;1932.9;1361.2;4.0839;0.7789;41598614;2064;435.5;0.68138;0.68139;0.31612;0.24249;0.12277;0.0060366;0.024138;2.0106e-4;0;0;0;0;4.5511e-4;0.026797;140;153.94;64.3;0.0085244;NaN;13.007;977.29;339.18;0.046327;0.02922
1.8355;217.79;243.02;104.15;268.24;118.64;95.7;0.0098546;95.7;0.0059;113.54;56.817;52;20.001;9.8115;0.073024;1.2855e-5;-2.9528;0.0026933;12312;2675.3;5.4378;0.090333;1934.7;1359.7;4.107;0.79621;4.248e7;2027.9;457.61;0.6861;0.68611;0.3152;0.24593;0.12496;0.024261;0.099601;-4.451e-4;0;0;0;0;-1.1601e-4;0.027391;140;153.94;64.086;0.008997;NaN;12.934;975.98;339.14;0.04082;0.029525
1.8763;227.79;247.27;101.08;273.06;114.91;100.38;0.010635;100.38;0.0060703;115.85;54.651;52;20.001;9.8115;0.032311;1.0998e-5;0.12738;0.0057396;12272;2635.1;5.424;0.090304;1937.4;1358.1;4.1382;0.81081;4.322e7;1990.4;476.76;0.69014;0.69014;0.31441;0.24888;0.12684;0.010786;0.04508;6.3144e-5;0;0;0;0;2.0822e-7;0.027898;140;153.94;64.039;0.0092165;NaN;12.869;974.81;339.1;0.05;0.029832
1.9263;240.28;252.3;96.661;278.76;109.79;106.24;0.011641;106.24;0.0062779;118.53;52.052;52;20.002;9.8114;0.010238;1.0743e-5;-0.28014;0.0015529;12230;2593.2;5.4096;0.090273;1940.3;1356.3;4.1708;0.82761;44064732;1949.1;499.36;0.69486;0.69486;0.31349;0.25232;0.12905;0.0034386;0.01471;-1.0892e-4;0;0;0;0;-9.6692e-7;0.028494;140;153.94;64.037;0.010412;NaN;12.788;973.34;339.05;0.05;0.030135
1.9763;253.02;257.11;92.922;284.21;105.59;112.23;0.012717;112.23;0.0064923;121.13;50.148;52;20.002;9.8114;0.0080205;1.0622e-5;0.79089;1.2146e-4;12184;2547;5.3935;0.09024;1942.7;1354.4;4.2022;0.84338;44852342;1914.3;521.14;0.69936;0.69936;0.3126;0.2556;0.13117;0.0027112;0.010925;4.1182e-4;0;0;0;0;7.4236e-6;0.029067;140;153.94;64.056;0.010323;NaN;12.705;971.85;339;0.05;0.03044
2.0263;265.99;261.74;90.323;289.46;102.28;118.35;0.013849;118.35;0.0067044;123.6;47.981;52;20.002;9.8113;0.026724;1.054e-5;-0.20376;-0.0060078;12140;2502.5;5.378;0.090208;1944.9;1352.6;4.2309;0.85869;45612530;1891;542.81;0.7038;0.7038;0.31172;0.25882;0.13326;0.0090958;0.038966;4.2319e-4;0;0;0;0;-4.7547e-7;0.029617;140;153.94;64.091;0.0099766;NaN;12.621;970.33;338.95;0.05;0.03075
2.0763;279.19;266.23;87.272;294.54;98.949;124.59;0.01503;124.59;0.006912;126;46.632;52;20.002;9.8113;0.023936;5.1245e-7;1.5305;0.0096327;12097;2459.8;5.363;0.090177;1947.4;1350.8;4.2614;0.87385;46361581;1867.9;564.8;0.70826;0.70826;0.31084;0.26206;0.13537;0.0082011;0.034597;-4.5929e-4;0;0;0;0;2.5911e-5;0.030149;140;153.94;64.047;0.010706;NaN;12.535;968.78;338.9;0.05;0.03105
2.1263;292.61;270.55;83.785;299.45;95.639;130.95;0.016268;130.95;0.0071178;128.34;46.119;52;20.002;9.8113;0.014465;5.3738e-6;-1.7608;0.023339;12054;2417.4;5.3481;0.090146;1949.9;1349;4.2925;0.88866;47088855;1844.8;586.78;0.71268;0.71268;0.30996;0.26525;0.13746;0.004989;0.021891;1.9243e-4;0;0;0;0;-3.3171e-5;0.030665;140;153.94;63.946;0.010842;NaN;12.448;967.2;338.84;0.05;0.031358
2.1763;306.24;274.71;80.757;304.19;92.246;137.42;0.017561;137.42;0.0073216;130.64;44.582;52;20.002;9.8112;0.0084804;5.5093e-6;-0.60582;0.0046668;12012;2375;5.3331;0.090115;1952.4;1347.2;4.3229;0.90288;47782373;1821.7;608.9;0.71762;0.71762;0.3088;0.26931;0.13951;0.0029445;0.0127;-1.0857e-4;0;0;0;0;-3.8054e-6;0.031165;140;153.94;63.9;0.010721;NaN;12.359;965.6;338.79;0.05;0.03167
2.2263;320.08;278.73;77.852;308.76;88.632;144.01;0.018901;144.01;0.0075198;132.84;42.364;52;20.002;9.8112;0.021903;-1.2656e-6;1.1398;7.6547e-4;11970;2332.6;5.318;0.090084;1954.5;1345.4;4.3512;0.9167;48451751;1798.6;633.01;0.72494;0.72494;0.30653;0.27689;0.14152;0.0076583;0.033654;-2.8828e-4;0;0;0;0;1.3071e-5;0.031646;140;153.94;63.869;0.011456;NaN;12.27;963.98;338.73;0.05;0.031983
2.2763;334.11;282.57;74.02;313.15;85.151;150.71;0.020301;150.71;0.0077181;134.96;42.092;52;20.002;9.8111;0.027236;-2.7886e-6;-1.5233;-0.017313;11927;2290.2;5.3028;0.090053;1956.7;1343.5;4.3796;0.92992;49086715;1775.7;656.63;0.732;0.732;0.30435;0.28417;0.14348;0.0095858;0.041813;1.4338e-4;0;0;0;0;-2.2696e-5;0.032109;140;153.94;63.768;0.012721;NaN;12.178;962.34;338.68;0.05;0.032346
2.3263;348.33;286.25;71.272;317.36;81.748;157.51;0.021775;157.51;0.007921;137.04;40.037;52;20.002;9.8111;0.0033268;-6.2741e-6;0.12989;0.020199;11885;2248.3;5.2877;0.090023;1959.1;1341.7;4.4097;0.94238;49678623;1754.4;679.33;0.73871;0.73871;0.3023;0.29106;0.14535;0.0011775;0.0047356;-2.4731e-4;0;0;0;0;1.6074e-7;0.032556;140;153.94;63.767;0.012759;NaN;12.086;960.67;338.62;0.05;0.032653
2.3763;362.73;289.79;68.21;321.41;78.453;164.41;0.02332;164.41;0.0081271;139.02;38.758;52;20.002;9.8111;0.01021;-6.1037e-6;-0.05979;6.5895e-4;11845;2208.1;5.2732;0.089994;1960.9;1340;4.4354;0.95417;50232814;1733.6;701.41;0.7453;0.7453;0.30036;0.29779;0.14715;0.0036347;0.015826;3.2301e-4;0;0;0;0;-3.3231e-8;0.032984;140;153.94;63.762;0.013212;NaN;11.992;958.98;338.57;0.05;0.032958
2.4263;377.31;293.18;65.877;325.29;75.005;171.41;0.024937;171.41;0.0083355;140.92;35.86;52;20.003;9.811;0.042731;4.4938e-6;0.50475;-0.019949;11806;2169;5.2589;0.089965;1962.3;1338.2;4.4579;0.96575;50773553;1714.8;723.85;0.75216;0.75216;0.29845;0.30477;0.14893;0.015302;0.06777;4.0225e-4;0;0;0;0;2.3127e-6;0.033394;140;153.94;63.783;0.012835;NaN;11.898;957.27;338.51;0.04021;0.033267
2.4665;389.15;295.8;62.681;328.28;72.628;177.1;0.026276;177.1;0.0085007;142.38;36.685;52;20.003;9.811;0.025777;-8.5597e-6;-2.5389;-0.02958;11771;2133.7;5.2461;0.08994;1964;1336.7;4.4807;0.97474;5.119e7;1696.1;741.55;0.75751;0.75751;0.29697;0.3102;0.15033;0.0092653;0.041441;4.3264e-4;0;0;0;0;-5.7455e-5;0.033711;140;153.94;63.689;0.013668;NaN;11.821;955.88;338.46;0.05;0.033595
2.5165;404.01;298.9;60.394;331.86;69.021;184.27;0.027994;184.27;0.0087045;144.2;33.413;52;20.003;9.8109;0.035621;-8.2864e-6;-0.28625;-0.016753;11735;2098.4;5.2331;0.089914;1965.5;1335.1;4.5026;0.98531;51673811;1676.3;762.67;0.76384;0.76384;0.29523;0.31661;0.152;0.012864;0.057882;-1.1135e-4;0;0;0;0;-7.1498e-7;0.034093;140;153.94;63.728;0.014926;NaN;11.724;954.16;338.4;0.045154;0.033911
2.5616;417.57;301.59;57.181;334.95;66.166;190.81;0.02962;190.81;0.008894;145.71;33.291;52;20.003;9.8109;0.0029131;-2.4423e-6;-2.4492;-0.16112;11698;2061.2;5.2194;0.089887;1967.3;1333.4;4.5277;0.99485;52112420;1656.5;782.13;0.76959;0.76959;0.29366;0.32241;0.15351;0.0010555;0.0048702;9.9026e-5;0;0;0;0;-5.1359e-5;0.034419;140;153.94;63.631;0.014455;NaN;11.636;952.65;338.35;0.05;0.034235
2.6116;432.72;304.41;54.037;338.21;62.677;198.14;0.031482;198.14;0.0091035;147.37;31.756;52;20.003;9.8108;0.0012792;4.3455e-6;-0.9067;-0.18975;11661;2024;5.2056;0.08986;1968.8;1331.7;4.5501;1.0048;52565415;1635.9;804.05;0.7769;0.7769;0.29202;0.33129;0.15359;4.6528e-4;0.0018801;-3.2256e-4;0;0;0;0;-6.9021e-6;0.034768;140;153.94;63.573;0.014927;NaN;11.537;950.95;338.29;0.05;0.034882
2.6616;448.01;307.08;51.122;341.3;59.431;205.55;0.033417;205.55;0.0093149;148.95;30.307;52;20.003;9.8108;2.4556e-4;4.3543e-6;0.18344;0.68739;11623;1985.5;5.1913;0.089832;1970.1;1330;4.5719;1.0142;52981341;1616.3;825.03;0.784;0.784;0.29048;0.34133;0.15218;8.9616e-5;4.5958e-4;-2.6374e-4;0;0;0;0;2.7744e-7;0.035098;140;153.94;63.537;0.014233;NaN;11.438;949.24;338.23;0.05;0.03562
2.7116;463.43;309.6;48.133;344.22;56.288;213.03;0.035403;213.03;0.0095218;150.45;29.181;52;20.003;9.8107;0.0083932;8.968e-6;-0.458;-0.032307;11585;1948.3;5.1774;0.089805;1971.1;1328.3;4.5916;1.0229;53365376;1596.9;844.99;0.79073;0.79073;0.28904;0.35081;0.15088;0.0030724;0.013874;3.3505e-4;0;0;0;0;-1.7007e-6;0.035411;140;153.94;63.503;0.016274;NaN;11.338;947.52;338.17;0.05;0.035974
2.7616;478.97;311.99;45.632;346.99;53.168;220.59;0.037466;220.59;0.0097312;151.89;27.286;52;20.003;9.8107;0.008116;1.4278e-5;0.061328;-0.031609;11549;1911.9;5.1637;0.089779;1972.2;1326.6;4.611;1.031;53711509;1577.5;863.58;0.79702;0.79702;0.28772;0.3596;0.1497;0.0029783;0.013355;-2.4515e-4;0;0;0;0;3.0029e-8;0.035709;140;153.94;63.52;0.016608;NaN;11.237;945.79;338.11;0.05;0.036281
2.8116;494.62;314.23;42.771;349.61;50.144;228.22;0.039604;228.22;0.0099428;153.25;26.174;52;20.003;9.8106;6.6375e-4;1.7564e-5;0.13377;0.039536;11512;1875.4;5.1499;0.089752;1973.2;1324.9;4.6305;1.0387;5.404e7;1558.1;881.64;0.80309;0.80309;0.28644;0.36806;0.14859;2.4408e-4;0.0015912;-3.3352e-4;0;0;0;0;1.408e-7;0.035991;140;153.94;63.498;0.014991;NaN;11.135;944.04;338.05;0.05;0.036617
2.8616;510.39;316.35;39.986;352.08;47.214;235.92;0.041785;235.92;0.010148;154.54;25.107;52;20.003;9.8106;0.0067469;1.4551e-5;-0.40356;-0.011095;11476;1839;5.1361;0.089726;1974;1323.2;4.6482;1.0461;54346080;1539.3;898.99;0.80892;0.80892;0.28523;0.37615;0.14754;0.0024859;0.011463;2.2744e-4;0;0;0;0;-1.2639e-6;0.036256;140;153.94;63.471;0.016833;NaN;11.032;942.28;337.98;0.05;0.036954
2.9116;526.25;318.33;38.014;354.4;44.707;243.67;0.044042;243.67;0.010356;155.77;23.529;52;20.004;9.8105;0.0079838;2.055e-5;0.49451;-0.021166;11440;1803.1;5.1224;0.0897;1974.7;1321.5;4.6657;1.0529;54625369;1523.4;913.34;0.81269;0.81269;0.2841;0.38201;0.14658;0.0029463;0.013572;-3.834e-4;0;0;0;0;1.8739e-6;0.036507;140;153.94;63.472;0.016869;NaN;10.929;940.5;337.92;0.05;0.037261
2.9616;542.22;320.2;35.795;356.6;42.583;251.49;0.046356;251.49;0.010561;156.96;23.064;52;20.004;9.8105;0.0067812;1.6545e-5;-0.24034;0.02138;11405;1768.1;5.109;0.089674;1975.5;1319.9;4.6827;1.0596;54891749;1507.9;924.78;0.81412;0.81412;0.283;0.38546;0.14566;0.0025059;0.011997;-3.4454e-4;0;0;0;0;-4.3728e-7;0.036747;140;153.94;63.431;0.016453;NaN;10.826;938.72;337.86;0.05;0.037582
3.0116;558.27;321.98;34.112;358.7;40.4;259.37;0.048728;259.37;0.010764;158.09;21.646;52;20.004;9.8104;0.0071538;1.2663e-5;0.56497;0.05973;11371;1733.7;5.0958;0.089649;1976.1;1318.3;4.6989;1.0658;55134419;1492.5;935.45;0.81549;0.81549;0.28198;0.38871;0.14481;0.0026465;0.012119;4.4516e-4;0;0;0;0;2.389e-6;0.036974;140;153.94;63.432;0.015527;NaN;10.721;936.93;337.8;0.05;0.038118
3.0616;574.41;323.67;32.014;360.69;38.324;267.3;0.051149;267.3;0.010964;159.18;21.067;52;20.004;9.8104;0.0032391;1.843e-5;-0.37666;0.026064;11336;1699.3;5.0824;0.089625;1976.7;1316.6;4.7152;1.0719;55368901;1477.1;945.91;0.81686;0.81686;0.28098;0.39189;0.14399;0.0011993;0.0054259;1.9532e-4;0;0;0;0;-1.0502e-6;0.037191;140;153.94;63.387;0.015923;NaN;10.616;935.12;337.73;0.05;0.038847
3.1116;590.64;325.26;30.191;362.58;36.21;275.29;0.0536;275.29;0.011156;160.22;19.991;52;20.004;9.8103;0.0013977;1.7136e-5;0.69475;-0.34221;11302;1664.8;5.0691;0.0896;1977.3;1315;4.7311;1.0777;55585337;1461.5;955.78;0.81816;0.81816;0.28003;0.39491;0.14322;5.1789e-4;0.0024722;-3.2905e-4;0;0;0;0;3.5362e-6;0.037397;140;153.94;63.361;0.01926;NaN;10.511;933.31;337.67;0.05;0.039163
3.1616;606.94;326.75;28.168;364.36;33.976;283.32;0.056123;283.32;0.01135;161.21;18.998;52;20.004;9.8103;0.002221;1.2341e-5;0.64251;-0.67763;11268;1630.8;5.0558;0.089575;1977.8;1313.3;4.7463;1.0833;55792547;1444.2;965.37;0.81943;0.81943;0.2791;0.39786;0.14247;8.2342e-4;0.0038908;-6.8761e-5;0;0;0;0;2.9943e-6;0.037593;140;153.94;63.313;0.021081;NaN;10.405;931.49;337.6;0.05;0.039476
3.2116;623.31;328.15;25.959;366.03;31.798;291.4;0.058742;291.4;0.01155;162.16;18.364;52;20.004;9.8102;0.0081695;-7.8617e-6;-0.90839;0.17043;11235;1597.7;5.0428;0.089551;1978.2;1311.7;4.7604;1.0886;55984150;1426.4;974.43;0.82065;0.82065;0.27823;0.40065;0.14178;0.0030305;0.014237;2.7974e-4;0;0;0;0;-5.929e-6;0.037777;140;153.94;63.251;0.016326;NaN;10.298;929.66;337.54;0.05;0.039787
3.2616;639.75;329.44;24.183;367.58;29.58;299.54;0.061398;299.54;0.011744;163.05;17.034;52;20.004;9.8102;0.0024608;-3.1485e-5;1.0369;0.55141;11202;1565.2;5.03;0.089527;1978.6;1310.1;4.7751;1.0934;56149017;1408.7;982.5;0.82177;0.82177;0.27743;0.40319;0.14115;9.13e-4;0.0047849;-3.5857e-4;0;0;0;0;7.6601e-6;0.037949;140;153.94;63.226;0.015796;NaN;10.192;927.82;337.48;0.05;0.040095
3.3116;656.25;330.63;22.275;369.03;27.478;307.71;0.064106;307.71;0.011937;163.91;16.089;52;20.004;9.8101;0.0022282;-3.7674e-5;0.43834;0.13288;11170;1532.7;5.0172;0.089504;1979;1308.5;4.7889;1.0979;56293455;1391;989.81;0.82281;0.82281;0.2767;0.40554;0.14057;8.2684e-4;0.0037127;-2.8364e-4;0;0;0;0;1.3583e-6;0.03811;140;153.94;63.196;0.018571;NaN;10.084;925.98;337.41;0.05;0.040407
3.3616;672.81;331.74;20.718;370.38;25.413;315.93;0.066868;315.93;0.012127;164.72;14.716;52;20.005;9.8101;0.015302;-6.2344e-5;0.31072;-0.0055678;11137;1500.2;5.0042;0.08948;1979.1;1306.9;4.8013;1.1019;56414633;1373.6;995.88;0.82346;0.82346;0.27618;0.40722;0.14006;0.0056798;0.027603;-3.5311e-4;0;0;0;0;6.778e-7;0.038261;140;153.94;63.193;0.022866;NaN;9.9767;924.13;337.34;0.05;0.04072
3.4116;689.42;332.75;18.65;371.62;23.862;324.18;0.06971;324.18;0.012321;165.48;14.886;52;20.005;9.81;0.010704;-1.2353e-4;0.29877;0.15288;11105;1468;4.9914;0.089457;1979.4;1305.3;4.8151;1.1059;56533039;1358.4;1001.5;0.8238;0.8238;0.27582;0.40843;0.13955;0.003973;0.018794;1.2626e-4;0;0;0;0;6.2241e-7;0.038402;140;153.94;63.124;0.02155;NaN;9.8687;922.27;337.28;0.05;0.041049
3.4616;706.09;333.69;17.176;372.78;22.21;332.47;0.072633;332.47;0.012517;166.19;14.081;52;20.005;9.81;0.0089327;-1.5504e-4;-1.3032;0.26891;11074;1436.5;4.9788;0.089434;1979.7;1303.7;4.8282;1.1096;56635545;1343.9;1006.6;0.82412;0.82412;0.27548;0.40955;0.13909;0.0033151;0.016091;8.0038e-5;0;0;0;0;-1.1768e-5;0.038533;140;153.94;63.09;0.017003;NaN;9.7604;920.41;337.21;0.05;0.041364
3.5116;722.79;334.55;15.509;373.86;20.673;340.8;0.075609;340.8;0.012712;166.87;13.669;52;20.005;9.8099;0.01747;-1.8245e-4;-1.6837;0.16641;11043;1405.5;4.9663;0.089411;1979.8;1302.2;4.8402;1.1133;56736561;1329.5;1011.6;0.82445;0.82445;0.27515;0.41067;0.13863;0.0064837;0.031058;3.827e-4;0;0;0;0;-1.952e-5;0.038655;140;153.94;63.02;0.015354;NaN;9.6519;918.54;337.15;0.05;0.041705
3.5616;739.54;335.34;14.883;374.85;19.044;349.16;0.078594;349.16;0.012897;167.51;11.881;52;20.005;9.8099;0.014232;-2.1335e-4;2.0057;0.02566;11012;1374.7;4.9539;0.089389;1980;1300.6;4.8529;1.1164;56803550;1317.4;1015.4;0.82472;0.82472;0.27488;0.41159;0.13825;0.0052808;0.025512;2.6916e-4;0;0;0;0;2.7562e-5;0.038769;140;153.94;63.032;0.023331;NaN;9.543;916.67;337.08;0.05;0.042013
3.6116;756.32;336.06;14.461;375.78;17.518;357.55;0.081663;357.55;0.013086;168.15;9.8873;52;20.005;9.8098;0.05208;-3.164e-4;0.065353;0.010138;10982;1344.5;4.9416;0.089367;1979.7;1299.1;4.8616;1.1192;56859208;1309.2;1018.8;0.82497;0.82498;0.27462;0.41245;0.1379;0.019334;0.093943;3.7627e-4;0;0;0;0;2.9124e-8;0.038878;140;153.94;63.047;0.029033;NaN;9.4339;914.8;337.02;0.021241;0.042321
3.6329;763.46;336.36;13.75;376.15;17.464;361.12;0.083031;361.12;0.013174;168.37;10.766;52;20.005;9.8098;0.025822;-3.137e-4;3.4298;0.11967;10960;1323.1;4.9329;0.089351;1980.1;1298;4.8723;1.1205;56886228;1303.1;1020.3;0.82508;0.82508;0.27451;0.41283;0.13774;0.0095805;0.047027;-4.1759e-4;0;0;0;0;8.0048e-5;0.038919;140;153.94;63.005;0.023122;NaN;9.3875;914;336.99;0.031861;0.042629
3.6648;774.19;336.77;11.811;376.69;17.177;366.5;0.085092;366.5;0.013303;168.76;12.472;52;20.005;9.8098;0.030514;-2.9347e-4;-1.7134;0.13444;10944;1307.2;4.9264;0.08934;1980.1;1297.2;4.8784;1.1223;56924876;1295.2;1022.6;0.82523;0.82524;0.27434;0.41338;0.13751;0.01132;0.054858;7.4609e-5;0;0;0;0;-1.9914e-5;0.038983;140;153.94;62.911;0.016507;NaN;9.3178;912.8;336.95;0.036139;0.042932
3.7009;786.37;337.21;11.612;377.27;15.792;372.6;0.087385;372.6;0.013437;169.18;10.704;52;20.005;9.8097;0.005067;-2.774e-4;0.24925;-0.11353;10924;1286.9;4.9181;0.089325;1980.6;1296.1;4.8889;1.1244;56964846;1285.3;1025;0.8254;0.8254;0.27415;0.41399;0.13726;0.0018785;0.0093839;3.1817e-4;0;0;0;0;4.2002e-7;0.039053;140;153.94;62.902;0.023717;NaN;9.2386;911.44;336.9;0.05;0.043245
3.7509;803.24;337.78;10.861;378.02;15.037;381.07;0.09069;381.07;0.013636;169.73;10.4;52;20.006;9.8097;0.0035647;-2.5773e-4;-0.0763;-0.11927;10898;1261.1;4.9075;0.089306;1980.7;1294.8;4.8994;1.1266;56989002;1279.7;1027.2;0.82559;0.82559;0.27395;0.41466;0.13699;0.0013212;0.0062739;-1.4572e-4;0;0;0;0;-3.9217e-8;0.039142;140;153.94;62.887;0.01908;NaN;9.1289;909.56;336.83;0.05;0.043569
3.8009;820.14;338.31;10.498;378.74;15.243;389.57;0.094033;389.57;0.01383;170.25;11.052;52;20.006;9.8096;0.014023;-1.9048e-4;-0.045508;-0.042112;10868;1231.4;4.8952;0.089285;1980.7;1293.2;4.9102;1.1289;57015427;1281;1029.5;0.82578;0.82579;0.27374;0.41534;0.13671;0.0051973;0.025748;1.0351e-4;0;0;0;0;-1.39e-8;0.039228;140;153.94;62.842;0.016008;NaN;9.0191;907.67;336.76;0.05;0.043883
3.8509;837.07;338.86;10.542;379.45;15.225;398.1;0.097378;398.1;0.014015;170.76;10.985;52;20.006;9.8096;0.011763;-1.0561e-4;-1.3107;-0.23577;10839;1202;4.883;0.089264;1980.8;1291.7;4.9221;1.1311;57031757;1282.4;1031.4;0.82596;0.82596;0.27355;0.41596;0.13645;0.0043583;0.021448;-4.0185e-4;0;0;0;0;-1.1491e-5;0.039313;140;153.94;62.836;0.022607;NaN;8.909;905.78;336.7;0.05;0.044194
3.9009;854.03;339.4;11.176;380.17;14.852;406.65;0.10075;406.65;0.014195;171.29;9.7813;52;20.006;9.8095;0.020704;3.7784e-5;1.659;-0.25706;10810;1172.5;4.8708;0.089242;1980.7;1290.1;4.9329;1.1332;57046428;1283.7;1033.3;0.82614;0.82614;0.27336;0.41658;0.1362;0.0076698;0.037411;3.1862e-4;0;0;0;0;1.835e-5;0.039398;140;153.94;62.861;0.036437;NaN;8.7988;903.88;336.63;0.05;0.0445
3.9509;871.01;339.92;11.533;380.89;14.658;415.23;0.10424;415.23;0.014384;171.84;9.0471;52;20.006;9.8095;0.039709;1.8917e-4;-0.74942;-0.25889;10780;1143.1;4.8584;0.089221;1980.6;1288.6;4.9429;1.1354;5.707e7;1284.7;1035.6;0.82634;0.82634;0.27315;0.41726;0.13593;0.014711;0.072387;6.545e-5;0;0;0;0;-3.7309e-6;0.039486;140;153.94;62.85;0.039101;NaN;8.6884;901.98;336.56;0.026707;0.044804
3.9776;880.09;340.22;11.033;381.27;14.861;419.82;0.10616;419.82;0.014488;172.08;9.9566;52;20.006;9.8095;0.01578;1.7293e-4;2.5856;-0.42759;10758;1120.5;4.849;0.089204;1980.9;1287.4;4.9541;1.1367;57083718;1285.6;1036.8;0.82645;0.82645;0.27304;0.41763;0.13578;0.0058423;0.028762;3.5944e-5;0;0;0;0;4.4323e-5;0.039529;140;153.94;62.815;0.035583;NaN;8.6294;900.97;336.53;0.040061;0.045109
4.0177;893.73;340.64;10.811;381.84;14.86;426.73;0.10911;426.73;0.014651;172.53;10.196;52;20.006;9.8094;0.0081279;1.4238e-4;0.40813;-0.06573;10738;1100.8;4.8407;0.08919;1981.1;1286.3;4.9628;1.1387;5.711e7;1286.2;1038.9;0.82662;0.82662;0.27286;0.41822;0.13554;0.0030077;0.015024;3.0246e-5;0;0;0;0;1.1009e-6;0.0396;140;153.94;62.768;0.021538;NaN;8.5407;899.45;336.47;0.05;0.045416
4.0677;910.78;341.17;10.052;382.55;15.124;435.36;0.11279;435.36;0.014844;173.06;11.3;52;20.006;9.8094;0.021916;2.4471e-4;0.10042;-0.015461;10711;1074.2;4.8295;0.089171;1981;1284.9;4.9723;1.1413;57150718;1286.6;1041.7;0.82683;0.82683;0.27262;0.41897;0.13523;0.0081083;0.040033;-2.0253e-5;0;0;0;0;6.6374e-8;0.039685;140;153.94;62.679;0.016732;NaN;8.4299;897.6;336.41;0.047749;0.045733
4.1154;927.08;341.67;9.4995;383.22;15.419;443.64;0.1163;443.64;0.015021;173.54;12.145;52;20.006;9.8093;0.044177;4.5118e-4;-1.5869;-0.16667;10682;1045.3;4.8172;0.08915;1980.8;1283.4;4.9819;1.1434;57175082;1286.8;1043.8;0.82699;0.82699;0.27243;0.41958;0.13498;0.016345;0.081886;-3.0903e-4;0;0;0;0;-1.6519e-5;0.039764;140;153.94;62.635;0.022717;NaN;8.324;895.87;336.34;0.023242;0.04604
4.1386;935.02;341.89;9.7699;383.54;15.175;447.68;0.11808;447.68;0.015112;173.82;11.612;52;20.007;9.8093;0.03069;4.3802e-4;2.3729;-0.20481;10661;1024.3;4.8083;0.089135;1981;1282.2;4.9914;1.1442;57176555;1287;1044.4;0.82705;0.82705;0.27235;0.41982;0.13488;0.01135;0.056936;1.4478e-5;0;0;0;0;3.6887e-5;0.039806;140;153.94;62.649;0.017853;NaN;8.2723;895.02;336.31;0.033348;0.046346
4.172;946.43;342.25;11.33;384.01;14.097;453.48;0.12056;453.48;0.015232;174.14;8.3888;52;20.007;9.8093;0.050508;3.7786e-4;0.2921;-0.10412;10645;1007.6;4.8012;0.089122;1980.8;1281.3;4.9964;1.1458;57198507;1287.3;1046.1;0.82717;0.82718;0.27221;0.42027;0.13469;0.01868;0.09332;-1.5521e-4;0;0;0;0;5.5754e-7;0.039861;140;153.94;62.706;0.026817;NaN;8.1982;893.81;336.27;0.020287;0.046661
4.1923;953.38;342.48;10.819;384.29;14.216;457.01;0.1221;457.01;0.015308;174.32;9.2224;52;20.007;9.8092;0.028711;3.7626e-4;3.8211;-0.20637;10629;991.74;4.7944;0.089111;1981.1;1280.4;5.0048;1.1469;57217808;1287.5;1047.3;0.82726;0.82726;0.27211;0.42059;0.13456;0.010612;0.052973;-3.6635e-4;0;0;0;0;9.5242e-5;0.039892;140;153.94;62.66;0.028569;NaN;8.1531;893.07;336.24;0.03043;0.046962
4.2227;963.8;342.78;9.2154;384.71;15.261;462.32;0.12448;462.32;0.015427;174.65;12.165;52;20.007;9.8092;0.04645;3.5739e-4;-1.5223;-0.047705;10614;976.74;4.7879;0.0891;1980.9;1279.6;5.0093;1.1483;57233040;1287.7;1048.7;0.82736;0.82737;0.27198;0.42098;0.1344;0.017168;0.085817;3.3786e-4;0;0;0;0;-1.5084e-5;0.039944;140;153.94;62.562;0.024272;NaN;8.0853;891.96;336.2;0.02195;0.047267
4.2447;971.33;342.98;9.6509;385.01;14.827;466.16;0.12619;466.16;0.015511;174.91;11.256;52;20.007;9.8092;0.023697;3.5446e-4;1.9274;-0.088016;10598;961.25;4.7813;0.089089;1981.2;1278.8;5.0176;1.1492;57240532;1287.9;1049.5;0.82744;0.82744;0.2719;0.42124;0.13429;0.0087533;0.044253;-1.3684e-5;0;0;0;0;2.4146e-5;0.039983;140;153.94;62.572;0.022687;NaN;8.0364;891.16;336.17;0.032925;0.047655
4.2776;982.63;343.33;10.549;385.46;14.165;471.92;0.12876;471.92;0.015633;175.24;9.4539;52;20.007;9.8091;0.021399;3.378e-4;-0.35661;-0.044469;10582;945.03;4.7743;0.089077;1981.3;1277.9;5.0244;1.1505;57245136;1288.2;1050.5;0.82753;0.82753;0.27178;0.4216;0.13415;0.0079019;0.040088;2.8053e-4;0;0;0;0;-8.2499e-7;0.040036;140;153.94;62.62;0.026724;NaN;7.9629;889.96;336.12;0.046783;0.048442
4.3244;998.7;343.79;10.372;386.1;14.167;480.13;0.13251;480.13;0.015813;175.73;9.6499;52;20.007;9.8091;0.015771;3.8924e-4;-1.1491;-0.10025;10559;921.46;4.7641;0.08906;1981.4;1276.6;5.0345;1.1524;57257335;1288.5;1052.2;0.82768;0.82768;0.27161;0.42215;0.13392;0.0058202;0.029604;-8.5364e-5;0;0;0;0;-8.5408e-6;0.040114;140;153.94;62.603;0.023313;NaN;7.8584;888.25;336.06;0.05;0.049033
4.3744;1015.9;344.29;9.2817;386.78;14.816;488.93;0.13655;488.93;0.016002;176.25;11.548;52;20.007;9.809;0.03271;5.6803e-4;2.3467;-0.1853;10530;892.84;4.7517;0.089039;1981.2;1275;5.0446;1.1546;57276480;1288.9;1054.2;0.82785;0.82786;0.27141;0.42277;0.13367;0.012069;0.060679;-4.6594e-4;0;0;0;0;3.5501e-5;0.040197;140;153.94;62.527;0.02446;NaN;7.7466;886.42;335.99;0.030666;0.04935
4.405;1026.5;344.6;10.737;387.19;13.775;494.34;0.13907;494.34;0.016119;176.55;8.6289;52;20.007;9.809;0.039785;5.3102e-4;-0.35561;-0.077291;10506;868.99;4.7413;0.089022;1981.2;1273.7;5.0536;1.1559;57288587;1289.1;1055.4;0.82796;0.82796;0.27129;0.42315;0.13352;0.014676;0.074087;-4.8877e-4;0;0;0;0;-8.1348e-7;0.040246;140;153.94;62.585;0.024222;NaN;7.678;885.29;335.95;0.025035;0.049659
4.4301;1035.1;344.87;10.202;387.53;13.954;498.76;0.14112;498.76;0.016212;176.77;9.5205;52;20.007;9.809;0.016932;5.2055e-4;3.0251;-0.20395;10490;852.52;4.7341;0.08901;1981.5;1272.8;5.0624;1.1571;57303375;1289.2;1056.6;0.82805;0.82806;0.27118;0.4235;0.13338;0.0062413;0.031491;-3.4262e-5;0;0;0;0;5.8759e-5;0.040285;140;153.94;62.544;0.028206;NaN;7.6219;884.38;335.92;0.037552;0.050006
4.4676;1048.1;345.22;9.3082;388.03;14.231;505.41;0.14427;505.41;0.016355;177.18;10.765;52;20.007;9.8089;0.016299;4.9487e-4;-0.37028;-0.024726;10471;834.03;4.7261;0.088996;1981.5;1271.7;5.0701;1.1589;57320927;1288;1058.3;0.82819;0.82819;0.27102;0.42399;0.13318;0.0060051;0.030766;-3.0171e-4;0;0;0;0;-8.78e-7;0.040348;140;153.94;62.477;0.026543;NaN;7.5376;883;335.87;0.05;0.050363
4.5176;1065.3;345.71;9.1363;388.69;13.851;514.28;0.1485;514.28;0.016544;177.66;10.41;52;20.008;9.8089;0.010791;5.4025e-4;-2.6741;-0.11488;10445;808.2;4.7147;0.088978;1981.6;1270.3;5.0812;1.1611;57341878;1286.4;1060.4;0.82835;0.82835;0.27082;0.42461;0.13292;0.0039729;0.020135;-2.505e-5;0;0;0;0;-4.5632e-5;0.040426;140;153.94;62.448;0.027658;NaN;7.4254;881.16;335.8;0.05;0.050674
4.5676;1082.6;346.18;9.6968;389.33;13.007;523.18;0.15277;523.18;0.01673;178.15;8.6692;52;20.008;9.8088;0.029291;6.581e-4;3.4112;-0.26686;10416;778.71;4.7017;0.088956;1981.4;1268.6;5.0916;1.1635;57367904;1285.1;1062.7;0.8285;0.82851;0.27061;0.42525;0.13265;0.01078;0.054643;3.2522e-4;0;0;0;0;7.3988e-5;0.040504;140;153.94;62.437;0.03363;NaN;7.3129;879.32;335.73;0.033452;0.050984
4.6011;1094.2;346.47;8.366;389.75;13.719;529.14;0.15573;529.14;0.016862;178.5;10.873;52;20.008;9.8088;0.026776;6.2048e-4;-1.1259;-0.010224;10391;754.1;4.6908;0.088938;1981.5;1267.2;5.1019;1.165;57381123;1284;1064;0.8286;0.8286;0.27047;0.42565;0.13248;0.0098493;0.050043;-2.1185e-4;0;0;0;0;-8.0416e-6;0.040557;140;153.94;62.347;0.024672;NaN;7.2376;878.09;335.68;0.0364;0.051288
4.6375;1106.8;346.79;8.9022;390.2;12.935;535.65;0.15891;535.65;0.016998;178.86;9.3845;52;20.008;9.8088;0.0077265;6.0599e-4;0.55369;-0.059327;10371;733.5;4.6817;0.088923;1981.7;1266;5.1122;1.1666;57395069;1282.7;1065.5;0.82871;0.82871;0.27032;0.42609;0.1323;0.0028397;0.01408;2.8352e-4;0;0;0;0;1.94e-6;0.040613;140;153.94;62.346;0.028203;NaN;7.1556;876.75;335.64;0.05;0.051596
4.6875;1124.2;347.22;8.3226;390.81;12.839;544.6;0.16338;544.6;0.017189;179.35;9.7765;52;20.008;9.8087;0.0053556;6.4031e-4;0.1966;-0.01579;10345;708.02;4.6703;0.088905;1981.8;1264.5;5.123;1.1689;57417423;1281.1;1067.7;0.82886;0.82886;0.27011;0.42671;0.13204;0.0019667;0.0098353;2.2477e-5;0;0;0;0;2.437e-7;0.040689;140;153.94;62.274;0.025506;NaN;7.0428;874.9;335.57;0.05;0.051902
4.7375;1141.5;347.65;7.2279;391.4;13.428;553.58;0.16791;553.58;0.017379;179.83;11.316;52;20.008;9.8087;0.045464;7.8661e-4;-0.27343;-0.084279;10316;678.53;4.6571;0.088884;1981.3;1262.8;5.1314;1.1709;57424620;1280;1069.3;0.82899;0.829;0.26993;0.42726;0.13181;0.016697;0.085392;1.4787e-4;0;0;0;0;-4.6998e-7;0.040762;140;153.94;62.201;0.023302;NaN;6.9299;873.05;335.5;0.021085;0.052209
4.7586;1148.9;347.81;8.1974;391.65;12.459;557.37;0.16982;557.37;0.017457;180.05;9.382;52;20.008;9.8086;0.002377;7.8003e-4;-1.2051;-1.6711;10295;657.57;4.6477;0.088868;1981.8;1261.6;5.1441;1.1718;57428178;1279.1;1070;0.82905;0.82905;0.26985;0.42749;0.13171;8.72e-4;0.0046247;3.7424e-5;0;0;0;0;-9.1169e-6;0.040794;140;153.94;62.228;0.02419;NaN;6.8823;872.27;335.47;0.031627;0.052513
4.7902;1159.9;348.08;8.5481;392.01;11.844;563.07;0.17269;563.07;0.017572;180.31;8.1989;52;20.008;9.8086;0.027832;7.4489e-4;1.9699;-0.16372;10279;642.07;4.6407;0.088857;1981.5;1260.7;5.1482;1.1732;5.744e7;1277.7;1071.3;0.82915;0.82915;0.26972;0.42788;0.13155;0.01021;0.052578;-1.7204e-4;0;0;0;0;2.4309e-5;0.040837;140;153.94;62.222;0.031966;NaN;6.8107;871.1;335.43;0.034066;0.052819
4.8243;1171.7;348.35;7.3585;392.4;12.399;569.22;0.17586;569.22;0.017701;180.63;9.9788;52;20.008;9.8086;0.017776;7.2311e-4;-1.3596;-0.023956;10260;622.83;4.632;0.088843;1981.6;1259.6;5.1572;1.1746;57445870;1275.9;1072.4;0.82924;0.82924;0.26959;0.42826;0.13139;0.0065166;0.033529;4.508e-4;0;0;0;0;-1.1555e-5;0.040886;140;153.94;62.144;0.028803;NaN;6.7336;869.84;335.38;0.05;0.053125
4.8743;1189.2;348.74;6.981;392.95;12.242;578.26;0.18051;578.26;0.017886;181.08;10.057;52;20.008;9.8085;0.022973;9.4479e-4;-2.8916;-0.35308;10235;598.27;4.6208;0.088825;1981.5;1258.2;5.167;1.1764;57438296;1274;1073.4;0.82936;0.82936;0.26943;0.42873;0.1312;0.0084171;0.043705;-2.534e-4;0;0;0;0;-5.2136e-5;0.040955;140;153.94;62.123;0.034705;NaN;6.6204;867.99;335.31;0.040735;0.053436
4.915;1203.4;349.04;8.0183;393.39;11.145;585.65;0.18441;585.65;0.018042;181.47;7.74;52;20.009;9.8085;0.031412;9.3595e-4;0.40709;-0.066471;10209;571.76;4.6088;0.088806;1981.4;1256.6;5.1773;1.1777;57426849;1272.5;1074.1;0.82945;0.82945;0.26931;0.42909;0.13105;0.011505;0.059963;-3.1311e-4;0;0;0;0;1.0314e-6;0.041012;140;153.94;62.165;0.028474;NaN;6.528;866.47;335.25;0.029598;0.053752
4.9446;1213.7;349.26;7.1146;393.71;11.601;591.02;0.18723;591.02;0.018151;181.72;9.1639;52;20.009;9.8084;0.0044935;9.2491e-4;-2.0429;-0.46012;10188;551.21;4.5994;0.088791;1981.8;1255.4;5.1884;1.1788;57425260;1270.9;1074.8;0.82952;0.82952;0.26921;0.42939;0.13093;0.0016443;0.0085914;3.3249e-5;0;0;0;0;-2.5932e-5;0.041051;140;153.94;62.111;0.031981;NaN;6.4608;865.37;335.21;0.044397;0.054067
4.989;1229.2;349.58;7.5049;394.18;10.903;599.1;0.19154;599.1;0.018319;182.14;7.9087;52;20.009;9.8084;0.02323;9.7441e-4;0.7889;-0.096251;10167;529.6;4.5895;0.088775;1981.5;1254.1;5.1958;1.1802;57411134;1269.1;1075.5;0.82962;0.82962;0.26908;0.42977;0.13077;0.0084989;0.044376;4.4362e-4;0;0;0;0;3.859e-6;0.041111;140;153.94;62.126;0.030859;NaN;6.36;863.72;335.15;0.039784;0.054384
5.0288;1243.1;349.85;6.8851;394.59;11.098;606.35;0.19546;606.35;0.01847;182.5;8.7035;52;20.009;9.8083;0.0023243;9.7264e-4;-0.075485;0.0065767;10142;505;4.5781;0.088758;1981.8;1252.6;5.2082;1.1815;57400877;1267.1;1076.1;0.82968;0.82968;0.26896;0.4301;0.13063;8.4957e-4;0.0046073;2.3847e-4;0;0;0;0;-3.5263e-8;0.041164;140;153.94;62.086;0.029212;NaN;6.2696;862.24;335.1;0.05;0.054692
5.0788;1260.6;350.19;6.2293;395.09;11.157;615.49;0.20043;615.49;0.018658;182.94;9.2556;52;20.009;9.8083;0.014404;0.001036;0.29964;-0.1472;10116;478.78;4.566;0.088739;1981.6;1251.1;5.2182;1.1832;57391126;1264.5;1077.1;0.82977;0.82977;0.2688;0.43053;0.13043;0.0052625;0.027845;1.9229e-4;0;0;0;0;5.5425e-7;0.041228;140;153.94;62.038;0.031244;NaN;6.1558;860.38;335.03;0.05;0.055
5.1288;1278.2;350.53;5.0037;395.58;11.787;624.65;0.20542;624.65;0.018842;183.35;10.672;52;20.009;9.8082;0.052929;0.0013959;-1.7008;-0.34923;10087;449.7;4.5525;0.088717;1981.1;1249.3;5.227;1.185;57380515;1262;1078;0.82985;0.82986;0.26864;0.43097;0.13024;0.019338;0.10128;7.5164e-5;0;0;0;0;-1.7813e-5;0.04129;140;153.94;61.968;0.044012;NaN;6.0419;858.52;334.96;0.017256;0.055313
5.146;1284.2;350.62;5.4597;395.75;11.23;627.81;0.20724;627.81;0.018913;183.53;9.8135;52;20.009;9.8082;0.032001;0.0013917;1.7914;-0.4033;10067;430.25;4.5435;0.088703;1981.3;1248.1;5.2373;1.1856;57375971;1260.3;1078.3;0.82988;0.82988;0.26859;0.43111;0.13018;0.011684;0.060967;-1.5776e-4;0;0;0;0;1.9744e-5;0.041313;140;153.94;61.971;0.032402;NaN;6.0026;857.88;334.94;0.025885;0.055638
5.1719;1293.3;350.78;6.717;395.99;9.6342;632.56;0.20995;632.56;0.019017;183.74;6.9065;52;20.009;9.8082;0.035019;0.0013517;-0.86358;-0.14011;10055;417.82;4.5377;0.088694;1981.3;1247.4;5.2423;1.1864;5.737e7;1258.3;1078.7;0.82993;0.82993;0.26851;0.43133;0.13008;0.012782;0.066865;-3.4068e-4;0;0;0;0;-4.5826e-6;0.041345;140;153.94;62.02;0.021268;NaN;5.9436;856.91;334.9;0.026036;0.055943
5.1979;1302.4;350.95;6.1055;396.23;9.7419;637.35;0.21258;637.35;0.01911;183.93;7.5913;52;20.009;9.8082;0.015952;0.0013247;2.6608;-0.37993;10040;402.86;4.5307;0.088683;1981.5;1246.5;5.2505;1.1873;57362451;1255.8;1079.1;0.82997;0.82997;0.26843;0.43155;0.12999;0.005818;0.030279;1.8872e-4;0;0;0;0;4.345e-5;0.041374;140;153.94;61.986;0.032447;NaN;5.8842;855.94;334.86;0.039054;0.056251
5.237;1316.1;351.16;5.5683;396.58;9.6457;644.54;0.21666;644.54;0.01926;184.28;7.8762;52;20.009;9.8081;0.0055885;0.0013;-0.4109;-0.043182;10021;384.1;4.5218;0.08867;1981.6;1245.3;5.2596;1.1884;5.734e7;1252.3;1079.3;0.83002;0.83002;0.26833;0.43183;0.12987;0.0020369;0.010452;-2.0395e-4;0;0;0;0;-1.0346e-6;0.041421;140;153.94;61.959;0.029407;NaN;5.7951;854.48;334.81;0.05;0.056573
5.287;1333.7;351.43;4.5201;397;9.9026;653.76;0.22189;653.76;0.019447;184.69;8.8109;52;20.01;9.8081;0.021874;0.0013799;0.91491;-0.22901;9995.5;358.43;4.5098;0.088651;1981.4;1243.7;5.2691;1.1902;5.733e7;1248.7;1080.3;0.83011;0.83011;0.26817;0.43227;0.12968;0.0079689;0.042059;-3.6166e-4;0;0;0;0;5.1163e-6;0.041478;140;153.94;61.876;0.03538;NaN;5.6809;852.61;334.74;0.041088;0.056897
5.3281;1348.1;351.65;4.1101;397.34;9.9048;661.36;0.22626;661.36;0.019602;184.99;9.0118;52;20.01;9.808;0.029488;0.0014731;-1.4849;-0.075791;9969.2;332.18;4.4973;0.088632;1981.3;1242.1;5.2798;1.1914;57308886;1245.9;1080.6;0.83017;0.83018;0.26806;0.43257;0.12955;0.010739;0.056972;-2.3514e-4;0;0;0;0;-1.3454e-5;0.041522;140;153.94;61.847;0.037494;NaN;5.587;851.08;334.68;0.030243;0.057204
