# Time (s);Altitude (m);Vertical velocity (m/s);Vertical acceleration (m/s²);Total velocity (m/s);Total acceleration (m/s²);Position East of launch (m);Position North of launch (m);Lateral distance (m);Lateral direction (°);Lateral velocity (m/s);Lateral acceleration (m/s²);Latitude (°);Longitude (°);Gravitational acceleration (m/s²);Angle of attack (°);Roll rate (°/s);Pitch rate (°/s);Yaw rate (°/s);Mass (g);Propellant mass (g);Longitudinal moment of inertia (kg·m²);Rotational moment of inertia (kg·m²);CP location (mm);CG location (mm);Stability margin calibers (?);Mach number (?);Reynolds number (?);Thrust (N);Drag force (N);Drag coefficient (?);Axial drag coefficient (?);Friction drag coefficient (?);Pressure drag coefficient (?);Base drag coefficient (?);Normal force coefficient (?);Pitch moment coefficient (?);Yaw moment coefficient (?);Side force coefficient (?);Roll moment coefficient (?);Roll forcing coefficient (?);Roll damping coefficient (?);Pitch damping coefficient (?);Coriolis acceleration (m/s²);Reference length (mm);Reference area (cm²);Vertical orientation (zenith) (°);Lateral orientation (azimuth) (°);Wind velocity (m/s);Air temperature (°C);Air pressure (mbar);Speed of sound (m/s);Simulation time step (s);Computation time (s)
0;0;0;-2.4913;0;2.6511;0;0;0;0;0;0.90674;52;20;9.8122;70;0;0;0;14136;4498.6;6.0035;0.091656;NaN;1424.2;NaN;0.0077919;423909;92.865;0.003882;0.69698;0.059217;0.45681;0.16608;0.074087;NaN;NaN;NaN;NaN;NaN;NaN;NaN;NaN;0;140;153.94;70;0;NaN;14.35;1001.5;340;0.01;0.0015031
0.01;0;0;28.177;0;29.986;0;0;0;0;0;10.256;52;20;9.8122;70;0;0;0;14136;4498.6;6.0035;0.091656;NaN;1424.2;NaN;0.0077009;418962;554.21;0.0037983;0.69814;0.059316;0.45797;0.16608;0.074086;NaN;NaN;NaN;NaN;NaN;NaN;NaN;NaN;0;140;153.94;70;0;NaN;14.35;1001.5;340;0.01;0.0018744
0.02;0.0014092;0.28185;61.481;0.29994;65.427;5.129e-4;0;5.129e-4;0;0.10259;22.377;52;20;9.8122;64.018;0;0;0;14132;4495;6.0025;0.091654;NaN;1424.1;NaN;0.0079551;432787;1054.9;0.0081606;0.69493;0.11943;0.45476;0.16608;0.074087;NaN;NaN;NaN;NaN;NaN;NaN;NaN;NaN;2.9399e-5;140;153.94;70;0;NaN;14.35;1001.5;339.99;0.01;0.0021854
0.03;0.0073025;0.89684;94.807;0.9544;100.89;0.0026579;0;0.0026579;0;0.32642;34.507;52;20;9.8122;52.719;0;0;0;14128;4490.5;6.0012;0.091651;NaN;1424;NaN;0.00888;483107;1555.6;0.024897;0.6843;0.29242;0.44413;0.16608;0.074088;NaN;NaN;NaN;NaN;NaN;NaN;NaN;NaN;9.3547e-5;140;153.94;70;0;NaN;14.35;1001.5;339.99;0.01;0.0025022
0.04;0.021012;1.8452;120.05;1.9636;127.75;0.0076479;0;0.0076479;0;0.67159;43.694;52;20;9.8122;40.009;0;0;0;14123;4486;6;0.091647;NaN;1423.8;NaN;0.010857;590672;1934.6;0.068834;0.66582;0.54082;0.42564;0.16609;0.074091;NaN;NaN;NaN;NaN;NaN;NaN;NaN;NaN;1.9246e-4;140;153.94;70;0;NaN;14.35;1001.5;339.99;0.01;0.0028519
0.05;0.045468;3.0461;121.82;3.2416;129.64;0.016549;0;0.016549;0;1.1087;44.341;52;20;9.8122;29.79;0;0;0;14117;4479.7;5.9982;0.091643;NaN;1423.6;NaN;0.013878;754998;1960.5;0.14921;0.64477;0.71752;0.40458;0.16609;0.074097;NaN;NaN;NaN;NaN;NaN;NaN;NaN;NaN;3.1773e-4;140;153.94;70;0;NaN;14.35;1001.5;339.99;0.01;0.0031999
0.06;0.082023;4.265;122.14;4.5388;129.98;0.029854;0;0.029854;0;1.5523;44.454;52;20;9.8122;23.514;0;0;0;14108;4470.6;5.9956;0.091636;NaN;1423.4;NaN;0.017298;941052;1964;0.25228;0.6272;0.78089;0.38699;0.1661;0.074106;NaN;NaN;NaN;NaN;NaN;NaN;NaN;NaN;4.4487e-4;140;153.94;70;0;NaN;14.349;1001.5;339.99;0.01;0.003572
0.07;0.13078;5.4871;122.46;5.8393;130.31;0.047601;0;0.047601;0;1.9971;44.57;52;20;9.8122;19.333;0;0;0;14098;4460.7;5.9928;0.091629;NaN;1423.1;NaN;0.020865;1135146;1967.5;0.37248;0.61313;0.79239;0.3729;0.16611;0.074117;NaN;NaN;NaN;NaN;NaN;NaN;NaN;NaN;5.7234e-4;140;153.94;70;0;NaN;14.349;1001.5;339.99;0.01;0.0039191
0.08;0.19178;6.7124;122.77;7.1432;130.65;0.069802;0;0.069802;0;2.4431;44.686;52;20;9.8122;16.377;0;0;0;14088;4450.8;5.99;0.091622;NaN;1422.7;NaN;0.024521;1334027;1971;0.50731;0.60163;0.78141;0.36137;0.16613;0.07413;NaN;NaN;NaN;NaN;NaN;NaN;NaN;NaN;7.0015e-4;140;153.94;70;0;NaN;14.349;1001.5;339.99;0.01;0.0042732
0.09;0.26505;7.9409;123.09;8.4505;130.99;0.096469;0;0.096469;0;2.8902;44.802;52;20;9.8122;14.188;0;0;0;14078;4441;5.9872;0.091615;NaN;1422.4;NaN;0.028235;1536055;1974.6;0.6513;0.59202;0.75666;0.35173;0.16614;0.074146;NaN;NaN;NaN;NaN;NaN;NaN;NaN;NaN;8.2828e-4;140;153.94;70;0;NaN;14.348;1001.5;339.99;0.01;0.0045951
0.1;0.35061;9.1725;123.41;9.7612;131.33;0.12761;0;0.12761;0;3.3385;44.917;52;20;9.8122;12.506;0;0;0;14068;4431.1;5.9844;0.091607;NaN;1422.1;NaN;0.03199;1740328;1978.1;0.8052;0.58384;0.72874;0.34352;0.16616;0.074164;NaN;NaN;NaN;NaN;NaN;NaN;NaN;NaN;9.5675e-4;140;153.94;70;0;NaN;14.348;1001.5;339.99;0.01;0.004904
0.11;0.44851;10.407;123.73;11.075;131.67;0.16324;0;0.16324;0;3.7879;45.033;52;20;9.8122;11.159;0;0;0;14058;4421.2;5.9816;0.0916;NaN;1421.8;NaN;0.035771;1945988;1981.6;0.97074;0.57686;0.70267;0.3365;0.16618;0.074184;NaN;NaN;NaN;NaN;NaN;NaN;NaN;NaN;0.0010855;140;153.94;70;0;NaN;14.347;1001.5;339.99;0.01;0.0052124
0.12;0.55877;11.645;124.04;12.393;132;0.20338;0;0.20338;0;4.2385;45.148;52;20;9.8122;10.067;0;0;0;14048;4411.3;5.9788;0.091593;NaN;1421.5;NaN;0.039577;2153044;1985.1;1.162;0.5769;0.6871;0.33649;0.16621;0.074207;NaN;NaN;NaN;NaN;NaN;NaN;NaN;NaN;0.0012147;140;153.94;70;0;NaN;14.346;1001.5;339.99;0.01;0.0055259
0.13;0.68143;12.886;124.36;13.713;132.34;0.24802;0;0.24802;0;4.6903;45.262;52;20;9.8122;9.1655;0;0;0;14038;4401.4;5.976;0.091586;NaN;1421.2;NaN;0.043405;2361269;1988.7;1.3702;0.57694;0.67363;0.33648;0.16623;0.074233;NaN;NaN;NaN;NaN;NaN;NaN;NaN;NaN;0.0013441;140;153.94;70;0;NaN;14.346;1001.4;339.99;0.01;0.005839
0.14;0.81651;14.131;124.67;15.038;132.67;0.29719;0;0.29719;0;5.1431;45.377;52;20;9.8122;8.4083;0;0;0;14029;4391.6;5.9732;0.091579;NaN;1420.9;NaN;0.047252;2570507;1992.2;1.5961;0.57699;0.66213;0.33646;0.16626;0.074261;NaN;NaN;NaN;NaN;NaN;NaN;NaN;NaN;0.0014739;140;153.94;70;0;NaN;14.345;1001.4;339.99;0.01;0.0061458
0.15;0.96406;15.378;124.99;16.365;133.01;0.35089;0;0.35089;0;5.5972;45.491;52;20;9.8122;7.7638;0;0;0;14019;4381.7;5.9703;0.091572;NaN;1420.6;NaN;0.051115;2780651;1995.7;1.8402;0.57704;0.65237;0.33645;0.16629;0.074291;NaN;NaN;NaN;NaN;NaN;NaN;NaN;NaN;0.001604;140;153.94;70;0;NaN;14.344;1001.4;339.99;0.01;0.0064563
0.16;1.1241;16.629;125.3;17.696;133.34;0.40914;0;0.40914;0;6.0523;45.605;52;20;9.8122;7.1821;0;0;0;14009;4371.8;5.9675;0.091564;NaN;1420.3;NaN;0.054981;2990908;1999.2;2.1007;0.57709;0.64368;0.33644;0.16633;0.074324;NaN;NaN;NaN;NaN;NaN;NaN;NaN;NaN;0.0017345;140;153.94;70;0;NaN;14.343;1001.4;339.99;0.01;0.0067731
0.17;1.2966;17.882;125.61;19.03;133.67;0.47194;0;0.47194;0;6.5086;45.719;52;20;9.8122;6.6757;0;0;0;13999;4361.9;5.9647;0.091557;NaN;1420;NaN;0.058862;3201953;2002.8;2.38;0.57715;0.63628;0.33642;0.16637;0.07436;NaN;NaN;NaN;NaN;NaN;NaN;NaN;NaN;0.0018652;140;153.94;70;0;NaN;14.342;1001.4;339.99;0.01;0.007092
0.18;1.4818;19.139;125.92;20.367;134;0.53931;0;0.53931;0;6.9661;45.832;52;20;9.8122;6.2311;0;0;0;13989;4352;5.9619;0.09155;NaN;1419.7;NaN;0.062756;3413737;2006.3;2.6783;0.57721;0.62995;0.33641;0.1664;0.074398;NaN;NaN;NaN;NaN;NaN;NaN;NaN;NaN;0.0019963;140;153.94;70;0;NaN;14.34;1001.3;339.99;0.01;0.0074077
0.19;1.6794;20.399;126.23;21.708;134.33;0.61127;0;0.61127;0;7.4247;45.945;52;20;9.8122;5.8376;0;0;0;13979;4342.2;5.959;0.091543;NaN;1419.3;NaN;0.066663;3626220;2009.8;2.9961;0.57727;0.62451;0.33639;0.16645;0.074438;NaN;NaN;NaN;NaN;NaN;NaN;NaN;NaN;0.0021278;140;153.94;70;0;NaN;14.339;1001.3;339.99;0.01;0.0079066
0.2;1.8897;21.662;126.54;23.052;134.66;0.68781;0;0.68781;0;7.8844;46.058;52;20;9.8122;5.4869;0;0;0;13969;4332.3;5.9562;0.091536;NaN;1419;NaN;0.070583;3839370;2013.3;3.3335;0.57734;0.61983;0.33637;0.16649;0.074481;NaN;NaN;NaN;NaN;NaN;NaN;NaN;NaN;0.0022595;140;153.94;70;0;NaN;14.338;1001.3;339.99;0.01;0.0085092
0.21;2.1127;22.928;126.85;24.4;134.99;0.76896;0;0.76896;0;8.3452;46.17;52;20;9.8122;5.2877;0;0;0;13959;4322.4;5.9534;0.091529;NaN;1418.7;NaN;0.074586;4057003;2016.9;3.7068;0.57742;0.61727;0.33635;0.16654;0.074528;NaN;NaN;NaN;NaN;NaN;NaN;NaN;NaN;0.0023916;140;153.94;70;0;NaN;14.336;1001.3;339.99;0.01;0.0090608
0.22;2.3483;24.197;127.16;25.75;135.32;0.85472;0;0.85472;0;8.8071;46.282;52;20;9.8122;5.108;0;0;0;13950;4312.5;5.9505;0.091521;NaN;1418.4;NaN;0.078599;4275189;2020.4;4.1013;0.5775;0.61503;0.33633;0.16659;0.074577;NaN;NaN;NaN;NaN;NaN;NaN;NaN;NaN;0.0025239;140;153.94;70;0;NaN;14.335;1001.2;339.99;0.01;0.0094015
0.23;2.5967;25.47;127.46;27.104;135.64;0.94511;0;0.94511;0;9.2702;46.393;52;20;9.8122;4.9453;0;0;0;13940;4302.6;5.9477;0.091514;NaN;1418.1;NaN;0.082622;4493920;2023.9;4.5172;0.57758;0.61304;0.33631;0.16665;0.074629;NaN;NaN;NaN;NaN;NaN;NaN;NaN;NaN;0.0026566;140;153.94;70;0;NaN;14.333;1001.2;339.98;0.01;0.0097754
0.24;2.8577;26.745;127.77;28.461;135.97;1.0401;0;1.0401;0;9.7343;46.504;52;20;9.8122;4.7972;0;0;0;13930;4292.8;5.9449;0.091507;NaN;1417.8;NaN;0.086655;4713189;2027.4;4.9546;0.57767;0.61128;0.33629;0.1667;0.074684;NaN;NaN;NaN;NaN;NaN;NaN;NaN;NaN;0.0027897;140;153.94;70;0;NaN;14.331;1001.2;339.98;0.01;0.010088
0.25;3.1316;28.023;128.07;29.822;136.29;1.1398;0;1.1398;0;10.2;46.614;52;20;9.8122;4.6617;0;0;0;13920;4282.9;5.942;0.0915;NaN;1417.5;NaN;0.090698;4932990;2031;5.4136;0.57777;0.60972;0.33626;0.16676;0.074742;NaN;NaN;NaN;NaN;NaN;NaN;NaN;NaN;0.002923;140;153.94;70;0;NaN;14.33;1001.2;339.98;0.01;0.010399
0.26;3.4182;29.305;128.38;31.185;136.61;1.2441;0;1.2441;0;10.666;46.725;52;20;9.8122;4.4764;0;0;0;13910;4273;5.9392;0.091493;NaN;1417.2;NaN;0.094706;5150818;2034.5;5.8818;0.57786;0.60759;0.33624;0.16682;0.074801;NaN;NaN;NaN;NaN;NaN;NaN;NaN;NaN;0.0030567;140;153.94;70;0;NaN;14.328;1001.1;339.98;0.01;0.010718
0.27;3.7177;30.589;128.68;32.552;136.94;1.3531;0;1.3531;0;11.133;46.835;52;20;9.8122;4.3058;0;0;0;13900;4263.1;5.9363;0.091486;NaN;1416.8;NaN;0.098724;5369196;2038;6.3713;0.57796;0.6057;0.33621;0.16689;0.074864;NaN;NaN;NaN;NaN;NaN;NaN;NaN;NaN;0.0031906;140;153.94;70;0;NaN;14.326;1001.1;339.98;0.01;0.011027
0.28;4.03;31.876;128.98;33.922;137.26;1.4668;0;1.4668;0;11.602;46.945;52;20;9.8122;4.1481;0;0;0;13890;4253.2;5.9335;0.091478;NaN;1416.5;NaN;0.10275;5588116;2041.5;6.8823;0.57807;0.60401;0.33618;0.16696;0.074929;NaN;NaN;NaN;NaN;NaN;NaN;NaN;NaN;0.0033249;140;153.94;70;0;NaN;14.324;1001;339.98;0.01;0.011342
0.29;4.3552;33.167;129.28;35.295;137.58;1.5852;0;1.5852;0;12.072;47.054;52;20;9.8122;4.002;0;0;0;13880;4243.4;5.9306;0.091471;NaN;1416.2;NaN;0.10679;5807569;2045.1;7.415;0.57818;0.60249;0.33616;0.16703;0.074997;NaN;NaN;NaN;NaN;NaN;NaN;NaN;NaN;0.0034595;140;153.94;70;0;NaN;14.322;1001;339.98;0.01;0.011662
0.3;4.6934;34.46;129.58;36.672;137.9;1.7082;0;1.7082;0;12.543;47.163;52;20;9.8122;3.8661;0;0;0;13871;4233.5;5.9278;0.091464;NaN;1415.9;NaN;0.11084;6027550;2048.6;7.9695;0.5783;0.60113;0.33613;0.1671;0.075068;NaN;NaN;NaN;NaN;NaN;NaN;NaN;NaN;0.0035944;140;153.94;70;0;NaN;14.319;1001;339.98;0.01;0.011972
0.31;5.0444;35.757;129.14;38.052;138.23;1.836;0;1.836;0;13.014;49.294;52;20;9.8122;3.68;0;0;0;13861;4223.6;5.9249;0.091457;1847.4;1415.6;3.0845;0.11484;6245198;2053;8.5293;0.57841;0.59929;0.33609;0.16718;0.07514;1.1702;3.6092;-1.5849e-4;0;0;0;0;0;0.0037297;140;153.94;70;0;NaN;14.317;1000.9;339.98;0.015;0.012298
0.325;5.5953;37.696;129.63;40.127;138.74;2.0368;1.7101e-7;2.0368;4.8107e-6;13.754;49.446;52;20;9.8122;3.46;0;1.0678;-7.1758e-5;13848;4211.3;5.9213;0.091448;1850.2;1415.2;3.1074;0.12088;6572973;2059.6;9.4163;0.5786;0.59724;0.33605;0.1673;0.075254;1.0956;3.4035;2.6239e-4;0;0;0;0;6.5503e-4;0.0039345;140;153.94;69.992;1.1798e-6;NaN;14.314;1000.9;339.97;0.0225;0.01263
0.3475;6.4763;40.617;130.33;43.253;139.51;2.3588;1.0956e-6;2.3588;2.6612e-5;14.869;49.762;52;20;9.8121;3.1354;0;2.75;1.3533e-5;13830;4192.7;5.9159;0.091434;1854.4;1414.6;3.1418;0.12997;7066776;2069.5;10.834;0.5789;0.59444;0.33597;0.16749;0.075437;0.98658;3.096;1.766e-4;0;0;0;0;0.0037577;0.0042429;140;153.94;69.949;5.3975e-6;NaN;14.308;1000.8;339.97;0.03375;0.013167
0.38125;7.9215;45.023;131.32;47.97;140.65;2.889;4.0969e-6;2.889;8.1251e-5;16.554;50.352;52;20;9.8121;2.856;0;5.4936;6.2703e-5;13802;4164.9;5.9079;0.091414;1858.2;1413.7;3.1749;0.14392;7824410;2083.7;13.238;0.5794;0.59247;0.33584;0.16781;0.075744;0.89405;2.8267;6.2092e-5;0;0;0;0;0.01223;0.0047087;140;153.94;69.811;1.5385e-5;NaN;14.299;1000.6;339.96;0.046645;0.013484
0.42789;10.165;51.159;132.44;54.547;142.19;3.7163;1.1755e-5;3.7163;1.8123e-4;18.925;51.748;52;20;9.8121;2.2505;4.4113e-7;9.6292;3.8399e-4;13762;4125.2;5.8963;0.091385;1866.3;1412.4;3.2424;0.16323;8872583;2100;16.912;0.58018;0.58852;0.33564;0.16832;0.07622;0.69632;2.2287;2.1826e-4;0;0;0;0;0.029211;0.005359;140;153.94;69.459;5.7167e-5;NaN;14.284;1000.3;339.95;0.045911;0.01381
0.47381;12.653;57.239;133.16;61.087;143.61;4.6403;2.3744e-5;4.6403;2.9318e-4;21.338;53.781;52;20;9.8121;1.5216;7.1538e-7;13.357;0.0010138;13717;4079.5;5.8828;0.091352;1876.4;1410.9;3.3251;0.18237;9910726;2116.9;20.977;0.58106;0.585;0.33542;0.16889;0.076751;0.46412;1.4984;4.7416e-4;0;0;0;0;0.045031;0.0060082;140;153.94;68.929;1.4495e-4;NaN;14.268;1e3;339.95;0.05;0.014117
0.52381;15.681;63.889;133.65;68.28;145.17;5.7755;4.2616e-5;5.7755;4.2278e-4;24.089;56.662;52;20;9.8121;0.73137;5.8401e-7;16.318;0.0041765;13669;4032.1;5.8689;0.091318;1887.7;1409.4;3.4171;0.20351;11056325;2134.5;26.026;0.58214;0.58308;0.33515;0.16958;0.077405;0.21963;0.69672;6.0763e-5;0;0;0;0;0.053977;0.0067268;140;153.94;68.18;3.1709e-4;NaN;14.248;999.68;339.93;0.05;0.014427
0.57381;19.043;70.556;133.84;75.544;146.67;7.052;6.8611e-5;7.052;5.5745e-4;26.996;59.999;52;20;9.8121;0.0013869;6.4403e-7;-17.045;3.1199;13620;3982.7;5.8543;0.091282;1898.6;1407.7;3.5063;0.22495;12217376;2152.2;31.801;0.58337;0.58337;0.33484;0.17039;0.078143;4.1054e-4;0.049657;-0.0014325;0;0;0;0;-0.048207;0.0074589;140;153.94;67.33;5.1712e-4;NaN;14.226;999.29;339.92;0.05;0.01474
0.62381;22.738;77.228;133.83;82.877;148.14;8.4781;1.0374e-4;8.4781;7.0109e-4;30.074;63.54;52;20;9.8121;0.67185;-6.5488e-7;-15.709;0.0073204;13570;3933.3;5.8396;0.091246;1889.3;1406.1;3.4516;0.24653;13385252;2169.8;38.321;0.58473;0.58553;0.33449;0.17127;0.078959;0.20213;0.73194;7.3762e-5;0;0;0;0;-0.034095;0.0082049;140;153.94;66.491;0.0014368;NaN;14.202;998.85;339.91;0.05;0.015052
0.67381;26.766;83.899;133.95;90.274;149.56;10.063;1.5135e-4;10.063;8.6176e-4;33.323;66.535;52;20;9.8121;1.0391;-6.9557e-7;-10.847;0.0045166;13521;3884;5.8248;0.09121;1884.5;1404.4;3.4294;0.26845;1.457e7;2184.6;45.62;0.58626;0.58815;0.33411;0.17228;0.079865;0.31566;1.0966;-4.2651e-4;0;0;0;0;-0.013711;0.0089647;140;153.94;65.817;0.0023313;NaN;14.176;998.38;339.89;0.03415;0.015361
0.70796;29.709;88.466;134.21;95.365;150.36;11.24;1.935e-4;11.24;9.8641e-4;35.613;67.799;52;20;9.8121;1.0359;0;-6.5883;0.0032585;13479;3842.4;5.8123;0.09118;1884.9;1403;3.442;0.28371;15394596;2196;51.037;0.58741;0.58929;0.33383;0.17304;0.080542;0.31513;1.089;-4.9343e-4;0;0;0;0;-0.0045287;0.0094905;140;153.94;65.518;0.0028472;NaN;14.157;998.04;339.88;0.03073;0.015672
0.73869;32.491;92.589;134.73;99.972;151.13;12.366;2.3946e-4;12.366;0.0011095;37.705;68.47;52;20;9.8121;0.94227;-4.7628e-7;-2.5378;0.0028418;13447;3810.3;5.8026;0.091157;1886.5;1401.9;3.4612;0.29747;16137417;2206.9;56.164;0.58849;0.59006;0.33356;0.17375;0.081183;0.28644;0.99218;4.0361e-4;0;0;0;0;-6.1126e-4;0.0099675;140;153.94;65.378;0.0032061;NaN;14.139;997.71;339.87;0.03064;0.015976
0.76933;35.391;96.721;135.5;104.59;151.89;13.553;2.9364e-4;13.553;0.0012413;39.803;68.623;52;20;9.8121;0.7627;-5.9602e-7;1.279;0.0023577;13417;3780;5.7935;0.091135;1889.3;1400.9;3.4888;0.31123;16879402;2218.3;61.523;0.58965;0.59069;0.33328;0.17452;0.081856;0.23129;0.80688;3.4632e-4;0;0;0;0;1.4184e-4;0.010446;140;153.94;65.359;0.0034006;NaN;14.12;997.37;339.86;0.034377;0.016278
0.8037;38.796;101.39;136.65;109.8;152.73;14.962;3.6495e-4;14.962;0.0013975;42.152;68.215;52;20;9.812;0.48268;-7.3091e-7;4.7317;0.0014599;13385;3747.9;5.7837;0.091112;1893.6;1399.8;3.5276;0.3267;17713126;2233;67.851;0.59102;0.59144;0.33295;0.17543;0.082648;0.14574;0.51283;-2.6862e-5;0;0;0;0;0.0017619;0.010985;140;153.94;65.466;0.0034215;NaN;14.098;996.97;339.84;0.049023;0.016588
0.85272;43.932;108.11;138.58;117.28;153.94;17.11;4.8599e-4;17.11;0.0016274;45.462;67.044;52;20;9.812;0.08689;-4.4226e-7;7.2723;0.003606;13344;3706.7;5.7712;0.091082;1899.9;1398.4;3.5821;0.34864;18893878;2250.5;77.436;0.59307;0.59308;0.33245;0.17679;0.083837;0.026078;0.089957;-6.9925e-5;0;0;0;0;0.0036552;0.011755;140;153.94;65.773;0.0033037;NaN;14.064;996.37;339.82;0.05;0.016894
0.90272;49.511;115.07;140.59;124.98;155.01;19.466;6.3239e-4;19.466;0.0018613;48.761;65.303;52;20;9.812;0.34854;0;-5.7025;-7.3301e-4;13295;3657.8;5.7562;0.091046;1896.7;1396.7;3.5716;0.37137;20115906;2268.1;88.18;0.59539;0.59561;0.3319;0.17834;0.08515;0.10549;0.37869;3.0221e-4;0;0;0;0;-0.001981;0.012543;140;153.94;66.116;0.0032554;NaN;14.028;995.71;339.8;0.05;0.017214
0.95272;55.441;122.12;142.12;132.73;156.05;21.985;8.0124e-4;21.985;0.0020881;51.989;64.453;52;20;9.812;0.5545;3.875e-6;0.015924;-0.0018364;13245;3608.4;5.741;0.09101;1894.4;1394.9;3.5676;0.39431;21347200;2281.9;99.811;0.59787;0.59843;0.33131;0.18001;0.08656;0.16908;0.60289;-1.8918e-4;0;0;0;0;1.3705e-8;0.013331;140;153.94;66.27;0.0033006;NaN;13.99;995.02;339.78;0.028471;0.017545
0.9812;58.975;126.17;142.45;137.17;156.48;23.491;9.0723e-4;23.491;0.0022127;53.823;64.74;52;20;9.812;0.52772;4.7105e-6;4.1427;-0.0025889;13207;3569.6;5.729;0.090982;1895.2;1393.6;3.5829;0.40749;22053613;2291.9;106.88;0.59978;0.60029;0.33095;0.18142;0.087408;0.16112;0.57686;-1.8865e-4;0;0;0;0;8.6858e-4;0.013782;140;153.94;66.211;0.0034787;NaN;13.967;994.6;339.76;0.027816;0.01786
1.009;62.54;130.13;142.55;141.52;157.03;25.014;0.0010182;25.014;0.0023322;55.634;65.862;52;20;9.812;0.38149;4.7092e-6;7.7941;-0.0012378;13179;3541.8;5.7204;0.090962;1897.6;1392.6;3.6075;0.42036;22743165;2303.1;114.06;0.60199;0.60226;0.33059;0.18314;0.088263;0.11633;0.41721;3.7738e-4;0;0;0;0;0.0028893;0.014224;140;153.94;66.043;0.003714;NaN;13.943;994.19;339.75;0.0361;0.01817
1.0451;67.33;135.26;142.27;147.19;157.82;27.065;0.001174;27.065;0.0024853;58.049;68.316;52;20;9.812;0.061174;4.4465e-6;10.218;0.012436;13147;3510.3;5.7106;0.090939;1902.7;1391.5;3.652;0.43702;23634067;2318.3;123.76;0.60492;0.60493;0.33011;0.1854;0.089409;0.018574;0.06351;5.792e-6;0;0;0;0;0.0045955;0.014804;140;153.94;65.708;0.0040143;NaN;13.912;993.62;339.73;0.05;0.018476
1.0951;74.271;142.34;141.78;155.07;158.89;30.055;0.0014137;30.055;0.002695;61.545;71.711;52;20;9.8119;0.30543;4.0142e-6;-7.7742;0.0052328;13105;3467.7;5.6973;0.090908;1900;1389.9;3.6434;0.46032;24879112;2333.5;138.19;0.60914;0.60931;0.32941;0.18864;0.091087;0.093565;0.34353;-2.718e-4;0;0;0;0;-0.0023978;0.015617;140;153.94;65.234;0.0041805;NaN;13.867;992.81;339.7;0.036465;0.018791
1.1316;79.555;147.49;141.61;160.85;159.32;32.347;0.0016069;32.347;0.0028464;64.182;73.003;52;20;9.8119;0.398;3.7505e-6;-2.777;0.0082975;13062;3425;5.6839;0.090877;1899.3;1388.4;3.6494;0.47742;25790910;2344.2;149.36;0.61233;0.61262;0.32887;0.19108;0.092374;0.12251;0.44718;-3.3617e-4;0;0;0;0;-2.8447e-4;0.016217;140;153.94;65.037;0.0046057;NaN;13.833;992.19;339.68;0.025998;0.019096
1.1576;83.437;151.17;141.67;164.98;159.32;34.04;0.0017552;34.04;0.0029543;66.08;72.884;52;20;9.8119;0.3459;3.9644e-6;1.1479;0.0093729;13031;3393.7;5.674;0.090854;1900.5;1387.3;3.6659;0.48964;26441877;2348.2;157.61;0.61465;0.61488;0.32847;0.19286;0.093322;0.10659;0.39111;2.9909e-4;0;0;0;0;4.6218e-5;0.016646;140;153.94;65.017;0.0051621;NaN;13.808;991.74;339.67;0.028223;0.019415
1.1858;87.76;155.18;142;169.47;159.15;35.934;0.0019276;35.934;0.0030734;68.125;71.862;52;20.001;9.8119;0.19881;4.1759e-6;4.4613;0.0080958;13002;3365.1;5.6649;0.090834;1903.1;1386.2;3.6917;0.50289;27146908;2351.4;166.82;0.61722;0.61729;0.32803;0.19481;0.094378;0.061218;0.22502;2.8878e-5;0;0;0;0;6.6182e-4;0.017112;140;153.94;65.099;0.0055752;NaN;13.78;991.23;339.65;0.042335;0.019738
1.2281;94.457;161.2;142.75;176.2;158.83;38.882;0.0022101;38.882;0.0032568;71.12;69.623;52;20.001;9.8119;0.058033;3.9471e-6;-5.6425;0.013335;12964;3326.7;5.6527;0.090806;1906;1384.8;3.7223;0.52258;28193094;2355.6;181.11;0.62112;0.62113;0.32735;0.19777;0.095998;0.017884;0.067735;-2.5518e-4;0;0;0;0;-9.8056e-4;0.017807;140;153.94;65.329;0.0057234;NaN;13.736;990.44;339.62;0.05;0.020044
1.2781;102.7;168.36;143.41;184.13;158.42;42.524;0.0025799;42.524;0.0034762;74.542;67.315;52;20.001;9.8119;0.28867;6.2309e-6;-1.1794;0.0021353;12913;3276.4;5.6367;0.090769;1904;1383;3.7217;0.546;29435120;2359.1;199.09;0.62589;0.62605;0.32651;0.20138;0.098007;0.089807;0.33424;-4.9436e-4;0;0;0;0;-3.9251e-5;0.01862;140;153.94;65.522;0.0054565;NaN;13.682;989.48;339.59;0.026445;0.020352
1.3046;107.2;172.16;143.35;188.31;158.29;44.519;0.0027899;44.519;0.0035906;76.318;67.135;52;20.001;9.8118;0.3008;7.5508e-6;3.1552;0.001428;12872;3234.7;5.6234;0.090739;1904.7;1381.4;3.7373;0.55851;30096995;2361.4;209.07;0.6285;0.62868;0.32604;0.20334;0.099116;0.093847;0.3505;-4.253e-4;0;0;0;0;2.685e-4;0.019047;140;153.94;65.496;0.0053321;NaN;13.653;988.95;339.57;0.024058;0.02067
1.3286;111.38;175.6;142.79;192.12;158.1;46.374;0.0029889;46.374;0.0036928;77.941;67.884;52;20.001;9.8118;0.22146;7.3347e-6;6.7985;0.0042126;12844;3207.2;5.6145;0.090719;1906.6;1380.4;3.7584;0.5699;30699435;2364;218.39;0.63091;0.63101;0.32561;0.20516;0.10015;0.06915;0.25904;3.6004e-4;0;0;0;0;0.0011974;0.019437;140;153.94;65.375;0.0054013;NaN;13.626;988.46;339.56;0.03123;0.021018
1.3599;116.94;180.04;141.45;197.05;157.83;48.842;0.0032592;48.842;0.0038233;80.091;70.012;52;20.001;9.8118;0.01411;6.3294e-6;9.1333;0.094632;12814;3177.1;5.6048;0.090697;1910.6;1379.3;3.7954;0.58459;31475130;2367.5;230.75;0.63408;0.63408;0.32504;0.20753;0.10151;0.0044011;0.014269;4.1705e-5;0;0;0;0;0.0020541;0.019943;140;153.94;65.116;0.0057255;NaN;13.59;987.81;339.53;0.046845;0.021574
1.4067;125.52;186.62;139.3;204.43;157.41;52.672;0.0036926;52.672;0.0040167;83.457;73.304;52;20.001;9.8118;0.28602;7.4847e-6;-4.4198;0.0085536;12772;3134.6;5.591;0.090666;1908.7;1377.7;3.7927;0.60623;32615124;2370.6;249.83;0.63884;0.639;0.32417;0.21109;0.10358;0.090167;0.34193;-7.6885e-5;0;0;0;0;-4.4739e-4;0.020709;140;153.94;64.769;0.006601;NaN;13.534;986.8;339.5;0.020856;0.022126
1.4276;129.45;189.52;138.82;207.7;157.31;54.429;0.0038982;54.429;0.0041035;84.995;74.002;52;20.001;9.8118;0.34608;6.6593e-6;0.21555;0.0077849;12735;3097.7;5.579;0.09064;1908.7;1376.3;3.8028;0.61561;33107963;2372.3;258.37;0.64094;0.64118;0.32378;0.21266;0.1045;0.10948;0.41636;-2.1299e-4;0;0;0;0;1.032e-6;0.021052;140;153.94;64.723;0.0070333;NaN;13.509;986.34;339.49;0.016582;0.022438
1.4441;132.61;191.82;138.79;210.3;157.13;55.848;0.0040681;55.848;0.0041735;86.221;73.671;52;20.001;9.8118;0.31947;6.6409e-6;4.1846;0.0078495;12714;3077.3;5.5724;0.090625;1909.8;1375.5;3.816;0.62306;33498978;2373.9;265.24;0.64263;0.64283;0.32347;0.21392;0.10524;0.10119;0.38529;-2.0117e-4;0;0;0;0;3.7972e-4;0.021324;140;153.94;64.76;0.0072878;NaN;13.488;985.97;339.47;0.017479;0.022753
1.4616;135.98;194.25;139.21;213.04;156.86;57.366;0.0042537;57.366;0.0042484;87.498;72.282;52;20.001;9.8117;0.20391;6.302e-6;7.62;0.011557;12696;3058.8;5.5663;0.090611;1912.1;1374.8;3.8382;0.63102;33917100;2375.9;272.68;0.64445;0.64454;0.32314;0.21528;0.10604;0.064561;0.24683;-2.6501e-4;0;0;0;0;0.0012276;0.02161;140;153.94;64.865;0.0074428;NaN;13.466;985.57;339.46;0.026218;0.023066
1.4878;141.12;197.91;140.27;217.15;156.38;59.685;0.0045446;59.685;0.0043627;89.353;69.139;52;20.001;9.8117;0.043404;6.9335e-6;-9.1933;0.038615;12672;3035;5.5585;0.090594;1915.6;1373.9;3.8695;0.64305;34547600;2378.9;284.19;0.64724;0.64724;0.32262;0.21735;0.10727;0.01374;0.054433;-4.2426e-4;0;0;0;0;-0.0017209;0.022035;140;153.94;65.096;0.0075235;NaN;13.433;984.97;339.44;0.039327;0.023376
1.5272;149.01;203.45;141.27;223.28;155.7;63.251;0.0050078;63.251;0.0045363;91.99;65.472;52;20.001;9.8117;0.29569;9.8677e-6;-3.0505;0.0030954;12636;2999.3;5.5467;0.090568;1914;1372.5;3.8679;0.66106;3.549e7;2381.4;302.09;0.65148;0.65165;0.32183;0.22049;0.10915;0.094531;0.36598;-2.5343e-4;0;0;0;0;-1.7933e-4;0.022664;140;153.94;65.359;0.0073085;NaN;13.381;984.04;339.41;0.016303;0.023754
1.5435;152.35;205.76;141.2;225.82;155.53;64.759;0.0052084;64.759;0.0046081;93.055;65.218;52;20.001;9.8117;0.30079;1.0288e-5;1.1198;0.0016726;12606;2969;5.5367;0.090546;1914.8;1371.3;3.8817;0.66851;35879244;2382.9;309.66;0.65325;0.65344;0.3215;0.22181;0.10995;0.096369;0.37425;-4.5728e-4;0;0;0;0;2.3631e-5;0.022923;140;153.94;65.375;0.0072146;NaN;13.36;983.65;339.39;0.015567;0.024065
1.559;155.57;207.95;140.72;228.24;155.29;66.216;0.0054043;66.216;0.0046763;94.073;65.681;52;20.001;9.8117;0.25445;1.01e-5;4.8887;0.0031203;12589;2951.6;5.531;0.090534;1916.2;1370.7;3.8969;0.67568;36253133;2384.4;317.02;0.65498;0.65511;0.32117;0.22308;0.11072;0.081607;0.31723;-4.768e-4;0;0;0;0;4.4091e-4;0.023169;140;153.94;65.327;0.0071687;NaN;13.339;983.28;339.38;0.017966;0.024367
1.577;159.33;210.47;139.77;231.03;155;67.917;0.0056356;67.917;0.0047543;95.264;66.999;52;20.001;9.8117;0.14925;9.9458e-6;8.1738;0.0048207;12570;2933.4;5.5249;0.09052;1918.7;1370;3.9193;0.68398;36686018;2386.5;325.67;0.657;0.65704;0.32079;0.22457;0.11163;0.047876;0.186;-9.178e-5;0;0;0;0;0.001203;0.023454;140;153.94;65.208;0.0072226;NaN;13.314;982.84;339.37;0.02695;0.02468
1.604;165.05;214.21;137.9;235.2;154.57;70.509;0.0059932;70.509;0.0048701;97.107;69.832;52;20.001;9.8117;0.058471;9.3e-6;-9.2531;0.023557;12546;2908.9;5.5168;0.090503;1921.4;1369;3.9458;0.6964;37333066;2389.6;338.92;0.66005;0.66006;0.32022;0.22683;0.113;0.01879;0.076002;2.6603e-4;0;0;0;0;-0.0014873;0.023884;140;153.94;64.962;0.0074694;NaN;13.277;982.16;339.34;0.040425;0.024982
1.6444;173.82;219.74;135.84;241.42;153.87;74.492;0.0065552;74.492;0.0050419;99.994;72.264;52;20.001;9.8116;0.22222;1.467e-5;-2.6696;0.0060661;12509;2872.2;5.5045;0.090476;1921.4;1367.6;3.9563;0.71498;38299025;2392.2;359.44;0.66469;0.66479;0.31933;0.23025;0.11511;0.072044;0.28496;2.3955e-5;0;0;0;0;-1.1747e-4;0.024534;140;153.94;64.705;0.0080911;NaN;13.22;981.14;339.31;0.017816;0.025296
1.6622;177.76;222.16;135.72;244.16;153.58;76.285;0.0068142;76.285;0.005118;101.28;71.875;52;20.001;9.8116;0.19311;1.4606e-5;1.2195;0.0031387;12478;2840.5;5.4939;0.090453;1922.9;1366.3;3.9755;0.72313;38721724;2393.9;368.64;0.66676;0.66684;0.31894;0.23177;0.11605;0.062728;0.24891;-4.1118e-4;0;0;0;0;2.3968e-5;0.02482;140;153.94;64.693;0.0082734;NaN;13.195;980.67;339.29;0.01991;0.025604
1.6821;182.21;224.87;136.01;247.21;153.11;78.316;0.0071123;78.316;0.0052033;102.7;70.306;52;20.001;9.8116;0.095006;1.4044e-5;4.3446;0.0087448;12457;2820;5.4869;0.090438;1925.4;1365.5;3.9995;0.73221;39192056;2396.1;379.03;0.66908;0.6691;0.3185;0.23348;0.11711;0.030889;0.12357;1.1209e-4;0;0;0;0;2.9672e-4;0.025138;140;153.94;64.751;0.0084772;NaN;13.166;980.15;339.28;0.029865;0.025906
1.712;188.99;228.94;134.72;251.76;150.04;81.414;0.0075769;81.414;0.0053323;104.75;66.033;52;20.001;9.8116;0.098152;1.3754e-5;-4.2715;0.0014516;12430;2792.9;5.4778;0.090418;1927.2;1364.4;4.0199;0.74584;39897065;2365.5;395.03;0.67261;0.67263;0.31782;0.23607;0.11873;0.032056;0.12953;1.8465e-4;0;0;0;0;-2.7647e-4;0.02561;140;153.94;64.895;0.0087295;NaN;13.122;979.36;339.25;0.035907;0.026209
1.7479;197.29;233.77;122.29;257.12;135.53;85.217;0.0081638;85.217;0.005489;107.07;58.424;52;20.001;9.8116;0.18663;1.681e-5;2.5703;-0.0032259;12394;2757.1;5.4657;0.090392;1928.2;1363;4.0372;0.76198;40729410;2295;414.52;0.67686;0.67693;0.317;0.23918;0.12068;0.061388;0.24725;-3.4862e-6;0;0;0;0;9.5933e-5;0.02616;140;153.94;64.932;0.009019;NaN;13.068;978.38;339.22;0.018002;0.026521
1.7659;201.52;236.07;114.55;259.67;127.8;87.154;0.0084695;87.154;0.0055679;108.18;56.656;52;20.001;9.8115;0.092886;1.7492e-5;5.7335;-0.003729;12365;2728.2;5.4559;0.090371;1930.5;1361.8;4.0621;0.76939;4.111e7;2103.6;423.61;0.67883;0.67885;0.31662;0.24062;0.12159;0.030575;0.12335;-2.5335e-4;0;0;0;0;4.6823e-4;0.026422;140;153.94;64.855;0.0090255;NaN;13.04;977.89;339.2;0.027003;0.026838
1.7929;207.94;239.11;109.11;263.09;123.54;90.096;0.0089417;90.096;0.0056864;109.74;57.929;52;20.001;9.8115;0.089701;1.7549e-5;-5.6674;0.002317;12343;2706;5.4483;0.090355;1932;1360.9;4.0789;0.77928;41614288;2065.6;435.94;0.68149;0.68151;0.3161;0.24257;0.12282;0.029628;0.12144;3.3794e-4;0;0;0;0;-4.4603e-4;0.026777;140;153.94;64.688;0.0088678;NaN;12.998;977.13;339.18;0.034974;0.027143
1.8279;216.37;242.9;105.37;267.39;119.98;93.97;0.009575;93.97;0.0058381;111.79;57.373;52;20.001;9.8115;0.13625;1.9705e-5;0.45897;0.0020345;12314;2677.1;5.4384;0.090334;1933.2;1359.8;4.0958;0.79199;4.226e7;2041.9;452.11;0.68494;0.68498;0.31543;0.24509;0.12442;0.04525;0.18489;-3.574e-4;0;0;0;0;2.8326e-6;0.027228;140;153.94;64.595;0.0088297;NaN;12.944;976.15;339.14;0.022223;0.027453
1.8501;221.79;245.25;104.56;270.05;118.28;96.469;0.0099899;96.469;0.0059333;113.05;55.29;52;20.001;9.8115;0.054707;2.0186e-5;3.4396;-0.0051517;12288;2650.7;5.4294;0.090315;1935.5;1358.7;4.1198;0.79993;42663154;2018.9;462.37;0.68712;0.68713;0.315;0.24668;0.12544;0.018194;0.075218;-1.2699e-4;0;0;0;0;1.5596e-4;0.027507;140;153.94;64.642;0.0090375;NaN;12.908;975.51;339.12;0.033335;0.027774
1.8834;230.02;248.74;102.63;273.96;114.56;100.27;0.01063;100.27;0.0060746;114.83;50.903;52;20.001;9.8115;0.10113;1.7587e-5;-1.9765;-0.0072127;12262;2625.1;5.4206;0.090297;1936.6;1357.6;4.1353;0.81171;43258835;1993.7;477.88;0.69039;0.69041;0.31437;0.24907;0.12696;0.033814;0.14023;-1.5661e-4;0;0;0;0;-5.0025e-5;0.027914;140;153.94;64.75;0.0096806;NaN;12.855;974.54;339.09;0.027849;0.028084
1.9113;236.99;251.6;100.43;277.15;112.11;103.48;0.011185;103.48;0.0061928;116.24;49.823;52;20.002;9.8114;0.10157;1.8714e-5;2.739;-0.015586;12234;2596.8;5.4108;0.090276;1938;1356.5;4.1538;0.82119;43736129;1971;490.57;0.69305;0.69307;0.31384;0.251;0.1282;0.034086;0.14188;1.5718e-4;0;0;0;0;9.3877e-5;0.028242;140;153.94;64.738;0.01026;NaN;12.81;973.73;339.06;0.026868;0.028398
1.9381;243.79;254.27;97.127;280.15;109.67;106.63;0.01174;106.63;0.0063084;117.6;50.937;52;20.002;9.8114;0.011167;1.8816e-5;-4.6079;-0.097143;12209;2571.6;5.4021;0.090258;1940.6;1355.4;4.1797;0.82997;44176258;1943.3;502.49;0.69553;0.69553;0.31336;0.25281;0.12936;0.0037542;0.015739;-3.9442e-4;0;0;0;0;-2.6015e-4;0.028554;140;153.94;64.63;0.010528;NaN;12.765;972.93;339.03;0.040301;0.028719
1.9784;254.11;258.14;92.983;284.53;105.81;111.41;0.012608;111.41;0.0064841;119.68;50.494;52;20.002;9.8114;0.066337;2.4289e-5;-0.82864;-0.0091969;12178;2540.6;5.3913;0.090235;1941.9;1354.2;4.1981;0.84308;44831670;1915.9;520.63;0.69928;0.69929;0.31262;0.25553;0.13113;0.022446;0.09452;3.116e-4;0;0;0;0;-8.1554e-6;0.029013;140;153.94;64.518;0.010278;NaN;12.698;971.72;338.99;0.038204;0.029022
2.0166;264.04;261.69;91.174;288.55;103.28;116.02;0.013465;116.02;0.0066497;121.58;48.528;52;20.002;9.8114;0.018972;2.2693e-5;1.1373;-0.029551;12143;2505.6;5.3791;0.09021;1944.4;1352.7;4.2265;0.855;45424238;1895.4;537.45;0.70273;0.70273;0.31194;0.25804;0.13275;0.006446;0.027435;4.071e-4;0;0;0;0;1.4941e-5;0.029434;140;153.94;64.533;0.0093918;NaN;12.634;970.55;338.95;0.05;0.029328
2.0666;277.24;266.23;88.719;293.67;99.637;122.16;0.014616;122.16;0.0068555;123.96;45.35;52;20.002;9.8113;0.058017;1.7519e-5;-0.11962;-0.013888;12105;2468;5.3659;0.090182;1946.3;1351.1;4.2513;0.8701;46170609;1874.6;559.21;0.70715;0.70716;0.31106;0.26125;0.13484;0.019858;0.084572;2.7393e-4;0;0;0;0;-1.5964e-7;0.029969;140;153.94;64.591;0.010522;NaN;12.548;969.01;338.9;0.04001;0.02964
2.1066;287.96;269.76;86.099;297.64;97.192;127.15;0.015576;127.15;0.0070188;125.77;45.092;52;20.002;9.8113;0.025151;1.7654e-5;4.0285;0.007598;12067;2429.8;5.3525;0.090155;1948.7;1349.5;4.2801;0.88223;46768302;1853.9;577.09;0.71075;0.71075;0.31034;0.26386;0.13655;0.0086506;0.036823;-3.6138e-4;0;0;0;0;1.7616e-4;0.030381;140;153.94;64.496;0.010819;NaN;12.478;967.75;338.86;0.05;0.029945
2.1566;301.56;273.99;82.167;302.46;93.749;133.5;0.016823;133.5;0.0072204;128.09;45.137;52;20.002;9.8112;0.042015;1.9987e-5;0.60344;0.016394;12029;2391.6;5.339;0.090127;1950.8;1347.9;4.3067;0.89629;47454015;1830.8;598.18;0.71498;0.71498;0.3095;0.26692;0.13855;0.014551;0.062997;5.2913e-5;0;0;0;0;3.8309e-6;0.030888;140;153.94;64.417;0.011284;NaN;12.39;966.15;338.81;0.05;0.03025
2.2066;315.36;278.11;79.592;307.1;90.162;139.96;0.018129;139.96;0.0074218;130.27;42.359;52;20.002;9.8112;0.015204;2.3028e-5;1.0891;0.017225;11986;2349.2;5.3239;0.090096;1953.5;1346.1;4.339;0.91031;48135046;1807.7;621.66;0.72155;0.72155;0.30758;0.27338;0.14059;0.0052987;0.023083;-4.5344e-4;0;0;0;0;1.21e-5;0.031374;140;153.94;64.418;0.011004;NaN;12.3;964.54;338.75;0.05;0.030566
2.2566;329.36;282.03;76.171;311.57;86.754;146.52;0.019478;146.52;0.0076166;132.42;41.524;52;20.002;9.8112;0.014248;2.3026e-5;1.402;0.015977;11944;2306.8;5.3088;0.090066;1955.7;1344.3;4.3674;0.92297;48741305;1784.6;643.93;0.72828;0.72828;0.3055;0.28034;0.14245;0.0049963;0.022112;4.8703e-4;0;0;0;0;1.9514e-5;0.031845;140;153.94;64.434;0.012024;NaN;12.209;962.89;338.7;0.05;0.030874
2.3066;343.56;285.83;73.46;315.87;83.297;153.2;0.02089;153.2;0.0078129;134.44;39.267;52;20.002;9.8111;0.016655;2.2268e-5;0.28446;-0.010083;11901;2264.4;5.2935;0.090035;1957.8;1342.4;4.3953;0.93556;49341031;1762.6;666.59;0.73503;0.73503;0.30342;0.28728;0.14433;0.005877;0.026288;-6.8352e-5;0;0;0;0;7.8204e-7;0.032295;140;153.94;64.464;0.012374;NaN;12.117;961.23;338.64;0.05;0.031176
2.3566;357.94;289.46;70.046;319.99;80.029;159.97;0.022359;159.97;0.0080085;136.41;38.706;52;20.002;9.8111;0.015974;2.3047e-5;-0.59258;0.016224;11861;2223.5;5.2788;0.090005;1959.8;1340.6;4.4225;0.94773;49916334;1741.8;688.96;0.74162;0.74162;0.30142;0.29403;0.14617;0.0056695;0.025463;6.9462e-6;0;0;0;0;-3.3084e-6;0.032728;140;153.94;64.416;0.011714;NaN;12.023;959.54;338.59;0.05;0.031497
2.4066;372.5;292.93;67.434;323.96;76.742;166.84;0.023876;166.84;0.0081997;138.34;36.632;52;20.002;9.811;0.0065824;2.2048e-5;-1.7438;0.022742;11821;2184.3;5.2645;0.089977;1961.7;1338.9;4.4486;0.95885;50433280;1721;710.08;0.74807;0.74807;0.29959;0.30061;0.14787;0.0023482;0.010507;1.0076e-4;0;0;0;0;-2.8e-5;0.033146;140;153.94;64.49;0.012993;NaN;11.929;957.83;338.53;0.05;0.031822
2.4566;387.23;296.28;64.475;327.75;73.425;173.8;0.025464;173.8;0.0083948;140.14;35.13;52;20.003;9.811;0.0089271;3.0962e-5;0.48434;0.0068509;11782;2145.2;5.2503;0.089948;1963.4;1337.2;4.4733;0.96996;50947824;1700.2;731.71;0.75466;0.75466;0.29776;0.30731;0.14959;0.003201;0.014036;-9.8104e-5;0;0;0;0;2.1115e-6;0.033544;140;153.94;64.494;0.012709;NaN;11.833;956.11;338.47;0.05;0.032131
2.5066;402.13;299.47;61.196;331.38;70.099;180.85;0.027108;180.85;0.0085881;141.88;34.188;52;20.003;9.8109;0.0067115;2.9245e-5;-1.2991;-0.0025724;11743;2106.1;5.2359;0.08992;1965.2;1335.4;4.4982;0.98101;51457102;1679.4;753.65;0.76126;0.76126;0.29594;0.314;0.15132;0.0024182;0.010752;-4.2724e-4;0;0;0;0;-1.4854e-5;0.033927;140;153.94;64.425;0.01341;NaN;11.736;954.37;338.41;0.05;0.032439
2.5566;417.18;302.5;58.329;334.85;66.796;187.99;0.028816;187.99;0.0087829;143.58;32.549;52;20.003;9.8109;0.0020098;2.7975e-5;0.34356;0.067059;11704;2067;5.2215;0.089891;1966.8;1333.7;4.5223;0.99133;5.193e7;1658.6;774.49;0.76747;0.76747;0.29424;0.32027;0.15295;7.2721e-4;0.0034914;-4.1005e-4;0;0;0;0;1.0178e-6;0.034293;140;153.94;64.406;0.013018;NaN;11.638;952.69;338.35;0.05;0.032759
2.6066;432.38;305.39;55.356;338.15;63.492;195.2;0.030568;195.2;0.0089723;145.19;31.095;52;20.003;9.8108;0.0036682;2.5456e-5;0.48087;-0.07296;11665;2027.9;5.2071;0.089863;1968.2;1331.9;4.5449;1.0012;52374604;1637.9;795.35;0.77411;0.77411;0.29262;0.32733;0.15416;0.0013324;0.0060516;3.8296e-5;0;0;0;0;1.9556e-6;0.034642;140;153.94;64.384;0.015175;NaN;11.54;950.99;338.29;0.05;0.033068
2.6566;447.71;308.12;52.296;341.28;60.208;202.5;0.032401;202.5;0.0091676;146.73;29.835;52;20.003;9.8108;1.0042e-4;2.6665e-5;0;0;11626;1989.2;5.1927;0.089835;1969.6;1330.2;4.5674;1.0108;52806024;1618.2;816.86;0.78142;0.78142;0.29104;0.33769;0.15269;3.6605e-5;-1.3304e-4;3.9241e-4;0;0;0;0;0;0.034973;140;153.94;64.325;0.014028;NaN;11.44;949.28;338.23;0.05;0.033383
2.7066;463.19;310.71;49.299;344.24;56.94;209.88;0.03428;209.88;0.0093584;148.2;28.493;52;20.003;9.8107;1.9749e-4;2.4739e-5;0.39025;-1.64;11589;1951.9;5.1787;0.089808;1970.9;1328.5;4.5886;1.0201;53220982;1598.8;838.1;0.78856;0.78856;0.2895;0.34776;0.15129;7.2218e-5;4.4808e-4;9.5135e-5;0;0;0;0;1.2415e-6;0.035288;140;153.94;64.246;0.01502;NaN;11.339;947.55;338.17;0.05;0.033704
2.7566;478.78;313.14;46.166;347.04;53.73;217.32;0.036223;217.32;0.00955;149.61;27.489;52;20.003;9.8107;0.010235;1.7796e-5;-1.7025;0.018856;11553;1915.5;5.165;0.089781;1971.9;1326.8;4.6078;1.029;53611760;1579.4;858.73;0.79551;0.79551;0.28803;0.35749;0.14998;0.0037541;0.017427;3.1153e-4;0;0;0;0;-2.3229e-5;0.035587;140;153.94;64.15;0.014825;NaN;11.238;945.81;338.11;0.05;0.034018
2.8066;494.5;315.42;43.779;349.69;50.56;224.84;0.038218;224.84;0.0097392;150.97;25.292;52;20.003;9.8106;0.017028;1.6967e-5;0.82204;0.019576;11516;1879.1;5.1513;0.089755;1972.8;1325.1;4.6263;1.037;53953480;1560.1;877.39;0.80178;0.80178;0.28672;0.36624;0.14882;0.0062606;0.029153;1.0657e-4;0;0;0;0;5.3341e-6;0.03587;140;153.94;64.141;0.013838;NaN;11.136;944.05;338.05;0.05;0.034325
2.8566;510.32;317.57;40.43;352.17;47.577;232.42;0.040251;232.42;0.0099229;152.25;25.081;52;20.003;9.8106;0.015981;3.0901e-5;-1.1288;0.0017677;11480;1842.6;5.1375;0.089729;1973.7;1323.4;4.6453;1.045;54289432;1541;896.14;0.80805;0.80805;0.28541;0.37495;0.1477;0.0058874;0.027144;3.129e-4;0;0;0;0;-9.9091e-6;0.036136;140;153.94;64.031;0.015105;NaN;11.033;942.28;337.98;0.05;0.034988
2.9066;526.25;319.57;38.39;354.51;44.961;240.06;0.042345;240.06;0.010107;153.46;23.403;52;20.004;9.8105;0.001494;3.5677e-5;0.84197;-0.29913;11444;1806.6;5.1237;0.089702;1974.7;1321.7;4.6643;1.052;54575851;1524.9;911.45;0.81248;0.81248;0.28426;0.38151;0.14671;5.5117e-4;0.0023536;1.4238e-4;0;0;0;0;5.4422e-6;0.036387;140;153.94;64.025;0.01655;NaN;10.929;940.5;337.92;0.05;0.035692
2.9566;542.28;321.47;36.74;356.73;42.757;247.76;0.044515;247.76;0.010294;154.64;21.87;52;20.004;9.8105;0.018872;4.9928e-5;-0.025604;-0.018235;11409;1771.6;5.1103;0.089677;1975.2;1320.1;4.6795;1.0584;54831849;1509.5;922.48;0.81387;0.81387;0.28319;0.38486;0.14582;0.0069737;0.032467;-3.888e-4;0;0;0;0;0;0.036627;140;153.94;64.042;0.014031;NaN;10.825;938.71;337.86;0.05;0.035999
3.0066;558.39;323.28;34.298;358.84;40.666;255.52;0.046706;255.52;0.010473;155.75;21.85;52;20.004;9.8104;0.0078295;6.7083e-5;-0.3435;0.0063265;11374;1737.1;5.0971;0.089652;1976;1318.4;4.6971;1.065;55094436;1494.1;933.9;0.81533;0.81533;0.28211;0.38831;0.14491;0.0028961;0.014032;-2.6831e-4;0;0;0;0;-8.8437e-7;0.036855;140;153.94;63.964;0.015949;NaN;10.72;936.91;337.8;0.05;0.036309
3.0566;574.6;324.99;32.172;360.84;38.519;263.34;0.04897;263.34;0.010655;156.81;21.182;52;20.004;9.8104;0.014856;6.7461e-5;-1.7675;-0.041733;11340;1702.7;5.0838;0.089627;1976.6;1316.8;4.7127;1.0715;55349081;1478.6;945.15;0.81677;0.81677;0.28104;0.3917;0.14403;0.0055013;0.025649;4.6002e-4;0;0;0;0;-2.3141e-5;0.03707;140;153.94;63.887;0.017396;NaN;10.615;935.1;337.73;0.05;0.036628
3.1066;590.89;326.6;30.374;362.73;36.318;271.2;0.051305;271.2;0.010839;157.83;19.911;52;20.004;9.8103;0.0043211;7.0346e-5;-2.0425;-0.21638;11305;1668.3;5.0704;0.089602;1977.3;1315.1;4.7296;1.0777;55585616;1463.1;955.81;0.81816;0.81816;0.28002;0.39493;0.14321;0.0016012;0.0071961;-2.9089e-4;0;0;0;0;-3.0562e-5;0.037276;140;153.94;63.826;0.017946;NaN;10.509;933.28;337.67;0.05;0.036937
3.1566;607.26;328.1;28.839;364.52;33.993;279.12;0.053719;279.12;0.011027;158.83;17.996;52;20.004;9.8103;0.022874;7.283e-5;1.0843;2.1376e-4;11271;1634.1;5.0571;0.089577;1977.5;1313.5;4.7432;1.0832;55787959;1445.9;965.22;0.81942;0.81942;0.27911;0.39783;0.14248;0.0084836;0.039885;-5.4387e-5;0;0;0;0;8.5283e-6;0.037471;140;153.94;63.814;0.01461;NaN;10.403;931.45;337.6;0.05;0.037245
3.2066;623.7;329.5;26.403;366.19;31.862;287.08;0.056169;287.08;0.01121;159.77;17.835;52;20.004;9.8102;9.267e-4;1.0195e-4;-0.068874;-0.13832;11238;1601;5.0441;0.089553;1978.3;1311.9;4.7599;1.0886;5.598e7;1428.2;974.28;0.82064;0.82064;0.27823;0.40063;0.14178;3.4371e-4;0.0014225;1.6752e-4;0;0;0;0;-3.4087e-8;0.037656;140;153.94;63.738;0.0156;NaN;10.296;929.62;337.54;0.05;0.037549
3.2566;640.21;330.81;24.397;367.76;29.717;295.09;0.05866;295.09;0.01139;160.65;16.967;52;20.004;9.8102;0.0020806;1.0012e-4;-0.5698;-0.25069;11206;1568.4;5.0313;0.08953;1978.6;1310.3;4.7739;1.0934;56144057;1410.5;982.34;0.82176;0.82176;0.27744;0.40317;0.14115;7.7193e-4;0.0032843;2.8504e-4;0;0;0;0;-2.3134e-6;0.037827;140;153.94;63.705;0.01964;NaN;10.189;927.77;337.47;0.05;0.03805
3.3066;656.78;332.03;21.952;369.21;27.702;303.15;0.061234;303.15;0.011573;161.48;16.897;52;20.004;9.8101;0.025885;6.7242e-5;-1.4075;-0.055073;11173;1535.9;5.0185;0.089506;1978.7;1308.7;4.7858;1.0984;56313868;1393.7;990.68;0.82291;0.82291;0.27662;0.40577;0.14052;0.0096096;0.04622;2.0132e-4;0;0;0;0;-1.3993e-5;0.037988;140;153.94;63.602;0.021782;NaN;10.081;925.92;337.41;0.044974;0.038649
3.3516;671.73;333.03;20.951;370.43;25.74;310.43;0.063635;310.43;0.011745;162.2;14.954;52;20.005;9.8101;0.0064801;5.4053e-5;1.0139;0.084787;11142;1505.1;5.0062;0.089484;1979.2;1307.1;4.8005;1.1021;5.643e7;1376.9;996.38;0.82348;0.82348;0.27616;0.40728;0.14004;0.002405;0.011264;1.2533e-4;0;0;0;0;7.2139e-6;0.038123;140;153.94;63.606;0.01654;NaN;9.9837;924.25;337.35;0.05;0.039176
3.4016;688.41;334.05;19.57;371.69;23.835;318.56;0.06632;318.56;0.011928;162.97;13.606;52;20.005;9.81;0.020942;3.6135e-5;-0.056369;0.027933;11111;1474.3;4.9939;0.089461;1979.3;1305.6;4.8118;1.1058;56533027;1361.3;1001.4;0.82379;0.82379;0.27583;0.4084;0.13957;0.0077742;0.036972;-1.0535e-4;0;0;0;0;-2.2159e-8;0.038265;140;153.94;63.612;0.015986;NaN;9.8753;922.39;337.28;0.05;0.039526
3.4516;705.14;335;17.232;372.85;22.461;326.72;0.069036;326.72;0.012107;163.69;14.407;52;20.005;9.81;0.020691;8.5949e-5;0.31139;-0.079188;11080;1442.7;4.9813;0.089438;1979.5;1304;4.825;1.1099;56653250;1346.8;1007.2;0.82414;0.82414;0.27546;0.40962;0.13906;0.0076803;0.036599;3.5375e-4;0;0;0;0;6.7153e-7;0.038397;140;153.94;63.498;0.018847;NaN;9.7666;920.52;337.22;0.05;0.039841
3.5016;721.91;335.89;15.162;373.94;21.107;334.92;0.071788;334.92;0.012281;164.34;14.684;52;20.005;9.8099;0.04762;1.1656e-4;-2.5056;-0.07277;11049;1411.7;4.9688;0.089416;1979.4;1302.5;4.8354;1.1138;56766133;1336.1;1012.7;0.82449;0.82449;0.27511;0.41081;0.13857;0.017682;0.085901;6.6853e-5;0;0;0;0;-4.319e-5;0.038518;140;153.94;63.392;0.022751;NaN;9.6576;918.64;337.15;0.023485;0.040147
3.5251;729.8;336.25;15.204;374.41;20.456;338.79;0.073121;338.79;0.012366;164.68;13.685;52;20.005;9.8099;0.025265;1.1422e-4;0.99358;-0.062129;11026;1389;4.9596;0.089399;1979.8;1301.3;4.8464;1.1155;56808692;1327.8;1014.9;0.82464;0.82464;0.27496;0.41131;0.13836;0.0093767;0.045145;-9.8012e-5;0;0;0;0;6.7727e-6;0.038574;140;153.94;63.379;0.020586;NaN;9.6063;917.76;337.12;0.035227;0.040459
3.5603;741.66;336.81;15.045;375.1;18.921;344.59;0.075145;344.59;0.012494;165.1;11.474;52;20.005;9.8099;0.020539;1.101e-4;0.86964;0.036614;11008;1371;4.9523;0.089386;1980;1300.4;4.8543;1.1178;56864925;1317.7;1017.9;0.82484;0.82484;0.27475;0.41202;0.13807;0.0076211;0.037424;2.7119e-4;0;0;0;0;5.1683e-6;0.038652;140;153.94;63.391;0.017414;NaN;9.5292;916.44;337.07;0.05;0.040776
3.6103;758.52;337.52;13.451;376.01;17.643;352.86;0.078038;352.86;0.012671;165.73;11.418;52;20.005;9.8098;0.0050559;1.4269e-4;-1.0552;-0.090042;10982;1345.2;4.9419;0.089368;1980.4;1299.1;4.8662;1.1206;56921658;1306.2;1021.3;0.8251;0.8251;0.27449;0.41288;0.13772;0.0018751;0.0093835;6.2503e-5;0;0;0;0;-7.5732e-6;0.038759;140;153.94;63.347;0.018574;NaN;9.4196;914.55;337.01;0.05;0.041086
3.6603;775.41;338.19;12.006;376.87;16.711;361.17;0.080985;361.17;0.012848;166.31;11.625;52;20.005;9.8098;0.014745;1.626e-4;0.84472;-0.073444;10952;1315.3;4.9297;0.089346;1980.4;1297.6;4.8771;1.123;56951482;1294.6;1023.7;0.82529;0.82529;0.27428;0.41358;0.13743;0.0054685;0.026683;-4.5199e-4;0;0;0;0;4.835e-6;0.038858;140;153.94;63.337;0.021273;NaN;9.3098;912.67;336.94;0.05;0.041396
3.7103;792.33;338.81;11.03;377.66;15.514;369.49;0.083984;369.49;0.013023;166.84;10.909;52;20.005;9.8097;0.010017;2.0273e-4;-1.1836;-0.23748;10922;1285.4;4.9174;0.089324;1980.5;1296;4.8894;1.1253;56981046;1283.3;1026.1;0.82548;0.82548;0.27407;0.41427;0.13715;0.0037138;0.017786;-1.9505e-4;0;0;0;0;-9.4561e-6;0.03895;140;153.94;63.335;0.024273;NaN;9.1998;910.77;336.87;0.05;0.04171
3.7603;809.29;339.37;10.61;378.39;14.973;377.85;0.087056;377.85;0.013201;167.36;10.565;52;20.006;9.8097;0.0066487;2.1343e-4;-2.0631;-0.42427;10893;1255.5;4.9052;0.089302;1980.7;1294.5;4.9017;1.1281;57029360;1279.9;1029.2;0.82571;0.82571;0.27382;0.41508;0.13681;0.0024641;0.011978;4.3194e-4;0;0;0;0;-2.8605e-5;0.039036;140;153.94;63.273;0.024153;NaN;9.0896;908.88;336.81;0.05;0.042013
3.8103;826.27;339.9;10.714;379.1;14.786;386.23;0.090219;386.23;0.013384;167.87;10.19;52;20.006;9.8096;0.0032348;1.9614e-4;1.8778;0.48467;10863;1225.9;4.8929;0.089281;1980.9;1292.9;4.9138;1.1307;5.707e7;1281.3;1032.1;0.82593;0.82593;0.27358;0.41585;0.1365;0.0011984;0.0059379;-4.0568e-4;0;0;0;0;2.3597e-5;0.039121;140;153.94;63.222;0.017819;NaN;8.9792;906.98;336.74;0.05;0.042319
3.8603;843.28;340.43;11.374;379.8;14.418;394.64;0.093442;394.64;0.013566;168.4;8.8609;52;20.006;9.8096;0.038007;1.6159e-4;0.88384;0.10853;10833;1196.4;4.8807;0.089259;1980.5;1291.4;4.9223;1.1329;57090996;1282.3;1034.2;0.82612;0.82612;0.27338;0.41651;0.13623;0.014085;0.069388;-2.9313e-4;0;0;0;0;5.2092e-6;0.039205;140;153.94;63.231;0.0093396;NaN;8.8687;905.08;336.67;0.028019;0.04263
3.8884;852.82;340.73;10.453;380.2;14.91;399.36;0.095175;399.36;0.013655;168.67;10.632;52;20.006;9.8095;0.0084948;1.6745e-4;-2.4175;0.035063;10810;1173.4;4.8711;0.089243;1980.9;1290.2;4.934;1.1342;57103978;1283.3;1035.4;0.82623;0.82623;0.27327;0.41688;0.13608;0.0031458;0.015505;2.2712e-4;0;0;0;0;-3.8893e-5;0.039252;140;153.94;63.172;0.0223;NaN;8.8067;904.02;336.64;0.042028;0.042946
3.9304;867.15;341.17;10.752;380.79;14.712;406.46;0.097923;406.46;0.013804;169.13;10.041;52;20.006;9.8095;0.0070943;1.7204e-4;0.20804;0.061417;10790;1152.8;4.8625;0.089228;1981;1289.1;4.9424;1.136;57121333;1284.5;1037.2;0.82639;0.82639;0.2731;0.41744;0.13585;0.0026263;0.012806;4.3245e-4;0;0;0;0;2.8719e-7;0.039323;140;153.94;63.163;0.019457;NaN;8.7135;902.42;336.58;0.05;0.043277
3.9804;884.22;341.69;10.733;381.49;14.648;414.93;0.10122;414.93;0.013977;169.64;9.9681;52;20.006;9.8094;0.0087461;1.6091e-4;0.24591;0.1703;10763;1125.7;4.8512;0.089208;1981.1;1287.7;4.9532;1.1385;57151724;1285.7;1039.7;0.8266;0.8266;0.27288;0.41816;0.13556;0.0032366;0.016257;1.4083e-4;0;0;0;0;3.9969e-7;0.039407;140;153.94;63.121;0.020459;NaN;8.6026;900.51;336.51;0.05;0.043603
4.0304;901.32;342.21;9.7763;382.19;15.266;423.42;0.10453;423.42;0.014144;170.17;11.725;52;20.006;9.8094;0.036905;2.8591e-4;1.2703;-0.078228;10733;1096.2;4.8388;0.089187;1980.8;1286.1;4.9623;1.1406;57164393;1286.2;1041.6;0.82678;0.82678;0.27269;0.41877;0.13532;0.013659;0.067783;-3.0011e-4;0;0;0;0;1.0631e-5;0.039492;140;153.94;63.062;0.028293;NaN;8.4914;898.61;336.44;0.028257;0.043926
4.0586;910.99;342.51;10.978;382.58;14.392;428.23;0.1065;428.23;0.014249;170.47;9.3067;52;20.006;9.8094;0.024839;2.7344e-4;-1.992;-0.096201;10710;1073.1;4.829;0.08917;1981;1284.8;4.9726;1.1417;5.717e7;1286.5;1042.5;0.82686;0.82686;0.27259;0.41909;0.13519;0.0091897;0.045731;-2.3479e-4;0;0;0;0;-2.6097e-5;0.039539;140;153.94;63.124;0.017017;NaN;8.4285;897.58;336.41;0.041767;0.04424
4.1004;925.31;342.96;10.098;383.16;14.799;435.36;0.10932;435.36;0.014387;170.87;10.819;52;20.006;9.8093;0.01483;2.6642e-4;-0.78368;-0.04569;10689;1052.4;4.8202;0.089155;1981.2;1283.7;4.9819;1.1436;57193737;1286.8;1044.4;0.827;0.827;0.27241;0.41963;0.13496;0.0054834;0.026967;-3.3945e-4;0;0;0;0;-4.027e-6;0.039608;140;153.94;63.062;0.024577;NaN;8.3355;896.05;336.35;0.05;0.04455
4.1504;942.47;343.48;10.2;383.85;14.554;443.92;0.1128;443.92;0.014559;171.36;10.381;52;20.006;9.8093;0.0046887;2.3791e-4;-2.0799;0.29302;10662;1025.3;4.8087;0.089135;1981.4;1282.3;4.9938;1.1458;57218274;1287.2;1046.6;0.82717;0.82717;0.27221;0.42027;0.13469;0.0017326;0.0089622;3.4806e-4;0;0;0;0;-2.8266e-5;0.03969;140;153.94;63.046;0.021545;NaN;8.224;894.23;336.28;0.05;0.04486
4.2004;959.66;343.99;11.092;384.54;13.948;452.5;0.11633;452.5;0.01473;171.88;8.4569;52;20.007;9.8092;0.04325;1.6813e-4;1.8635;0.059167;10633;995.72;4.7961;0.089114;1981;1280.7;5.0021;1.1479;57234261;1287.5;1048.4;0.82733;0.82734;0.27202;0.42086;0.13445;0.015986;0.080023;3.0111e-4;0;0;0;0;2.2617e-5;0.039772;140;153.94;63.079;0.017823;NaN;8.1122;892.4;336.21;0.023585;0.045304
4.224;967.77;344.24;9.904;384.86;14.578;456.56;0.11797;456.56;0.014805;172.1;10.697;52;20.007;9.8092;0.013715;1.6912e-4;-3.2172;0.062241;10611;973.96;4.7868;0.089098;1981.4;1279.5;5.0135;1.149;57246041;1287.7;1049.5;0.82742;0.82742;0.27192;0.42117;0.13432;0.0050655;0.025031;-1.9735e-4;0;0;0;0;-6.7296e-5;0.03981;140;153.94;63.009;0.023449;NaN;8.0595;891.54;336.18;0.035377;0.045629
4.2594;979.95;344.58;10.014;385.34;14.35;462.65;0.1205;462.65;0.014923;172.5;10.277;52;20.007;9.8091;0.0039246;1.8067e-4;0.20593;0.006098;10594;956.53;4.7793;0.089085;1981.5;1278.5;5.0215;1.1507;57266612;1288;1051.2;0.82755;0.82755;0.27177;0.42165;0.13413;0.0014487;0.0075208;4.7335e-4;0;0;0;0;2.7501e-7;0.03987;140;153.94;62.983;0.025067;NaN;7.9803;890.24;336.13;0.05;0.045938
4.3094;997.2;345.08;8.8012;386.02;15.13;471.29;0.12411;471.29;0.015089;172.99;12.307;52;20.007;9.8091;0.055993;2.3848e-5;-0.37842;0.067028;10568;931.29;4.7684;0.089067;1980.9;1277.1;5.027;1.1532;57301837;1288.3;1053.8;0.82774;0.82775;0.27154;0.42236;0.13384;0.020676;0.10385;4.5183e-5;0;0;0;0;-9.2503e-7;0.039951;140;153.94;62.875;0.029531;NaN;7.8682;888.41;336.07;0.017986;0.04626
4.3274;1003.4;345.25;9.4545;386.26;14.513;474.4;0.12544;474.4;0.01515;173.21;11.011;52;20.007;9.8091;0.023577;2.5286e-5;2.7323;0.1328;10548;911.18;4.7597;0.089052;1981.3;1276;5.038;1.1539;57304814;1288.5;1054.4;0.8278;0.8278;0.27148;0.42256;0.13376;0.0086991;0.044272;-3.2208e-4;0;0;0;0;4.8173e-5;0.039982;140;153.94;62.9;0.028913;NaN;7.8279;887.75;336.04;0.026979;0.046616
4.3543;1012.7;345.52;10.769;386.62;13.631;479.08;0.12749;479.08;0.015247;173.46;8.3562;52;20.007;9.809;0.042382;3.426e-5;-0.94787;0.054998;10535;897.89;4.7539;0.089043;1981.1;1275.3;5.0417;1.1549;57310904;1288.7;1055.3;0.82788;0.82789;0.27138;0.42287;0.13363;0.015639;0.078539;3.4916e-4;0;0;0;0;-5.7876e-6;0.040024;140;153.94;62.961;0.021419;NaN;7.7673;886.76;336.01;0.02368;0.046932
4.378;1020.9;345.78;10.425;386.94;13.708;483.19;0.12927;483.19;0.015328;173.66;8.9008;52;20.007;9.809;0.028232;3.602e-5;3.0192;0.078232;10520;882.91;4.7474;0.089032;1981.3;1274.4;5.0491;1.1561;57324353;1288.9;1056.4;0.82797;0.82797;0.27128;0.42319;0.1335;0.010412;0.052053;1.0299e-4;0;0;0;0;5.8619e-5;0.04006;140;153.94;62.931;0.021229;NaN;7.7141;885.88;335.97;0.035519;0.047251
4.4135;1033.2;346.11;9.2055;387.41;14.433;489.36;0.13193;489.36;0.015447;174.04;11.116;52;20.007;9.809;0.027509;4.3625e-5;-0.75882;-0.0024524;10502;865.41;4.7398;0.089019;1981.4;1273.5;5.0563;1.1577;57339494;1289.2;1057.9;0.8281;0.8281;0.27113;0.42365;0.13332;0.010141;0.051114;1.9494e-4;0;0;0;0;-3.6936e-6;0.040119;140;153.94;62.847;0.026014;NaN;7.6342;884.58;335.93;0.036196;0.047596
4.4497;1045.7;346.46;9.8154;387.88;13.791;495.67;0.13471;495.67;0.015572;174.41;9.6872;52;20.007;9.8089;0.0068543;4.4574e-5;-0.26397;0.0058045;10481;844.2;4.7305;0.089004;1981.7;1272.3;5.0669;1.1591;57347030;1288.6;1059.1;0.82821;0.82821;0.271;0.42407;0.13315;0.0025247;0.01281;4.1495e-4;0;0;0;0;-4.4597e-7;0.040177;140;153.94;62.868;0.024288;NaN;7.5528;883.24;335.88;0.05;0.04854
4.4997;1063.1;346.94;9.0745;388.54;13.867;504.4;0.13859;504.4;0.015743;174.91;10.485;52;20.007;9.8089;0.015993;6.944e-5;0.79213;-0.051436;10456;818.76;4.7194;0.088985;1981.6;1270.9;5.0765;1.1613;57361528;1287;1061;0.82836;0.82836;0.27081;0.42465;0.13291;0.0058882;0.029727;1.2648e-4;0;0;0;0;4.003e-6;0.040256;140;153.94;62.818;0.026212;NaN;7.4401;881.4;335.81;0.05;0.049014
4.5497;1080.4;347.42;8.175;389.18;14.273;513.16;0.14253;513.16;0.015914;175.38;11.701;52;20.007;9.8088;0.0485;1.2836e-4;-1.3087;-0.037786;10426;789.27;4.7064;0.088964;1981.2;1269.2;5.0855;1.1633;5.737e7;1285.9;1062.6;0.82849;0.8285;0.27062;0.42519;0.13268;0.017857;0.090928;-1.9512e-4;0;0;0;0;-1.0893e-5;0.040333;140;153.94;62.77;0.029215;NaN;7.3272;879.55;335.74;0.020124;0.049372
4.5698;1087.4;347.59;8.9778;389.43;13.411;516.69;0.14415;516.69;0.015984;175.6;9.9626;52;20.008;9.8088;0.0062939;1.3063e-4;1.1716;8.4506e-4;10406;768.59;4.6972;0.088949;1981.7;1268;5.0979;1.1643;57385462;1285.1;1063.7;0.82856;0.82856;0.27053;0.42548;0.13256;0.0023147;0.011913;1.115e-4;0;0;0;0;8.7159e-6;0.040365;140;153.94;62.775;0.027055;NaN;7.2818;878.81;335.71;0.030187;0.049741
4.6;1097.9;347.88;9.5396;389.81;12.678;522;0.14659;522;0.01609;175.86;8.3503;52;20.008;9.8088;0.030982;1.375e-4;1.8913;0.055802;10391;753.75;4.6907;0.088938;1981.4;1267.2;5.1017;1.1659;57408617;1284.1;1065.4;0.82866;0.82867;0.27038;0.42591;0.13237;0.011394;0.057877;-2.1213e-4;0;0;0;0;2.2656e-5;0.04041;140;153.94;62.766;0.023549;NaN;7.2136;877.69;335.67;0.031435;0.050132
4.6315;1108.9;348.16;8.2616;390.19;13.384;527.53;0.14913;527.53;0.016197;176.17;10.53;52;20.008;9.8088;0.023934;1.4896e-4;-1.0568;0.031269;10373;735.58;4.6826;0.088925;1981.5;1266.1;5.1099;1.1671;57408199;1283;1066.2;0.82874;0.82874;0.27028;0.42622;0.13224;0.0087977;0.045233;-9.4406e-5;0;0;0;0;-7.0618e-6;0.040458;140;153.94;62.703;0.026844;NaN;7.1424;876.53;335.63;0.040126;0.050497
4.6716;1122.8;348.5;8.6802;390.68;12.743;534.61;0.15243;534.61;0.016337;176.56;9.3291;52;20.008;9.8087;0.0035143;1.5636e-4;0.2734;0.02047;10352;714.48;4.6732;0.08891;1981.8;1264.9;5.1205;1.1685;57404189;1281.6;1067.1;0.82883;0.82883;0.27015;0.4266;0.13208;0.0012907;0.0067112;2.5668e-4;0;0;0;0;4.7162e-7;0.040518;140;153.94;62.725;0.026079;NaN;7.0516;875.04;335.57;0.05;0.050864
4.7216;1140.3;348.93;8.7034;391.28;12.395;543.45;0.1566;543.45;0.01651;177.04;8.8249;52;20.008;9.8087;0.013465;1.5534e-4;-0.14625;-0.0012576;10325;687.9;4.6613;0.08889;1981.7;1263.4;5.1305;1.1702;57395901;1280;1068.1;0.82894;0.82895;0.26999;0.42706;0.13189;0.0049433;0.024971;-7.9928e-5;0;0;0;0;-1.3461e-7;0.040591;140;153.94;62.732;0.025955;NaN;6.9383;873.19;335.5;0.05;0.051218
4.7716;1157.7;349.35;8.7893;391.86;11.951;552.31;0.16082;552.31;0.016683;177.52;8.0979;52;20.008;9.8086;0.028429;1.5534e-4;-0.96425;0.0029691;10295;658.41;4.648;0.088869;1981.5;1261.7;5.1414;1.1721;57398788;1278.5;1069.5;0.82907;0.82908;0.26981;0.42759;0.13167;0.010433;0.053902;2.8886e-4;0;0;0;0;-5.835e-6;0.040664;140;153.94;62.718;0.027084;NaN;6.8248;871.33;335.43;0.033334;0.051571
4.8049;1169.4;349.64;8.1465;392.25;12.097;558.23;0.16367;558.23;0.016798;177.79;8.9423;52;20.008;9.8086;0.0061095;1.4748e-4;2.5264;0.061183;10271;633.92;4.637;0.088851;1981.8;1260.3;5.1536;1.1736;5.741e7;1276.8;1070.8;0.82917;0.82917;0.26968;0.42799;0.1315;0.00224;0.011116;9.3814e-5;0;0;0;0;3.9965e-5;0.04071;140;153.94;62.662;0.02698;NaN;6.7491;870.09;335.39;0.05;0.05194
4.8549;1186.9;350.03;8.6061;392.81;11.229;567.13;0.16798;567.13;0.016971;178.26;7.2127;52;20.008;9.8085;0.044021;8.9013e-5;1.6096;0.058349;10247;609.56;4.626;0.088834;1981.3;1258.8;5.1603;1.1758;57425287;1275.2;1072.8;0.82932;0.82933;0.26948;0.42859;0.13126;0.016139;0.083728;2.0826e-4;0;0;0;0;1.6168e-5;0.04078;140;153.94;62.638;0.027035;NaN;6.6354;868.23;335.32;0.021299;0.05229
4.8762;1194.3;350.2;7.5525;393.04;11.849;570.93;0.16984;570.93;0.017045;178.43;9.1304;52;20.008;9.8085;0.0028461;9.1407e-5;-3.5073;0.83964;10226;588.73;4.6165;0.088818;1981.8;1257.6;5.1728;1.1767;57427800;1274.1;1073.4;0.82938;0.82938;0.2694;0.42883;0.13116;0.0010422;0.0051438;2.6481e-4;0;0;0;0;-7.6665e-5;0.040809;140;153.94;62.574;0.026104;NaN;6.5869;867.44;335.29;0.031949;0.052651
4.9082;1205.5;350.43;6.8731;393.39;12.112;576.64;0.17264;576.64;0.017153;178.76;9.9731;52;20.008;9.8085;0.025218;1.0582e-4;-0.089528;0.031246;10210;573.17;4.6094;0.088807;1981.5;1256.7;5.1773;1.1779;57428328;1272.6;1074.3;0.82947;0.82947;0.26928;0.42916;0.13102;0.0092345;0.04749;4.0027e-4;0;0;0;0;-4.9862e-8;0.040854;140;153.94;62.521;0.028587;NaN;6.5142;866.25;335.25;0.03737;0.053
4.9455;1218.6;350.71;7.3948;393.79;11.3;583.32;0.17595;583.32;0.017283;179.09;8.545;52;20.009;9.8084;0.0070945;1.108e-4;0.37822;-0.02204;10190;552.92;4.6002;0.088792;1981.7;1255.5;5.1875;1.1792;5.742e7;1270.7;1075;0.82955;0.82955;0.26917;0.4295;0.13088;0.0025957;0.013198;-4.2849e-4;0;0;0;0;8.883e-7;0.040904;140;153.94;62.541;0.028446;NaN;6.429;864.85;335.19;0.05;0.053354
4.9955;1236.2;351.06;6.9811;394.31;11.145;592.29;0.18044;592.29;0.017455;179.54;8.6877;52;20.009;9.8084;0.0010387;8.3781e-5;-0.31696;0.40308;10164;527.4;4.5885;0.088774;1981.8;1254;5.1988;1.181;57414298;1268.5;1076.1;0.82966;0.82966;0.269;0.42997;0.13068;3.7971e-4;0.0022748;3.798e-4;0;0;0;0;-6.2218e-7;0.04097;140;153.94;62.498;0.030132;NaN;6.315;862.99;335.13;0.05;0.05373
5.0455;1253.7;351.41;5.8778;394.81;11.798;601.28;0.18501;601.28;0.01763;179.97;10.229;52;20.009;9.8083;0.038984;-8.8625e-5;0.69891;0.1843;10135;498.19;4.575;0.088753;1981.3;1252.2;5.2076;1.1828;57407899;1267;1077.2;0.82975;0.82975;0.26884;0.43043;0.13048;0.014252;0.074431;2.9252e-4;0;0;0;0;3.0171e-6;0.041035;140;153.94;62.422;0.028836;NaN;6.2008;861.12;335.06;0.02361;0.054081
5.0692;1262;351.56;7.0772;395.05;10.549;605.53;0.18717;605.53;0.01771;180.19;7.8231;52;20.009;9.8083;0.018292;-7.6228e-5;-1.6085;0.20127;10114;476.68;4.5651;0.088737;1981.5;1250.9;5.2187;1.1837;57403873;1265.6;1077.7;0.82979;0.82979;0.26876;0.43064;0.13039;0.0066823;0.035373;-3.8083e-4;0;0;0;0;-1.5961e-5;0.041065;140;153.94;62.46;0.034003;NaN;6.1469;860.24;335.02;0.035416;0.054465
5.1046;1274.5;351.81;6.3537;395.4;10.662;611.91;0.19049;611.91;0.017837;180.46;8.5618;52;20.009;9.8082;0.0027358;-4.6342e-5;-1.4795;0.14129;10097;459.48;4.5571;0.088725;1981.7;1249.9;5.2274;1.1849;57394423;1262.6;1078.2;0.82985;0.82985;0.26865;0.43094;0.13026;9.9859e-4;0.0050942;-2.2118e-4;0;0;0;0;-1.3481e-5;0.041108;140;153.94;62.424;0.028675;NaN;6.0659;858.91;334.97;0.05;0.05479
5.1546;1292.1;352.14;7.3733;395.88;9.3565;620.95;0.19521;620.95;0.018012;180.88;5.7601;52;20.009;9.8082;0.059528;-2.1333e-4;2.1288;0.079158;10072;434.76;4.5456;0.088707;1981;1248.4;5.2327;1.186;57357261;1260.1;1078.1;0.82991;0.82991;0.26854;0.43124;0.13013;0.021742;0.11332;-3.838e-4;0;0;0;0;2.7865e-5;0.041169;140;153.94;62.499;0.027846;NaN;5.9515;857.04;334.91;0.015397;0.055096
5.17;1297.5;352.25;6.25;396.02;10.146;623.74;0.19668;623.74;0.018066;180.98;7.9928;52;20.009;9.8082;0.0069149;-2.125e-4;4.4594;0.64415;10053;415.92;4.5368;0.088693;1981.7;1247.2;5.2457;1.1865;57350551;1258.6;1078.3;0.82993;0.82993;0.2685;0.43135;0.13008;0.0025225;0.012984;-1.8084e-4;0;0;0;0;1.2219e-4;0.041186;140;153.94;62.443;0.027377;NaN;5.9163;856.46;334.88;0.023096;0.055412
5.1931;1305.6;352.37;4.742;396.23;11.447;627.92;0.19887;627.92;0.018146;181.2;10.418;52;20.009;9.8081;0.052981;-2.075e-4;-1.2867;0.063074;10042;404.82;4.5316;0.088685;1981;1246.6;5.2462;1.1872;5.734e7;1257;1078.5;0.82996;0.82997;0.26844;0.43153;0.13;0.019339;0.10161;-2.6724e-4;0;0;0;0;-1.0163e-5;0.041216;140;153.94;62.369;0.030076;NaN;5.8634;855.6;334.85;0.017114;0.055726
5.2102;1311.7;352.45;5.2109;396.39;10.651;631.02;0.2005;631.02;0.018205;181.38;9.2887;52;20.009;9.8081;0.027255;-2.0671e-4;2.1053;0.10221;10030;393.23;4.5261;0.088676;1981.4;1245.9;5.2536;1.1877;57333326;1255.3;1078.7;0.82999;0.82999;0.26839;0.43166;0.12994;0.0099409;0.052131;5.3328e-5;0;0;0;0;2.7186e-5;0.041238;140;153.94;62.379;0.032007;NaN;5.8242;854.96;334.83;0.025672;0.056032
