# Time (s);Altitude (m);Vertical velocity (m/s);Vertical acceleration (m/s²);Total velocity (m/s);Total acceleration (m/s²);Position East of launch (m);Position North of launch (m);Lateral distance (m);Lateral direction (°);Lateral velocity (m/s);Lateral acceleration (m/s²);Latitude (°);Longitude (°);Gravitational acceleration (m/s²);Angle of attack (°);Roll rate (°/s);Pitch rate (°/s);Yaw rate (°/s);Mass (g);Propellant mass (g);Longitudinal moment of inertia (kg·m²);Rotational moment of inertia (kg·m²);CP location (mm);CG location (mm);Stability margin calibers (?);Mach number (?);Reynolds number (?);Thrust (N);Drag force (N);Drag coefficient (?);Axial drag coefficient (?);Friction drag coefficient (?);Pressure drag coefficient (?);Base drag coefficient (?);Normal force coefficient (?);Pitch moment coefficient (?);Yaw moment coefficient (?);Side force coefficient (?);Roll moment coefficient (?);Roll forcing coefficient (?);Roll damping coefficient (?);Pitch damping coefficient (?);Coriolis acceleration (m/s²);Reference length (mm);Reference area (cm²);Vertical orientation (zenith) (°);Lateral orientation (azimuth) (°);Wind velocity (m/s);Air temperature (°C);Air pressure (mbar);Speed of sound (m/s);Simulation time step (s);Computation time (s)
0;0;0;-3.2605;0;3.4697;0;0;0;0;0;1.1867;52;20;9.8122;70;0;0;0;16148;4498.6;6.9526;0.094708;NaN;1353.8;NaN;0.007921;430936;92.865;0.0040024;0.69535;0.059079;0.45518;0.16608;0.074087;NaN;NaN;NaN;NaN;NaN;NaN;NaN;NaN;0;140;153.94;70;0;NaN;14.35;1001.5;340;0.01;0.0014993
0.01;0;0;23.587;0;25.1;0;0;0;0;0;8.5848;52;20;9.8122;70;0;0;0;16148;4498.6;6.9526;0.094708;NaN;1353.8;NaN;0.00801;435776;554.21;0.0040864;0.69426;0.058986;0.45409;0.16608;0.074087;NaN;NaN;NaN;NaN;NaN;NaN;NaN;NaN;0;140;153.94;70;0;NaN;14.35;1001.5;340;0.01;0.002036
0.02;0.0011796;0.23592;52.738;0.25107;56.123;4.2933e-4;0;4.2933e-4;0;0.085869;19.195;52;20;9.8122;65.25;0;0;0;16144;4495;6.9513;0.094705;NaN;1353.7;NaN;0.0083803;455922;1054.9;0.0079053;0.68985;0.10425;0.44968;0.16608;0.074087;NaN;NaN;NaN;NaN;NaN;NaN;NaN;NaN;2.4608e-5;140;153.94;70;0;NaN;14.35;1001.5;339.99;0.01;0.0025327
0.03;0.0061763;0.76345;81.907;0.81244;87.164;0.002248;0;0.002248;0;0.27787;29.812;52;20;9.8122;55.999;0;0;0;16140;4490.5;6.9498;0.094702;NaN;1353.6;NaN;0.009281;504921;1555.6;0.021626;0.68014;0.23253;0.43997;0.16608;0.074089;NaN;NaN;NaN;NaN;NaN;NaN;NaN;NaN;7.9632e-5;140;153.94;70;0;NaN;14.35;1001.5;339.99;0.01;0.0029876
0.04;0.017907;1.5827;104;1.6843;110.67;0.0065176;0;0.0065176;0;0.57606;37.852;52;20;9.8122;44.974;0;0;0;16135;4486;6.9482;0.094699;NaN;1353.4;NaN;0.011004;598680;1934.6;0.056983;0.66462;0.43581;0.42444;0.16609;0.074091;NaN;NaN;NaN;NaN;NaN;NaN;NaN;NaN;1.6509e-4;140;153.94;70;0;NaN;14.35;1001.5;339.99;0.01;0.00347
0.05;0.038935;2.623;105.55;2.7914;112.32;0.014171;0;0.014171;0;0.95471;38.416;52;20;9.8122;35.377;0;0;0;16129;4479.7;6.946;0.094694;NaN;1353.2;NaN;0.013579;738724;1960.5;0.12305;0.64658;0.61809;0.40639;0.16609;0.074096;NaN;NaN;NaN;NaN;NaN;NaN;NaN;NaN;2.736e-4;140;153.94;70;0;NaN;14.35;1001.5;339.99;0.01;0.0039467
0.06;0.070445;3.679;105.81;3.9151;112.6;0.02564;0;0.02564;0;1.3391;38.512;52;20;9.8122;28.235;0;0;0;16120;4470.6;6.9428;0.094688;NaN;1352.9;NaN;0.016246;883825;1964;0.20732;0.63208;0.72751;0.39188;0.1661;0.074103;NaN;NaN;NaN;NaN;NaN;NaN;NaN;NaN;3.8375e-4;140;153.94;70;0;NaN;14.35;1001.5;339.99;0.01;0.0044319
0.07;0.11253;4.7377;106.08;5.0418;112.89;0.040957;0;0.040957;0;1.7244;38.611;52;20;9.8122;23.153;0;0;0;16110;4460.7;6.9394;0.09468;NaN;1352.6;NaN;0.019101;1039146;1967.5;0.30528;0.61966;0.77496;0.37944;0.16611;0.074111;NaN;NaN;NaN;NaN;NaN;NaN;NaN;NaN;4.9417e-4;140;153.94;70;0;NaN;14.349;1001.5;339.99;0.01;0.0048649
0.08;0.16521;5.7991;106.35;6.1713;113.18;0.060132;0;0.060132;0;2.1107;38.709;52;20;9.8122;19.406;0;0;0;16100;4450.8;6.9359;0.094673;NaN;1352.3;NaN;0.022075;1200929;1971;0.41398;0.60905;0.78683;0.36881;0.16612;0.074121;NaN;NaN;NaN;NaN;NaN;NaN;NaN;NaN;6.0488e-4;140;153.94;70;0;NaN;14.349;1001.5;339.99;0.01;0.0053145
0.09;0.22852;6.8631;106.62;7.3036;113.46;0.083175;0;0.083175;0;2.498;38.807;52;20;9.8122;16.552;0;0;0;16090;4441;6.9324;0.094666;NaN;1352;NaN;0.025128;1367059;1974.6;0.53147;0.59993;0.77955;0.35967;0.16613;0.074132;NaN;NaN;NaN;NaN;NaN;NaN;NaN;NaN;7.1587e-4;140;153.94;70;0;NaN;14.349;1001.5;339.99;0.01;0.0057537
0.1;0.30249;7.9299;106.89;8.4388;113.75;0.1101;0;0.1101;0;2.8863;38.905;52;20;9.8122;14.317;0;0;0;16080;4431.1;6.929;0.094659;NaN;1351.7;NaN;0.028239;1536285;1978.1;0.65243;0.59201;0.75774;0.35172;0.16614;0.074146;NaN;NaN;NaN;NaN;NaN;NaN;NaN;NaN;8.2714e-4;140;153.94;70;0;NaN;14.348;1001.5;339.99;0.01;0.0061994
0.11;0.38713;8.9994;107.16;9.5769;114.04;0.1409;0;0.1409;0;3.2755;39.003;52;20;9.8122;12.945;0;0;0;16070;4421.2;6.9255;0.094652;NaN;1351.4;NaN;0.031541;1715913;1981.6;0.78949;0.58475;0.735;0.34443;0.16616;0.074161;NaN;NaN;NaN;NaN;NaN;NaN;NaN;NaN;9.3869e-4;140;153.94;70;0;NaN;14.347;1001.5;339.99;0.01;0.0066345
0.12;0.48249;10.072;107.43;10.718;114.32;0.17561;0;0.17561;0;3.6657;39.101;52;20;9.8122;11.831;0;0;0;16061;4411.3;6.9221;0.094645;NaN;1351.1;NaN;0.034866;1896782;1985.1;0.9365;0.57837;0.71351;0.33802;0.16618;0.074179;NaN;NaN;NaN;NaN;NaN;NaN;NaN;NaN;0.0010505;140;153.94;70;0;NaN;14.347;1001.5;339.99;0.01;0.007065
0.13;0.58858;11.146;107.7;11.862;114.61;0.21422;0;0.21422;0;4.0569;39.198;52;20;9.8122;10.908;0;0;0;16051;4401.4;6.9186;0.094637;NaN;1350.7;NaN;0.03821;2078688;1988.7;1.1022;0.57689;0.69921;0.33649;0.1662;0.074199;NaN;NaN;NaN;NaN;NaN;NaN;NaN;NaN;0.0011626;140;153.94;70;0;NaN;14.346;1001.5;339.99;0.01;0.0074908
0.14;0.70543;12.224;107.96;13.008;114.89;0.25675;0;0.25675;0;4.4491;39.296;52;20;9.8122;10.133;0;0;0;16041;4391.6;6.9151;0.09463;NaN;1350.4;NaN;0.041571;2261490;1992.2;1.2838;0.57692;0.68808;0.33648;0.16622;0.07422;NaN;NaN;NaN;NaN;NaN;NaN;NaN;NaN;0.001275;140;153.94;70;0;NaN;14.345;1001.4;339.99;0.01;0.0079244
0.15;0.83307;13.304;108.23;14.158;115.18;0.30321;0;0.30321;0;4.8423;39.393;52;20;9.8122;9.4712;0;0;0;16031;4381.7;6.9116;0.094623;NaN;1350.1;NaN;0.044946;2445088;1995.7;1.4794;0.57696;0.67827;0.33647;0.16624;0.074244;NaN;NaN;NaN;NaN;NaN;NaN;NaN;NaN;0.0013877;140;153.94;70;0;NaN;14.345;1001.4;339.99;0.01;0.0083469
0.16;0.97152;14.387;108.5;15.31;115.46;0.3536;0;0.3536;0;5.2364;39.49;52;20;9.8122;8.6988;0;0;0;16021;4371.8;6.9081;0.094616;NaN;1349.8;NaN;0.048242;2624320;1999.2;1.6748;0.577;0.66658;0.33646;0.16627;0.074268;NaN;NaN;NaN;NaN;NaN;NaN;NaN;NaN;0.0015007;140;153.94;70;0;NaN;14.344;1001.4;339.99;0.01;0.0087729
0.17;1.1208;15.472;108.77;16.465;115.75;0.40794;0;0.40794;0;5.6315;39.587;52;20;9.8122;8.024;0;0;0;16011;4361.9;6.9047;0.094609;NaN;1349.5;NaN;0.051553;2804412;2002.8;1.8832;0.57704;0.65633;0.33645;0.1663;0.074295;NaN;NaN;NaN;NaN;NaN;NaN;NaN;NaN;0.0016139;140;153.94;70;0;NaN;14.343;1001.4;339.99;0.01;0.0092049
0.18;1.281;16.561;109.03;17.623;116.03;0.46624;0;0.46624;0;6.0276;39.684;52;20;9.8122;7.4296;0;0;0;16001;4352;6.9012;0.094602;NaN;1349.2;NaN;0.054879;2985289;2006.3;2.1049;0.57709;0.64739;0.33644;0.16633;0.074323;NaN;NaN;NaN;NaN;NaN;NaN;NaN;NaN;0.0017274;140;153.94;70;0;NaN;14.342;1001.4;339.99;0.01;0.0096316
0.19;1.452;17.651;109.3;18.784;116.31;0.5285;0;0.5285;0;6.4246;39.781;52;20;9.8122;6.9021;0;0;0;15991;4342.2;6.8977;0.094594;NaN;1348.9;NaN;0.058218;3166894;2009.8;2.3402;0.57714;0.63958;0.33642;0.16636;0.074354;NaN;NaN;NaN;NaN;NaN;NaN;NaN;NaN;0.0018412;140;153.94;70;0;NaN;14.341;1001.4;339.99;0.01;0.010064
0.2;1.634;18.745;109.56;19.948;116.59;0.59474;0;0.59474;0;6.8226;39.878;52;20;9.8122;6.4311;0;0;0;15982;4332.3;6.8942;0.094587;NaN;1348.5;NaN;0.06157;3349181;2013.3;2.5896;0.57719;0.63278;0.33641;0.16639;0.074386;NaN;NaN;NaN;NaN;NaN;NaN;NaN;NaN;0.0019552;140;153.94;70;0;NaN;14.339;1001.3;339.99;0.01;0.010495
0.21;1.827;19.841;109.83;21.115;116.88;0.66496;0;0.66496;0;7.2216;39.974;52;20;9.8122;6.0182;0;0;0;15972;4322.4;6.8907;0.09458;NaN;1348.2;NaN;0.06494;3532418;2016.9;2.8544;0.57725;0.62699;0.3364;0.16643;0.07442;NaN;NaN;NaN;NaN;NaN;NaN;NaN;NaN;0.0020696;140;153.94;70;0;NaN;14.338;1001.3;339.99;0.01;0.010921
0.22;2.0309;20.94;110.09;22.284;117.16;0.73917;0;0.73917;0;7.6215;40.07;52;20;9.8122;5.6453;0;0;0;15962;4312.5;6.8872;0.094573;NaN;1347.9;NaN;0.068321;3716261;2020.4;3.1337;0.5773;0.62192;0.33638;0.16647;0.074456;NaN;NaN;NaN;NaN;NaN;NaN;NaN;NaN;0.0021842;140;153.94;70;0;NaN;14.337;1001.3;339.99;0.01;0.011352
0.23;2.2458;22.041;110.36;23.456;117.44;0.81739;0;0.81739;0;8.0224;40.166;52;20;9.8122;5.3071;0;0;0;15952;4302.6;6.8837;0.094566;NaN;1347.6;NaN;0.071713;3900685;2023.9;3.4278;0.57737;0.61747;0.33637;0.16651;0.074494;NaN;NaN;NaN;NaN;NaN;NaN;NaN;NaN;0.0022991;140;153.94;70;0;NaN;14.335;1001.3;339.99;0.01;0.011778
0.24;2.4717;23.146;110.62;24.631;117.72;0.89963;0;0.89963;0;8.4243;40.262;52;20;9.8122;4.9988;0;0;0;15942;4292.8;6.8802;0.094559;NaN;1347.3;NaN;0.075115;4085670;2027.4;3.7368;0.57743;0.61356;0.33635;0.16655;0.074534;NaN;NaN;NaN;NaN;NaN;NaN;NaN;NaN;0.0024142;140;153.94;70;0;NaN;14.334;1001.2;339.99;0.01;0.012219
0.25;2.7087;24.252;110.88;25.809;118;0.98588;0;0.98588;0;8.8271;40.358;52;20;9.8122;4.7167;0;0;0;15932;4282.9;6.8767;0.094551;NaN;1347;NaN;0.078528;4271199;2031;4.061;0.5775;0.61011;0.33633;0.16659;0.074577;NaN;NaN;NaN;NaN;NaN;NaN;NaN;NaN;0.0025297;140;153.94;70;0;NaN;14.332;1001.2;339.98;0.01;0.012648
0.26;2.9568;25.362;111.14;26.989;118.28;1.0762;0;1.0762;0;9.2309;40.453;52;20;9.8122;4.6624;0;0;0;15922;4273;6.8732;0.094544;NaN;1346.6;NaN;0.082084;4464538;2034.5;4.4328;0.57757;0.60952;0.33631;0.16664;0.074622;NaN;NaN;NaN;NaN;NaN;NaN;NaN;NaN;0.0026454;140;153.94;70;0;NaN;14.331;1001.2;339.98;0.01;0.013083
0.27;3.2159;26.474;111.4;28.173;118.55;1.1705;0;1.1705;0;9.6356;40.547;52;20;9.8122;4.6121;0;0;0;15912;4263.1;6.8696;0.094537;NaN;1346.3;NaN;0.085649;4658310;2038;4.8218;0.57765;0.609;0.33629;0.16669;0.07467;NaN;NaN;NaN;NaN;NaN;NaN;NaN;NaN;0.0027614;140;153.94;70;0;NaN;14.329;1001.1;339.98;0.01;0.013506
0.28;3.4862;27.588;111.66;29.359;118.83;1.2689;0;1.2689;0;10.041;40.641;52;20;9.8122;4.5655;0;0;0;15902;4253.2;6.8661;0.09453;NaN;1346;NaN;0.089221;4852514;2041.5;5.2282;0.57773;0.60852;0.33627;0.16674;0.074721;NaN;NaN;NaN;NaN;NaN;NaN;NaN;NaN;0.0028776;140;153.94;70;0;NaN;14.327;1001.1;339.98;0.01;0.013946
0.29;3.7677;28.705;111.92;30.547;119.1;1.3713;0;1.3713;0;10.448;40.735;52;20;9.8122;4.522;0;0;0;15893;4243.4;6.8626;0.094523;NaN;1345.7;NaN;0.092802;5047146;2045.1;5.6521;0.57782;0.60809;0.33625;0.16679;0.074773;NaN;NaN;NaN;NaN;NaN;NaN;NaN;NaN;0.0029941;140;153.94;70;0;NaN;14.326;1001.1;339.98;0.01;0.014428
0.3;4.0604;29.825;112.18;31.739;119.38;1.4778;0;1.4778;0;10.855;40.829;52;20;9.8122;4.4814;0;0;0;15883;4233.5;6.8591;0.094516;NaN;1345.4;NaN;0.096392;5242206;2048.6;6.0936;0.5779;0.6077;0.33623;0.16685;0.074827;NaN;NaN;NaN;NaN;NaN;NaN;NaN;NaN;0.0031109;140;153.94;70;0;NaN;14.324;1001;339.98;0.01;0.014926
0.31;4.3642;30.947;112.43;32.933;119.65;1.5884;0;1.5884;0;11.264;40.923;52;20;9.8122;4.3218;0;0;0;15873;4223.6;6.8555;0.094508;NaN;1345;NaN;0.099893;5432469;2052.1;6.525;0.57799;0.60592;0.3362;0.16691;0.074882;NaN;NaN;NaN;NaN;NaN;NaN;NaN;NaN;0.003228;140;153.94;70;0;NaN;14.322;1001;339.98;0.01;0.015384
0.32;4.6793;32.072;112.69;34.13;119.92;1.7031;0;1.7031;0;11.673;41.017;52;20;9.8122;4.1727;0;0;0;15863;4213.7;6.852;0.094501;NaN;1344.7;NaN;0.1034;5623195;2055.6;6.9727;0.57809;0.6043;0.33618;0.16697;0.07494;NaN;NaN;NaN;NaN;NaN;NaN;NaN;NaN;0.0033453;140;153.94;70;0;NaN;14.32;1001;339.98;0.01;0.015841
0.33;5.0057;33.199;112.15;35.33;120.22;1.8219;0;1.8219;0;12.084;43.317;52;20;9.8122;4.0331;0;0;0;15853;4203.8;6.8485;0.094494;1843;1344.4;3.5612;0.10692;5814379;2060;7.437;0.57818;0.60284;0.33615;0.16703;0.074999;1.2914;4.5985;2.4569e-4;0;0;0;0;0;0.0034629;140;153.94;70;0;NaN;14.317;1000.9;339.98;0.015;0.016343
0.345;5.5163;34.883;112.58;37.135;120.66;2.008;1.5873e-7;2.008;4.5291e-6;12.734;43.43;52;20;9.8122;3.8843;0;1.029;-2.8077e-5;15841;4191.5;6.844;0.094485;1844.8;1344;3.5775;0.11222;6102349;2066.6;8.1722;0.57834;0.60137;0.33612;0.16713;0.075092;1.2402;4.4357;4.8233e-4;0;0;0;0;7.0571e-4;0.0036413;140;153.94;69.992;1.0626e-6;NaN;14.314;1000.9;339.97;0.0225;0.016811
0.3675;6.3297;37.42;113.19;39.853;121.33;2.3056;1.0157e-6;2.3056;2.5242e-5;13.712;43.677;52;20;9.8121;3.6319;0;2.6823;-1.4928e-4;15822;4173;6.8374;0.094472;1848.1;1343.4;3.6048;0.12019;6535034;2076.6;9.335;0.57858;0.59896;0.33605;0.16729;0.075241;1.154;4.1558;3.3922e-4;0;0;0;0;0.0041807;0.00391;140;153.94;69.951;9.1164e-6;NaN;14.309;1000.8;339.97;0.03375;0.017275
0.40125;7.6572;41.246;114.05;43.955;122.32;2.7933;3.8e-6;2.7933;7.7946e-5;15.192;44.236;52;20;9.8121;3.2247;0;5.3566;-6.0126e-5;15794;4145.2;6.8274;0.094451;1853.3;1342.5;3.6488;0.13221;7187726;2091.1;11.226;0.57898;0.59535;0.33595;0.16754;0.075484;1.0166;3.6957;4.9411e-4;0;0;0;0;0.013779;0.0043156;140;153.94;69.816;3.5891e-5;NaN;14.3;1000.6;339.96;0.048858;0.017726
0.45011;9.8087;46.828;115.1;49.947;123.75;3.5887;1.1374e-5;3.5887;1.8159e-4;17.374;45.47;52;20;9.8121;2.6261;0;9.4938;1.514e-4;15754;4104.4;6.8127;0.094422;1861.2;1341.1;3.7149;0.14983;8144529;2108;14.305;0.57963;0.59079;0.33578;0.16796;0.075883;0.8184;3.0069;4.9156e-4;0;0;0;0;0.033701;0.0049091;140;153.94;69.454;1.0379e-4;NaN;14.286;1000.4;339.96;0.046663;0.01851
0.49677;12.119;52.197;115.75;55.73;125;4.4494;2.3028e-5;4.4494;2.9654e-4;19.527;47.189;52;20;9.8121;1.9234;0;13.358;3.7814e-4;15706;4057.2;6.7956;0.094388;1870.8;1339.6;3.7941;0.16681;9065483;2125;17.597;0.58034;0.58652;0.3356;0.16842;0.076315;0.59116;2.1887;-2.0132e-4;0;0;0;0;0.053829;0.0054842;140;153.94;68.919;2.1365e-4;NaN;14.271;1000.1;339.95;0.05;0.018946
0.54677;14.874;57.979;116.26;61.99;126.37;5.4856;4.1097e-5;5.4856;4.2926e-4;21.935;49.532;52;20;9.8121;1.2823;0;16.935;0.0010637;15659;4009.5;6.7782;0.094353;1879.8;1338;3.8698;0.18546;10076507;2142.6;21.652;0.58121;0.58403;0.33538;0.16898;0.076842;0.38921;1.4357;2.4652e-4;0;0;0;0;0.069999;0.0061103;140;153.94;68.159;4.0909e-4;NaN;14.253;999.78;339.94;0.05;0.019416
0.59677;17.918;63.779;116.45;68.313;127.71;6.6453;6.5997e-5;6.6453;5.6903e-4;24.474;52.431;52;20;9.8121;0.5596;-4.2227e-7;19.374;0.0039535;15609;3960.1;6.7602;0.094317;1890.2;1336.3;3.9562;0.20431;11097706;2160.2;26.209;0.58218;0.58273;0.33513;0.16961;0.077432;0.16743;0.58656;-6.0982e-5;0;0;0;0;0.075494;0.0067479;140;153.94;67.245;7.1808e-4;NaN;14.234;999.42;339.92;0.05;0.019864
0.64677;21.252;69.579;116.31;74.697;129.05;7.9358;9.9199e-5;7.9358;7.162e-4;27.173;55.91;52;20;9.8121;0.40477;-5.2288e-7;-19.372;0.010364;15560;3910.7;6.742;0.094281;1892.7;1334.7;3.9859;0.22293;12105518;2177.9;31.235;0.58325;0.58354;0.33487;0.17031;0.07807;0.12086;0.54523;-3.849e-5;0;0;0;0;-0.063401;0.0073983;140;153.94;66.262;0.0010595;NaN;14.212;999.03;339.91;0.05;0.020326
0.69677;24.876;75.372;116.17;81.138;130.35;9.3657;1.424e-4;9.3657;8.7118e-4;30.042;59.122;52;20;9.8121;0.9944;-6.8143e-7;-16.173;0.0055659;15511;3861.3;6.7238;0.094245;1884.7;1333;3.9404;0.24207;13140563;2194.3;36.978;0.58444;0.58617;0.33457;0.17108;0.078784;0.30115;1.2239;4.7104e-4;0;0;0;0;-0.037481;0.008062;140;153.94;65.362;0.0014945;NaN;14.188;998.6;339.9;0.043425;0.02078
0.7402;28.258;80.399;116.12;86.779;131.41;10.727;1.8976e-4;10.727;0.0010136;32.657;61.517;52;20;9.8121;1.3775;-1.1431e-6;-11.017;0.0038519;15464;3815.1;6.7067;0.094212;1879.6;1331.4;3.9158;0.25865;14036647;2206.9;42.393;0.58556;0.58883;0.33429;0.17182;0.079451;0.42115;1.6643;1.2302e-7;0;0;0;0;-0.015234;0.0086485;140;153.94;64.764;0.0019081;NaN;14.166;998.21;339.88;0.027911;0.021238
0.76811;30.548;83.634;116.2;90.427;131.98;11.662;2.2583e-4;11.662;0.0011095;34.386;62.598;52;20;9.8121;1.4797;-1.2791e-6;-6.6594;0.003638;15429;3779.9;6.6936;0.094186;1878.5;1330.2;3.9159;0.26937;14615349;2216.1;46.066;0.58633;0.5901;0.3341;0.17233;0.079905;0.45377;1.7822;5.6473e-5;0;0;0;0;-0.0051329;0.0090299;140;153.94;64.516;0.0021533;NaN;14.151;997.94;339.87;0.023991;0.021693
0.7921;32.587;86.42;116.49;93.578;132.53;12.505;2.6074e-4;12.505;0.0011946;35.894;63.193;52;20;9.8121;1.4639;-1.2141e-6;-2.5144;0.0037406;15403;3754.2;6.684;0.094168;1878.9;1329.3;3.9251;0.27863;15114752;2224.3;49.325;0.58702;0.59071;0.33393;0.17278;0.080312;0.44917;1.7634;3.5032e-4;0;0;0;0;-6.8396e-4;0.0093602;140;153.94;64.405;0.0023654;NaN;14.138;997.7;339.87;0.022636;0.022163
0.81473;34.574;89.058;116.95;96.564;133.03;13.334;2.9727e-4;13.334;0.0012773;37.326;63.407;52;20;9.8121;1.3561;-1.0728e-6;1.4924;0.0039904;15380;3731.2;6.6754;0.094151;1880.5;1328.6;3.9427;0.28741;15588293;2232.3;52.486;0.58769;0.59088;0.33376;0.17322;0.080711;0.41549;1.6382;2.3157e-4;0;0;0;0;2.2646e-4;0.0096734;140;153.94;64.394;0.0025597;NaN;14.125;997.47;339.86;0.022875;0.022604
0.83761;36.641;91.737;117.6;99.594;133.54;14.204;3.3794e-4;14.204;0.0013631;38.773;63.263;52;20;9.8121;1.164;-1.2761e-6;5.3499;0.0043992;15358;3708.7;6.6669;0.094135;1883.4;1327.8;3.9685;0.29632;16068892;2240.7;55.768;0.5884;0.59077;0.33358;0.17369;0.081128;0.35547;1.4082;1.687e-4;0;0;0;0;0.0027379;0.009991;140;153.94;64.473;0.0027637;NaN;14.112;997.22;339.85;0.025009;0.023066
0.86262;38.973;94.684;118.51;102.92;134.08;15.194;3.8699e-4;15.194;0.0014593;40.347;62.714;52;20;9.812;0.87706;-1.4016e-6;8.9915;0.0046873;15334;3685.1;6.658;0.094117;1887.6;1327;4.0045;0.30611;16596129;2250.6;59.476;0.58921;0.59058;0.33339;0.17423;0.081602;0.26648;1.0596;3.5161e-4;0;0;0;0;0.0072476;0.010339;140;153.94;64.654;0.0029892;NaN;14.097;996.95;339.84;0.031112;0.023524
0.89373;41.976;98.385;119.87;107.08;134.75;16.479;4.5511e-4;16.479;0.0015823;42.278;61.55;52;20;9.812;0.44335;-1.5364e-6;12.13;0.0050568;15307;3657.3;6.6476;0.094097;1894;1326;4.0573;0.31834;17254585;2264.3;64.307;0.59027;0.59063;0.33313;0.17493;0.082214;0.13363;0.53006;-2.4976e-4;0;0;0;0;0.012198;0.010773;140;153.94;64.987;0.0031914;NaN;14.077;996.6;339.83;0.046668;0.023974
0.9404;46.698;104.02;122.17;113.37;135.76;18.518;5.7278e-4;18.518;0.0017722;45.09;59.196;52;20;9.812;0.26703;-1.4115e-6;-12.667;0.0016712;15268;3618.9;6.6331;0.094069;1897;1324.6;4.088;0.33688;18251896;2281.4;72.153;0.59196;0.59209;0.33272;0.17605;0.083189;0.080344;0.34073;2.1117e-4;0;0;0;0;-0.011878;0.011422;140;153.94;65.586;0.0034266;NaN;14.046;996.04;339.81;0.05;0.024414
0.9904;52.053;110.16;124.3;120.16;136.74;20.846;7.203e-4;20.846;0.0019798;47.981;56.976;52;20;9.812;0.81381;-1.3896e-6;-7.0543;-0.002408;15220;3571.2;6.6149;0.094035;1889.7;1323;4.0482;0.35689;19326984;2294.4;81.338;0.59389;0.59508;0.33225;0.17734;0.084304;0.24832;1.0088;4.2406e-4;0;0;0;0;-0.0032828;0.012116;140;153.94;66.102;0.0036804;NaN;14.012;995.42;339.79;0.023922;0.02486
1.0143;54.724;113.14;124.85;123.43;137.02;22.01;7.9901e-4;22.01;0.00208;49.334;56.472;52;20;9.812;0.90005;-1.3102e-6;-2.6416;-0.0027464;15184;3534.7;6.601;0.094008;1888.8;1321.7;4.0507;0.36645;1.984e7;2302.2;85.905;0.59488;0.59632;0.33202;0.178;0.084859;0.27546;1.1158;-1.5984e-4;0;0;0;0;-4.3664e-4;0.012448;140;153.94;66.22;0.0038541;NaN;13.994;995.1;339.78;0.020477;0.025301
1.0348;57.066;115.69;125.22;126.23;137.41;23.032;8.7073e-4;23.032;0.0021661;50.49;56.569;52;20;9.812;0.87021;-1.0622e-6;1.4224;-0.0026191;15162;3512.7;6.5926;0.093992;1889.4;1320.9;4.0608;0.37461;20277753;2309.4;89.867;0.59573;0.59709;0.33182;0.17857;0.085344;0.26644;1.0817;-1.2523e-4;0;0;0;0;1.2115e-4;0.012733;140;153.94;66.232;0.0039835;NaN;13.979;994.83;339.77;0.020193;0.025727
1.055;59.428;118.22;125.46;129.01;137.81;24.063;9.455e-4;24.063;0.0022513;51.635;57.018;52;20;9.812;0.78912;-9.3916e-7;5.3142;-0.0020671;15142;3492.6;6.5849;0.093978;1890.8;1320.2;4.0757;0.38277;20714941;2316.7;93.897;0.59661;0.59773;0.33161;0.17916;0.08584;0.24145;0.98225;-2.4308e-5;0;0;0;0;0.0016199;0.013015;140;153.94;66.164;0.0040917;NaN;13.964;994.55;339.76;0.021281;0.026166
1.0763;61.972;120.89;125.62;131.94;138.23;25.175;0.0010287;25.175;0.0023414;52.853;57.694;52;20;9.812;0.70625;-8.6858e-7;9.2319;-0.0031443;15121;3472.2;6.5771;0.093963;1892.2;1319.4;4.091;0.39165;21190631;2324.5;98.398;0.59758;0.59848;0.33138;0.17981;0.086392;0.21597;0.87907;3.8979e-4;0;0;0;0;0.0046698;0.013313;140;153.94;66.009;0.0042129;NaN;13.947;994.25;339.75;0.022692;0.026591
1.099;64.748;123.74;125.56;135.08;138.69;26.389;0.0011227;26.389;0.0024377;54.173;58.906;52;20;9.812;0.53557;-3.972e-7;12.865;-0.0035435;15100;3450.4;6.5687;0.093947;1894.9;1318.7;4.1157;0.40115;21699149;2333.5;103.32;0.5987;0.59923;0.33112;0.18058;0.086996;0.1634;0.66405;-2.9037e-4;0;0;0;0;0.0086445;0.013633;140;153.94;65.756;0.0043739;NaN;13.929;993.93;339.74;0.028608;0.027031
1.1276;68.339;127.32;125.07;139.04;139.3;27.963;0.0012492;27.963;0.0025595;55.889;61.328;52;20;9.812;0.14268;0;15.475;-0.0077414;15074;3425.1;6.5589;0.093929;1900.8;1317.8;4.1647;0.41283;22324202;2344.7;109.66;0.60069;0.60073;0.3308;0.18213;0.08776;0.043237;0.16807;-4.6775e-4;0;0;0;0;0.011811;0.01404;140;153.94;65.344;0.004569;NaN;13.906;993.51;339.73;0.042911;0.027459
1.1705;73.917;132.65;123.43;145.02;139.57;30.419;0.0014565;30.419;0.0027434;58.601;65.164;52;20;9.8119;0.49201;0;-13.218;0.0024451;15038;3388.7;6.5448;0.093902;1896.4;1316.4;4.1424;0.43018;23250744;2349.3;119.67;0.60371;0.60415;0.33031;0.18446;0.088933;0.1506;0.63194;-1.8795e-4;0;0;0;0;-0.0079376;0.014659;140;153.94;64.701;0.0048336;NaN;13.87;992.85;339.7;0.026074;0.027905
1.1966;77.418;135.86;122.57;148.65;139.71;31.969;0.0015934;31.969;0.0028558;60.326;67.043;52;20;9.8119;0.77839;0;-7.8199;0.0033626;15001;3352.2;6.5307;0.093876;1892.7;1315.1;4.1256;0.44057;23805097;2351.2;125.99;0.60555;0.60666;0.33001;0.18589;0.08966;0.24008;0.99303;-2.6012e-4;0;0;0;0;-0.0026486;0.01504;140;153.94;64.421;0.0050542;NaN;13.847;992.44;339.69;0.015791;0.028334
1.2123;79.578;137.79;122.34;150.85;139.76;32.93;0.0016807;32.93;0.0029242;61.39;67.575;52;20;9.8119;0.83201;-3.1948e-7;-3.5673;0.0028138;14979;3329.4;6.5218;0.093859;1892.2;1314.3;4.1277;0.44699;24147033;2352.5;129.93;0.60671;0.60797;0.32981;0.18678;0.090117;0.25717;1.0617;2.3037e-4;0;0;0;0;-5.355e-4;0.015271;140;153.94;64.33;0.0051854;NaN;13.833;992.19;339.68;0.014333;0.028768
1.2267;81.566;139.54;122.31;152.84;139.77;33.817;0.0017627;33.817;0.0029866;62.36;67.637;52;20;9.8119;0.81188;0;0.46773;0.0021738;14962;3313;6.5154;0.093847;1892.7;1313.7;4.1354;0.45284;24458878;2353.9;133.55;0.60777;0.60898;0.32964;0.18759;0.090539;0.25107;1.0387;3.4948e-4;0;0;0;0;8.9703e-6;0.015482;140;153.94;64.308;0.0052712;NaN;13.82;991.96;339.67;0.014263;0.029204
1.2409;83.569;141.29;122.46;154.83;139.75;34.714;0.0018472;34.714;0.0030488;63.323;67.328;52;20.001;9.8119;0.73678;0;4.3591;0.0019176;14947;3297.4;6.5093;0.093836;1893.9;1313.1;4.1484;0.45867;24769082;2355.2;137.16;0.60883;0.60983;0.32946;0.18841;0.090965;0.2277;0.94334;2.6433e-4;0;0;0;0;7.5949e-4;0.015691;140;153.94;64.343;0.0053337;NaN;13.807;991.72;339.67;0.015298;0.029629
1.2562;85.745;143.16;122.82;156.96;139.7;35.69;0.0019408;35.69;0.0031158;64.348;66.578;52;20.001;9.8119;0.59575;0;8.0646;0.0012618;14931;3281.3;6.503;0.093824;1896.1;1312.5;4.1682;0.46494;25102921;2356.7;141.09;0.60999;0.61065;0.32926;0.1893;0.09143;0.18376;0.7635;-4.5265e-4;0;0;0;0;0.00253;0.015915;140;153.94;64.439;0.0053836;NaN;13.793;991.47;339.66;0.018382;0.030072
1.2746;88.397;145.43;123.47;159.52;139.62;36.884;0.0020576;36.884;0.0031963;65.559;65.18;52;20.001;9.8119;0.35964;-3.0898e-7;11.347;8.377e-4;14912;3263;6.4958;0.093811;1899.7;1311.9;4.1987;0.47252;25506062;2358.8;145.92;0.61141;0.61165;0.32902;0.19038;0.092;0.11052;0.45887;-8.3259e-5;0;0;0;0;0.0048497;0.016184;140;153.94;64.619;0.0054341;NaN;13.775;991.15;339.65;0.027574;0.030506
1.3022;92.454;148.85;124.65;163.36;139.47;38.716;0.0022415;38.716;0.0033171;67.321;62.549;52;20.001;9.8119;0.042916;0;-12.995;-0.017158;14887;3237.9;6.4859;0.093793;1904.6;1310.9;4.2403;0.48388;2.611e7;2362;153.43;0.61355;0.61356;0.32866;0.19202;0.092873;0.013127;0.062136;-2.5463e-4;0;0;0;0;-0.0060655;0.016583;140;153.94;64.965;0.0055165;NaN;13.749;990.68;339.63;0.04136;0.030938
1.3436;98.718;154.04;126.13;169.13;139.26;41.553;0.0025364;41.553;0.0034973;69.831;59.026;52;20.001;9.8119;0.51236;1.6137e-6;-7.7049;-0.0029291;14850;3200.4;6.4711;0.093766;1898.6;1309.6;4.2073;0.50085;2.701e7;2364.7;165.26;0.61682;0.61732;0.3281;0.19451;0.094214;0.15875;0.67005;-8.0032e-5;0;0;0;0;-0.0019907;0.017175;140;153.94;65.419;0.0056616;NaN;13.708;989.94;339.61;0.01799;0.031364
1.3615;101.51;156.31;126.54;171.63;139.25;42.819;0.0026718;42.819;0.0035751;70.884;58.119;52;20.001;9.8119;0.62224;1.6268e-6;-3.1671;-0.0021854;14817;3168.1;6.4583;0.093742;1897.4;1308.4;4.2071;0.5083;27405467;2366.2;170.62;0.61828;0.61901;0.32784;0.19562;0.094817;0.1935;0.81473;-1.171e-4;0;0;0;0;-3.2657e-4;0.017431;140;153.94;65.518;0.0057366;NaN;13.69;989.62;339.6;0.014341;0.031813
1.3759;103.76;158.13;126.63;173.63;139.2;43.841;0.0027827;43.841;0.0036367;71.715;57.822;52;20.001;9.8118;0.65117;1.4272e-6;1.0147;-0.0023458;14800;3150.5;6.4513;0.093729;1897.2;1307.7;4.2108;0.51427;27721917;2367.5;174.96;0.61946;0.62026;0.32764;0.19652;0.095307;0.20285;0.85427;-6.1739e-5;0;0;0;0;3.2748e-5;0.017634;140;153.94;65.534;0.0058102;NaN;13.676;989.35;339.59;0.01335;0.032231
1.3892;105.89;159.82;126.51;175.49;139.16;44.804;0.0028886;44.804;0.0036939;72.487;57.976;52;20.001;9.8118;0.62264;1.4881e-6;5.0035;-0.0019211;14785;3135.4;6.4453;0.093719;1897.9;1307.1;4.2196;0.51983;28016265;2368.7;179.02;0.62057;0.6213;0.32744;0.19736;0.095769;0.19405;0.81841;1.5454e-4;0;0;0;0;7.794e-4;0.017823;140;153.94;65.494;0.0058985;NaN;13.662;989.1;339.58;0.01363;0.032658
1.4029;108.08;161.54;126.19;177.38;139.12;45.797;0.0029991;45.797;0.0037521;73.281;58.585;52;20.001;9.8118;0.53771;1.4617e-6;8.8092;-0.0029682;14770;3120.7;6.4395;0.093708;1899.3;1306.6;4.234;0.52549;28315635;2370;183.17;0.6217;0.62225;0.32725;0.19822;0.096243;0.16747;0.70642;4.4583e-4;0;0;0;0;0.0023643;0.018016;140;153.94;65.399;0.0060092;NaN;13.648;988.85;339.57;0.015442;0.033151
1.4183;110.59;163.48;125.56;179.53;139.09;46.936;0.0031276;46.936;0.0038179;74.195;59.83;52;20.001;9.8118;0.37315;1.4104e-6;12.267;-0.0042513;14754;3104.9;6.4332;0.093696;1902;1306;4.2571;0.53183;28650720;2371.7;187.86;0.62299;0.62325;0.32702;0.19919;0.096781;0.11596;0.48875;-3.3647e-4;0;0;0;0;0.0044763;0.018236;140;153.94;65.235;0.0061996;NaN;13.631;988.55;339.56;0.021776;0.033622
1.4401;114.18;166.21;124.39;182.56;139.04;48.566;0.0033147;48.566;0.0039105;75.522;62.129;52;20.001;9.8118;0.086196;1.2403e-6;14.78;-0.0099983;14734;3084.6;6.4251;0.093682;1906.6;1305.2;4.2951;0.54076;29122696;2374.2;194.64;0.62481;0.62483;0.3267;0.20057;0.09755;0.026674;0.1081;-2.1929e-4;0;0;0;0;0.0062855;0.018547;140;153.94;64.935;0.0064876;NaN;13.608;988.13;339.55;0.032663;0.03411
1.4728;119.67;170.24;122.59;187.09;138.98;51.067;0.0036096;51.067;0.0040499;77.609;65.472;52;20.001;9.8118;0.29262;2.0005e-6;-12.637;-3.3095e-4;14704;3054.9;6.4132;0.09366;1904.5;1304.1;4.2884;0.55431;29837613;2376.8;205.35;0.62762;0.62779;0.3262;0.20268;0.098741;0.091198;0.39546;-4.9897e-4;0;0;0;0;-0.0043739;0.019019;140;153.94;64.47;0.0069733;NaN;13.572;987.49;339.52;0.024724;0.034612
1.4975;123.92;173.26;121.65;190.52;138.93;53.006;0.0038454;53.006;0.0041567;79.25;67.099;52;20.001;9.8118;0.44926;2.5641e-6;-7.3092;0.0011368;14673;3023.7;6.4006;0.093637;1903;1302.9;4.2863;0.56461;3.038e7;2378.7;213.75;0.62979;0.63018;0.32581;0.20431;0.099666;0.14078;0.60444;-1.2562e-4;0;0;0;0;-0.0014105;0.019379;140;153.94;64.219;0.0072675;NaN;13.545;986.99;339.51;0.015568;0.035095
1.513;126.63;175.15;121.38;192.68;138.88;54.248;0.0039998;54.248;0.0042246;80.299;67.485;52;20.001;9.8118;0.47242;2.7975e-6;-3.1009;7.1896e-4;14651;3001.7;6.3918;0.093622;1903.2;1302.1;4.2934;0.57107;3.072e7;2380.1;219.09;0.63116;0.63159;0.32556;0.20535;0.10025;0.14831;0.63676;-2.4884e-4;0;0;0;0;-2.4818e-4;0.019607;140;153.94;64.138;0.0073725;NaN;13.527;986.67;339.5;0.014431;0.035563
1.5275;129.17;176.9;121.36;194.68;138.78;55.413;0.0041471;55.413;0.004288;81.272;67.304;52;20.001;9.8118;0.43587;2.8687e-6;0.8319;0.002463;14635;2985.4;6.3852;0.09361;1904.1;1301.5;4.3047;0.57705;31034813;2381.4;224.06;0.63245;0.63281;0.32533;0.20631;0.10081;0.13692;0.58966;1.5726e-4;0;0;0;0;1.7494e-5;0.019818;140;153.94;64.122;0.0074463;NaN;13.51;986.37;339.49;0.015251;0.036035
1.5427;131.88;178.75;121.61;196.79;138.64;56.661;0.0043071;56.661;0.0043554;82.293;66.574;52;20.001;9.8118;0.34189;3.0961e-6;4.4858;0.0023768;14618;2969.2;6.3787;0.093598;1905.9;1300.9;4.322;0.58336;31366834;2383;229.36;0.63381;0.63404;0.32509;0.20733;0.10139;0.10734;0.46354;-7.8169e-5;0;0;0;0;4.9776e-4;0.02004;140;153.94;64.163;0.0074921;NaN;13.493;986.05;339.48;0.018969;0.036505
1.5617;135.29;181.06;122.15;199.41;138.44;58.234;0.0045125;58.234;0.0044398;83.543;65.155;52;20.001;9.8118;0.18142;2.9565e-6;7.6009;0.0014344;14600;2950.6;6.3711;0.093584;1908.8;1300.1;4.3477;0.59114;31775398;2385.1;235.99;0.63551;0.63557;0.32478;0.2086;0.10213;0.056868;0.24625;1.3982e-4;0;0;0;0;0.0013918;0.020316;140;153.94;64.281;0.007456;NaN;13.471;985.65;339.46;0.028454;0.036984
1.5901;140.5;184.55;123.15;203.34;138.12;60.637;0.0048329;60.637;0.0045666;85.36;62.527;52;20.001;9.8117;0.089701;3.367e-6;-8.4073;-0.0055296;14574;2924.8;6.3606;0.093566;1911.1;1299.1;4.3711;0.60273;32383307;2388.4;246.15;0.63806;0.63808;0.32431;0.21051;0.10324;0.02814;0.12427;3.013e-4;0;0;0;0;-0.0016382;0.020725;140;153.94;64.52;0.0072731;NaN;13.437;985.04;339.44;0.042681;0.037453
1.6328;148.48;189.84;124.03;209.22;137.67;64.336;0.0053395;64.336;0.0047552;87.96;59.752;52;20.001;9.8117;0.3427;0;-1.1906;-0.0017486;14535;2886;6.3448;0.093538;1909.2;1297.7;4.3679;0.62017;33296210;2391.1;262.04;0.64198;0.64221;0.3236;0.21343;0.10495;0.10852;0.47424;1.6965e-4;0;0;0;0;-3.1035e-5;0.021332;140;153.94;64.747;0.0073409;NaN;13.385;984.11;339.41;0.016351;0.037922
1.6492;151.61;191.86;123.94;211.47;137.59;65.782;0.0055416;65.782;0.0048267;88.936;59.744;52;20.001;9.8117;0.33487;0;2.8882;-0.0010912;14503;2853.9;6.3317;0.093514;1909.9;1296.4;4.3822;0.62685;33645403;2392.6;268.24;0.6435;0.64372;0.32331;0.21457;0.10562;0.1062;0.4657;-2.594e-4;0;0;0;0;1.7879e-4;0.021563;140;153.94;64.733;0.007416;NaN;13.365;983.74;339.4;0.01627;0.038389
1.6654;154.74;193.88;123.56;213.71;137.44;67.237;0.005747;67.237;0.0048973;89.911;60.196;52;20.001;9.8117;0.28747;0;6.7048;-0.0030733;14485;2836.1;6.3244;0.093501;1911.2;1295.7;4.3966;0.63362;33999104;2394.2;274.6;0.64505;0.64521;0.32303;0.21572;0.1063;0.091234;0.40004;-1.3582e-4;0;0;0;0;9.4309e-4;0.021793;140;153.94;64.654;0.0075721;NaN;13.344;983.37;339.39;0.018524;0.038864
1.684;158.36;196.16;122.78;216.25;137.28;68.913;0.0059864;68.913;0.0049773;91.036;61.419;52;20.001;9.8117;0.17153;0;10.002;-0.0079404;14466;2817.2;6.3166;0.093488;1913.6;1295;4.4191;0.64133;34401416;2396.2;281.93;0.64683;0.64689;0.3227;0.21705;0.10709;0.054418;0.23845;3.6165e-4;0;0;0;0;0.0020489;0.022055;140;153.94;64.497;0.0079037;NaN;13.321;982.95;339.37;0.027785;0.039333
1.7118;163.85;199.55;119.36;220.06;135.25;71.466;0.0063579;71.466;0.0050973;92.78;63.602;52;20.001;9.8117;0.10418;0;-11.036;-0.0073544;14441;2792;6.3062;0.093469;1915.8;1294;4.4413;0.65261;34989474;2361.2;292.92;0.64948;0.6495;0.32221;0.21901;0.10826;0.033104;0.14911;-2.8073e-4;0;0;0;0;-0.0024091;0.022451;140;153.94;64.191;0.0085051;NaN;13.285;982.3;339.35;0.041678;0.039803
1.7534;172.27;204.45;103.49;225.65;119.57;75.39;0.0069471;75.39;0.0052797;95.501;59.886;52;20.001;9.8116;0.37696;8.6593e-6;-1.1377;-0.0017881;14403;2754.2;6.2906;0.093442;1913.7;1292.5;4.4375;0.66873;35826540;2278.9;309.2;0.65331;0.65359;0.32149;0.22185;0.10997;0.12096;0.53717;-3.0877e-4;0;0;0;0;-2.4388e-5;0.023042;140;153.94;63.912;0.0090114;NaN;13.23;981.32;339.32;0.012344;0.040281
1.7658;174.8;205.81;101.84;227.21;117.44;76.573;0.0071295;76.573;0.0053346;96.277;58.496;52;20.001;9.8116;0.32442;8.7061e-6;2.6614;-0.0023437;14375;2725.3;6.2786;0.093421;1915;1291.4;4.4546;0.67344;3.607e7;2121.2;313.98;0.65444;0.65465;0.32128;0.22268;0.11048;0.10413;0.4637;3.935e-4;0;0;0;0;1.316e-4;0.023207;140;153.94;63.922;0.008949;NaN;13.214;981.02;339.31;0.014078;0.040753
1.7799;177.71;207.24;99.651;228.86;114.32;77.934;0.0073417;77.934;0.0053974;97.091;56.03;52;20.001;9.8116;0.21685;8.1924e-6;6.0711;-0.0048763;14361;2712.1;6.2731;0.093411;1917.1;1290.8;4.4731;0.67841;36326968;2082.2;319.05;0.65564;0.65574;0.32105;0.22357;0.11102;0.069549;0.31061;-2.7927e-4;0;0;0;0;6.7488e-4;0.023382;140;153.94;63.985;0.0087936;NaN;13.195;980.68;339.29;0.020699;0.041232
1.8006;182.02;209.31;99.208;231.21;112.44;79.956;0.0076608;79.956;0.0054897;98.225;52.929;52;20.001;9.8116;0.0080265;8.5171e-6;8.1974;-0.13428;14345;2695.7;6.2663;0.093399;1920.8;1290.2;4.5045;0.68553;36694020;2060.8;326.43;0.65738;0.65738;0.32072;0.22485;0.1118;0.0025686;0.010473;1.6864e-4;0;0;0;0;0.0012051;0.023629;140;153.94;64.14;0.0085306;NaN;13.167;980.17;339.28;0.031049;0.041708
1.8316;188.57;212.4;98.343;234.68;109.68;83.03;0.0081535;83.03;0.0056264;99.808;48.553;52;20.001;9.8116;0.26361;9.587e-6;-4.0557;-0.0035184;14321;2671.8;6.2563;0.093382;1918.5;1289.2;4.4949;0.69608;37236839;2041.4;337.69;0.65997;0.66011;0.32023;0.22677;0.11297;0.085053;0.38223;3.9156e-4;0;0;0;0;-2.8615e-4;0.02399;140;153.94;64.348;0.0081455;NaN;13.124;979.41;339.25;0.015955;0.042184
1.8476;191.97;213.98;98.022;236.44;108.96;84.629;0.0084124;84.629;0.0056954;100.58;47.575;52;20.001;9.8116;0.31674;1.016e-5;0.49333;-0.00357;14299;2650.1;6.2472;0.093366;1918.4;1288.4;4.5005;0.70142;37510662;2029.4;343.47;0.66129;0.6615;0.31998;0.22775;0.11357;0.10246;0.46137;8.392e-5;0;0;0;0;4.17e-6;0.024171;140;153.94;64.378;0.0081858;NaN;13.102;979.01;339.24;0.013004;0.042656
1.8606;194.76;215.25;97.053;237.85;108.09;85.941;0.008626;85.941;0.0057509;101.2;47.58;52;20.001;9.8116;0.28254;1.046e-5;4.3773;-0.0048686;14286;2636.8;6.2416;0.093357;1919.4;1287.8;4.5114;0.70561;37724996;2018.1;347.99;0.66234;0.6625;0.31978;0.22851;0.11404;0.091454;0.41269;6.5414e-6;0;0;0;0;3.2443e-4;0.024317;140;153.94;64.346;0.0083855;NaN;13.084;978.68;339.23;0.014358;0.043127
1.8749;197.86;216.64;95.507;239.4;107;87.399;0.008865;87.399;0.0058116;101.89;48.237;52;20.001;9.8116;0.18913;1.0902e-5;7.7901;-0.0045739;14273;2624.1;6.2363;0.093347;1921.3;1287.3;4.5283;0.71016;37957552;2003.4;352.92;0.66348;0.66355;0.31957;0.22935;0.11456;0.061186;0.27611;2.5093e-4;0;0;0;0;0.0010145;0.024477;140;153.94;64.257;0.0087405;NaN;13.064;978.32;339.22;0.021176;0.043591
1.8961;202.47;218.65;92.719;241.66;105.28;89.568;0.0092239;89.568;0.0059005;102.93;49.866;52;20.001;9.8115;0.0010354;1.1016e-5;-9.8238;-0.41873;14257;2607.7;6.2294;0.093336;1924.7;1286.7;4.5577;0.71679;38295898;1981.6;360.2;0.66515;0.66515;0.31925;0.23058;0.11532;3.3437e-4;0.0031722;6.9789e-5;0;0;0;0;-0.0015838;0.024712;140;153.94;64.063;0.0093476;NaN;13.034;977.78;339.2;0.031765;0.044071
1.9279;209.46;221.55;88.835;244.99;102.71;92.863;0.00978;92.863;0.0060342;104.56;51.552;52;20.001;9.8115;0.21361;1.1205e-5;-5.747;-0.0027943;14233;2583.3;6.2191;0.093318;1923.1;1285.7;4.5527;0.72669;3.88e7;1961.2;371.37;0.66767;0.66776;0.31877;0.23244;0.11646;0.069492;0.31725;-1.6215e-4;0;0;0;0;-5.2744e-4;0.025064;140;153.94;63.8;0.0099451;NaN;12.988;976.96;339.17;0.017577;0.044541
1.9454;213.37;223.11;87.831;246.79;101.88;94.709;0.010098;94.709;0.0061088;105.47;51.628;52;20.001;9.8115;0.23987;1.0872e-5;-1.3413;-0.0038381;14210;2560.5;6.2095;0.093301;1923.4;1284.8;4.5617;0.73208;39074234;1947.5;377.51;0.66905;0.66917;0.3185;0.23345;0.11709;0.078211;0.35691;3.519e-5;0;0;0;0;-2.831e-5;0.025256;140;153.94;63.736;0.0099623;NaN;12.963;976.5;339.15;0.015379;0.045015
1.9608;216.81;224.47;86.989;248.35;100.78;96.337;0.010382;96.337;0.0061744;106.27;50.893;52;20.001;9.8115;0.2161;1.0384e-5;2.5276;-0.0055749;14195;2545.3;6.2031;0.09329;1924.3;1284.2;4.5728;0.73663;39304847;1934.2;382.72;0.67022;0.67032;0.31828;0.23431;0.11763;0.070529;0.32193;2.3431e-4;0;0;0;0;9.931e-5;0.025423;140;153.94;63.746;0.0097918;NaN;12.941;976.09;339.14;0.016829;0.045488
1.9776;220.6;225.93;86.398;250.04;99.494;98.132;0.010698;98.132;0.0062461;107.11;49.34;52;20.001;9.8115;0.13852;1.0079e-5;5.917;-0.01377;14180;2530.5;6.1968;0.093279;1926.1;1283.6;4.5894;0.7415;39551111;1919.4;388.32;0.67148;0.67152;0.31804;0.23524;0.11821;0.04521;0.20676;-4.7619e-4;0;0;0;0;5.3713e-4;0.025602;140;153.94;63.819;0.0095182;NaN;12.916;975.65;339.13;0.025243;0.045962
2.0029;226.33;228.12;86.314;252.53;97.915;100.85;0.011182;100.85;0.0063527;108.33;46.23;52;20.001;9.8115;0.042628;1.0886e-5;-7.3692;-0.051011;14161;2511.8;6.1888;0.093266;1928.4;1282.8;4.6113;0.74875;39917126;1904.6;396.77;0.67337;0.67338;0.31767;0.23663;0.11908;0.01392;0.064961;-1.0988e-4;0;0;0;0;-8.1719e-4;0.025866;140;153.94;63.997;0.0092641;NaN;12.879;974.98;339.1;0.037864;0.046426
2.0408;235.03;231.41;85.774;256.22;95.645;104.99;0.011927;104.99;0.0065094;110;42.317;52;20.002;9.8114;0.25367;1.3263e-5;0.51612;-0.008682;14134;2484.8;6.1773;0.093246;1927;1281.7;4.6094;0.76;40484749;1892.8;410.23;0.67633;0.67647;0.3171;0.2388;0.12044;0.083497;0.38452;4.095e-4;0;0;0;0;3.8915e-6;0.026248;140;153.94;64.148;0.009462;NaN;12.822;973.96;339.07;0.01321;0.046894
2.054;238.1;232.54;85.449;257.49;95.455;106.44;0.012193;106.44;0.0065631;110.56;42.546;52;20.002;9.8114;0.23051;1.2553e-5;4.469;-0.0094535;14112;2463.1;6.1681;0.093231;1927.9;1280.8;4.6218;0.76383;40677137;1886.4;414.82;0.67735;0.67746;0.3169;0.23954;0.12091;0.075937;0.35103;3.2988e-4;0;0;0;0;2.8887e-4;0.026379;140;153.94;64.115;0.0098146;NaN;12.802;973.6;339.06;0.01431;0.047359
2.0683;241.43;233.76;84.144;258.85;94.744;108.03;0.012484;108.03;0.0066211;111.18;43.545;52;20.002;9.8114;0.13763;1.2153e-5;7.74;-0.012673;14101;2451.4;6.1631;0.093222;1929.7;1280.3;4.6384;0.76783;40877884;1878.2;419.63;0.67842;0.67845;0.3167;0.24032;0.1214;0.04532;0.2096;3.7354e-4;0;0;0;0;8.5755e-4;0.026521;140;153.94;64.026;0.01023;NaN;12.781;973.21;339.04;0.021465;0.048306
2.0897;246.47;235.55;81.736;260.88;93.638;110.43;0.012928;110.43;0.0067081;112.14;45.688;52;20.002;9.8114;0.044816;1.2239e-5;-8.9691;-0.033777;14086;2436.3;6.1566;0.093211;1931.8;1279.7;4.658;0.77378;41175715;1865.8;426.88;0.68001;0.68001;0.31639;0.24149;0.12213;0.014761;0.069695;-1.5606e-4;0;0;0;0;-0.001134;0.026733;140;153.94;63.838;0.010972;NaN;12.748;972.61;339.02;0.032197;0.048906
2.1219;254.1;238.14;78.926;263.87;91.937;114.06;0.013618;114.06;0.0068406;113.65;47.149;52;20.002;9.8114;0.18798;1.5059e-5;-3.2145;-0.0088979;14063;2413.5;6.1468;0.093195;1931.1;1278.8;4.6599;0.78282;41627559;1854.6;438.11;0.68245;0.68252;0.31592;0.24327;0.12326;0.062287;0.2905;3.6767e-4;0;0;0;0;-1.4235e-4;0.027053;140;153.94;63.63;0.011576;NaN;12.698;971.72;338.99;0.016438;0.049375
2.1384;258.02;239.44;78.568;265.38;91.371;115.93;0.013981;115.93;0.0069095;114.43;46.645;52;20.002;9.8114;0.16398;1.5026e-5;0.67009;-0.0087047;14042;2392.9;6.1379;0.09318;1932.1;1277.9;4.6731;0.78743;41857532;1846.5;443.87;0.6837;0.68375;0.31567;0.24418;0.12384;0.0544;0.25421;3.5436e-4;0;0;0;0;6.1139e-6;0.027214;140;153.94;63.61;0.011352;NaN;12.673;971.26;338.98;0.018547;0.049866
2.1569;262.48;240.9;78.301;267.06;90.278;118.06;0.014399;118.06;0.0069878;115.28;44.934;52;20.002;9.8114;0.075684;1.4719e-5;3.7005;-0.013698;14027;2378.1;6.1315;0.093169;1934.1;1277.3;4.6915;0.79257;42113824;1835.8;450.34;0.6851;0.68511;0.3154;0.24521;0.1245;0.025112;0.11758;-4.9413e-4;0;0;0;0;1.8407e-4;0.027394;140;153.94;63.653;0.010886;NaN;12.644;970.74;338.96;0.02782;0.050369
2.1847;269.21;243.09;78.053;269.56;88.527;121.29;0.01504;121.29;0.0071047;116.49;41.77;52;20.002;9.8113;0.085448;1.4342e-5;-3.3816;-0.011402;14008;2358.4;6.123;0.093155;1935.1;1276.5;4.7044;0.80017;42491380;1821.5;460.05;0.68719;0.68721;0.31499;0.24673;0.12547;0.028437;0.13399;-4.2662e-5;0;0;0;0;-1.5083e-4;0.027657;140;153.94;63.765;0.010576;NaN;12.6;969.95;338.93;0.034041;0.050934
2.2188;277.53;245.75;76.567;272.56;86.648;125.28;0.015843;125.28;0.0072456;117.88;40.565;52;20.002;9.8113;0.1077;1.905e-5;2.492;-0.0069203;13981;2332.2;6.1116;0.093135;1936.1;1275.4;4.7194;0.80905;4.293e7;1807.6;471.53;0.68965;0.68967;0.31451;0.24853;0.12661;0.03598;0.16941;-1.1812e-4;0;0;0;0;8.0136e-5;0.02797;140;153.94;63.779;0.011001;NaN;12.546;968.97;338.9;0.026313;0.051418
2.2451;284.02;247.75;74.626;274.83;85.549;128.39;0.016478;128.39;0.0073535;118.97;41.827;52;20.002;9.8113;0.0038718;1.9832e-5;-4.5327;-0.068343;13956;2306.6;6.1005;0.093117;1938.5;1274.3;4.7444;0.81563;43253510;1792.4;480.11;0.69149;0.69149;0.31415;0.24986;0.12747;0.0012941;0.0068917;-3.5897e-4;0;0;0;0;-2.6089e-4;0.02821;140;153.94;63.678;0.011577;NaN;12.504;968.21;338.88;0.03947;0.051903
2.2846;293.86;250.66;71.808;278.18;83.399;133.12;0.017463;133.12;0.007516;120.66;42.415;52;20.002;9.8113;0.096889;1.9161e-5;-0.60882;0.0020374;13928;2278.7;6.0884;0.093097;1938.7;1273.1;4.7543;0.82543;43733654;1776.9;493.1;0.69424;0.69427;0.31361;0.25187;0.12876;0.032568;0.15484;-1.8743e-4;0;0;0;0;-4.5968e-6;0.028567;140;153.94;63.566;0.012124;NaN;12.44;967.06;338.84;0.027607;0.0524
2.3122;300.81;252.64;71.267;280.48;82.186;136.47;0.018175;136.47;0.0076307;121.82;40.933;52;20.002;9.8112;0.035904;1.9066e-5;2.5851;0.015711;13900;2250.3;6.0759;0.093076;1940.6;1271.9;4.7763;0.83224;44066099;1762;502.23;0.69618;0.69618;0.31323;0.25328;0.12967;0.012088;0.057531;-3.2094e-4;0;0;0;0;8.1539e-5;0.028812;140;153.94;63.599;0.01238;NaN;12.395;966.24;338.81;0.041411;0.052875
2.3536;311.33;255.6;70.222;283.85;79.817;141.55;0.01928;141.55;0.0078043;123.45;37.942;52;20.002;9.8112;0.081754;2.3984e-5;-0.065887;0.002286;13872;2222.5;6.0637;0.093056;1941.6;1270.8;4.7916;0.84241;44561042;1747;516.06;0.69908;0.6991;0.31266;0.25539;0.13103;0.027663;0.13223;6.9683e-6;0;0;0;0;-5.1709e-8;0.029167;140;153.94;63.673;0.012137;NaN;12.326;965.01;338.77;0.030977;0.053353
2.3846;319.28;257.77;68.705;286.32;78.522;145.39;0.020132;145.39;0.0079334;124.63;38.018;52;20.002;9.8112;0.044586;2.4537e-5;3.4405;0.0083719;13843;2194.2;6.0513;0.093035;1943.2;1269.5;4.8121;0.84979;44918664;1730.9;526.23;0.70121;0.70122;0.31224;0.25694;0.13204;0.015123;0.072237;2.0054e-4;0;0;0;0;1.3858e-4;0.029427;140;153.94;63.615;0.012109;NaN;12.275;964.08;338.74;0.046466;0.053828
2.431;331.33;260.91;65.533;289.93;76.105;151.22;0.021446;151.22;0.0081254;126.44;38.697;52;20.002;9.8111;0.05188;2.655e-5;-1.8675;0.0075357;13813;2163.9;6.0379;0.093013;1944.9;1268.3;4.8329;0.86063;45440920;1711.7;541.38;0.70437;0.70437;0.31161;0.25923;0.13353;0.017681;0.085971;1.6117e-4;0;0;0;0;-3.9822e-5;0.029812;140;153.94;63.469;0.012994;NaN;12.196;962.66;338.69;0.045567;0.054376
2.4766;343.29;263.89;63.828;293.38;73.887;157.03;0.022789;157.03;0.0083152;128.19;37.22;52;20.002;9.8111;0.021819;2.7102e-5;1.0545;0.01315;13777;2127.9;6.0219;0.092987;1946.9;1266.7;4.8586;0.87079;45926492;1691.9;555.77;0.70736;0.70736;0.31102;0.2614;0.13494;0.0074654;0.036551;4.3476e-4;0;0;0;0;1.2404e-5;0.030179;140;153.94;63.471;0.013612;NaN;12.119;961.26;338.64;0.05;0.054842
2.5266;356.56;267.08;61.985;297.04;71.373;163.48;0.024323;163.48;0.0085244;130.01;35.384;52;20.002;9.8111;0.016837;3.1525e-5;-0.112;4.2876e-4;13740;2090.5;6.0053;0.09296;1948.7;1265.1;4.883;0.88144;46430907;1671.1;571.06;0.71052;0.71052;0.31039;0.26369;0.13644;0.0057879;0.027955;4.7901e-4;0;0;0;0;-1.3663e-7;0.030568;140;153.94;63.51;0.012528;NaN;12.032;959.7;338.59;0.05;0.055318
2.5766;369.99;270.16;59.956;300.58;68.943;170.03;0.025903;170.03;0.0087287;131.78;34.035;52;20.002;9.811;0.032308;2.4088e-5;1.008;-0.0012703;13701;2051.4;5.9878;0.092932;1950.3;1263.4;4.9062;0.89204;4.693e7;1650.3;586.52;0.71369;0.7137;0.30976;0.26599;0.13794;0.011165;0.055132;1.3259e-4;0;0;0;0;1.0808e-5;0.030945;140;153.94;63.489;0.013557;NaN;11.945;958.13;338.54;0.05;0.055794
2.6266;383.58;273.13;57.244;304;66.59;176.66;0.027544;176.66;0.0089333;133.49;34.02;52;20.003;9.811;0.017944;2.3685e-5;-2.0132;-0.027402;13662;2012.3;5.9702;0.092903;1952.2;1261.7;4.9322;0.90245;47417981;1629.9;602.39;0.71739;0.71739;0.30888;0.26907;0.13944;0.0062301;0.031078;-3.8152e-4;0;0;0;0;-4.2137e-5;0.031309;140;153.94;63.379;0.014769;NaN;11.857;956.53;338.48;0.05;0.056312
2.6766;397.3;275.96;54.844;307.3;64.235;183.38;0.029261;183.38;0.0091427;135.19;33.439;52;20.003;9.8109;0.040941;8.3123e-6;0.39011;-0.011222;13623;1974.2;5.9531;0.092876;1953.5;1260;4.9534;0.91206;47861202;1610.7;618.59;0.72247;0.72247;0.30729;0.27433;0.14084;0.014288;0.071034;-3.3684e-4;0;0;0;0;1.5496e-6;0.031663;140;153.94;63.346;0.013537;NaN;11.768;954.92;338.43;0.048809;0.056789
2.7254;410.84;278.64;53.764;310.4;61.753;190.01;0.030983;190.01;0.0093424;136.78;30.378;52;20.003;9.8109;0.055794;2.8322e-6;-0.60638;-0.0095451;13587;1937.8;5.9366;0.092849;1954.8;1258.4;4.9745;0.9212;48282812;1594.5;634.29;0.72733;0.72734;0.30579;0.27936;0.14219;0.019564;0.097266;-4.3602e-4;0;0;0;0;-3.6712e-6;0.031995;140;153.94;63.425;0.014606;NaN;11.68;953.4;338.38;0.034901;0.057276
2.7603;420.59;280.52;52.204;312.55;60.296;194.81;0.032246;194.81;0.0094843;137.84;30.172;52;20.003;9.8109;0.035415;4.6516e-6;3.3672;-0.023298;13557;1907.3;5.9227;0.092827;1956.2;1257.1;4.994;0.9278;48587026;1578;645.79;0.73086;0.73087;0.3047;0.283;0.14317;0.012454;0.061851;2.8655e-4;0;0;0;0;1.1162e-4;0.032223;140;153.94;63.367;0.01524;NaN;11.616;952.31;338.34;0.05;0.057755
2.8103;434.68;283.07;49.104;315.53;57.729;201.74;0.034116;201.74;0.0096894;139.39;30.357;52;20.003;9.8108;0.025182;-4.9056e-6;-1.1647;0.010161;13526;1876.4;5.9086;0.092805;1957.9;1255.7;5.0158;0.93697;49006148;1558.6;661.95;0.73579;0.73579;0.30319;0.28806;0.14454;0.0088932;0.044832;-7.5712e-5;0;0;0;0;-1.3098e-5;0.032543;140;153.94;63.236;0.014087;NaN;11.525;950.73;338.28;0.05;0.058391
2.8603;448.9;285.51;47.188;318.38;55.344;208.74;0.036026;208.74;0.0098885;140.88;28.918;52;20.003;9.8108;0.006076;-2.7578e-6;-0.54578;-0.0085236;13489;1840;5.8919;0.092778;1959.6;1254;5.0394;0.94555;49393288;1539.7;677.26;0.74043;0.74043;0.30178;0.29282;0.14584;0.0021539;0.010895;1.0214e-4;0;0;0;0;-2.8253e-6;0.03285;140;153.94;63.215;0.016053;NaN;11.432;949.15;338.23;0.05;0.059051
2.9103;463.23;287.85;45.538;321.11;53.234;215.82;0.038009;215.82;0.01009;142.32;27.572;52;20.003;9.8107;0.011839;0;-0.37244;0.0040984;13453;1804;5.8753;0.092752;1960.8;1252.4;5.0596;0.95346;49742895;1523.8;691.59;0.74488;0.74488;0.30048;0.29737;0.14704;0.0042132;0.021305;1.5639e-4;0;0;0;0;-1.2944e-6;0.033145;140;153.94;63.234;0.016843;NaN;11.339;947.54;338.17;0.05;0.059504
2.9603;477.68;290.11;43.437;323.75;51.191;222.97;0.040069;222.97;0.010296;143.69;27.088;52;20.003;9.8107;0.0065694;-3.2976e-6;-1.251;-0.0082386;13418;1769.1;5.8592;0.092727;1962.1;1250.8;5.0806;0.96142;50094065;1508.4;706.42;0.74959;0.74959;0.29917;0.30216;0.14826;0.0023464;0.011651;1.7281e-4;0;0;0;0;-1.4367e-5;0.033428;140;153.94;63.178;0.016386;NaN;11.245;945.93;338.11;0.05;0.059942
3.0103;492.24;292.27;41.815;326.27;49.095;230.19;0.042185;230.19;0.0105;145.03;25.727;52;20.003;9.8107;0.012888;-4.5985e-6;0.31727;8.2135e-4;13384;1734.6;5.8432;0.092702;1963.2;1249.3;5.0998;0.96899;50423166;1492.9;720.64;0.75408;0.75408;0.29792;0.30673;0.14944;0.0046196;0.023594;2.1499e-4;0;0;0;0;9.1003e-7;0.033702;140;153.94;63.166;0.01648;NaN;11.15;944.3;338.06;0.05;0.060378
3.0603;506.91;294.34;39.671;328.7;47.063;237.47;0.04436;237.47;0.010703;146.31;25.32;52;20.003;9.8106;0.0071834;0;-1.7849;0.045593;13349;1700.2;5.8271;0.092677;1964.5;1247.7;5.1201;0.97662;50754176;1477.5;735.18;0.75864;0.75864;0.29666;0.31134;0.15063;0.0025833;0.012993;3.2489e-4;0;0;0;0;-2.8363e-5;0.033964;140;153.94;63.076;0.016561;NaN;11.055;942.66;338;0.05;0.060813
3.1103;521.67;296.3;37.765;331.02;45.047;244.82;0.04659;244.82;0.010903;147.57;24.556;52;20.004;9.8106;0.012155;4.4298e-6;-0.70019;-0.015376;13315;1665.7;5.811;0.092652;1965.5;1246.1;5.1387;0.9837;51054761;1461.9;748.73;0.76288;0.76288;0.2955;0.31564;0.15174;0.0043849;0.022123;1.2791e-4;0;0;0;0;-4.3038e-6;0.034216;140;153.94;63.026;0.018083;NaN;10.959;941.01;337.94;0.05;0.061252
3.1603;536.54;298.18;36.346;333.24;42.873;252.23;0.048893;252.23;0.011106;148.79;22.738;52;20.004;9.8105;0.023051;5.8085e-6;-0.18481;-0.0030891;13281;1631.7;5.795;0.092627;1966.3;1244.5;5.1558;0.99012;51319382;1444.6;761.02;0.76673;0.76673;0.29444;0.31953;0.15276;0.0083397;0.043249;1.2394e-4;0;0;0;0;-2.9606e-7;0.034458;140;153.94;63.06;0.017433;NaN;10.863;939.35;337.88;0.05;0.061694
3.2103;551.49;299.97;33.829;335.35;40.84;259.7;0.051252;259.7;0.011307;149.93;22.881;52;20.004;9.8105;0.020346;1.504e-5;-1.3412;0.023972;13248;1598.6;5.7794;0.092603;1967.4;1243;5.1739;0.99674;51593340;1426.9;773.86;0.77073;0.77073;0.29335;0.32356;0.15381;0.00738;0.038452;-2.8115e-6;0;0;0;0;-1.539e-5;0.034688;140;153.94;62.96;0.016935;NaN;10.765;937.68;337.82;0.05;0.062139
3.2603;566.53;301.65;32.334;337.36;38.575;267.22;0.053658;267.22;0.011505;151.05;21.036;52;20.004;9.8104;0.014213;8.505e-6;0.47173;0.0052538;13215;1566.1;5.764;0.092579;1968.3;1241.5;5.1915;1.0027;51833453;1409.2;786.43;0.7753;0.7753;0.29236;0.32902;0.15392;0.0051668;0.027019;-4.7386e-4;0;0;0;0;1.882e-6;0.034909;140;153.94;62.97;0.018042;NaN;10.668;936;337.76;0.05;0.062566
3.3103;581.65;303.25;30.044;339.26;36.536;274.8;0.056121;274.8;0.011701;152.11;20.789;52;20.004;9.8104;0.013226;1.0654e-5;-0.63037;0.0064565;13183;1533.6;5.7485;0.092556;1969.1;1240;5.2083;1.0085;52062052;1391.5;798.61;0.7797;0.7797;0.29141;0.33526;0.15303;0.0048182;0.024977;-7.3988e-5;0;0;0;0;-3.3233e-6;0.035117;140;153.94;62.906;0.018749;NaN;10.569;934.31;337.7;0.05;0.063009
3.3603;596.85;304.74;28.49;341.05;34.431;282.43;0.058652;282.43;0.011898;153.13;19.335;52;20.004;9.8103;0.0069947;1.2456e-5;0.15878;-0.001541;13150;1501;5.733;0.092532;1969.9;1238.4;5.2249;1.0137;52258423;1374;809.48;0.78366;0.78366;0.29056;0.34086;0.15225;0.0025526;0.013363;-2.9426e-4;0;0;0;0;2.0877e-7;0.035315;140;153.94;62.921;0.018941;NaN;10.47;932.61;337.64;0.05;0.063441
3.4103;612.12;306.14;26.722;342.74;32.647;290.12;0.061241;290.12;0.012095;154.1;18.756;52;20.004;9.8103;0.0026266;1.0887e-5;-0.044067;0.010559;13118;1468.8;5.7175;0.092509;1970.6;1236.9;5.241;1.0187;5.244e7;1358.8;819.8;0.78744;0.78744;0.28974;0.34618;0.15151;9.6008e-4;0.0047922;3.7137e-4;0;0;0;0;-1.5931e-8;0.035502;140;153.94;62.904;0.019795;NaN;10.371;930.91;337.58;0.05;0.063868
3.4603;627.47;307.47;25.349;344.34;30.83;297.84;0.063892;297.84;0.012291;155.02;17.549;52;20.004;9.8102;0.012725;1.6177e-5;0.41427;-0.021808;13087;1437.3;5.7024;0.092486;1971.1;1235.4;5.2552;1.0234;5.261e7;1344.3;829.75;0.7911;0.7911;0.28896;0.35133;0.15081;0.0046592;0.024543;-4.4193e-4;0;0;0;0;1.3954e-6;0.035679;140;153.94;62.904;0.02003;NaN;10.271;929.19;337.52;0.05;0.064304
3.5103;642.87;308.72;23.33;345.85;29.188;305.62;0.066604;305.62;0.012487;155.91;17.54;52;20.004;9.8102;0.01625;3.2759e-6;-0.95154;-0.0096691;13056;1406.4;5.6874;0.092463;1971.7;1233.9;5.2699;1.0282;52785944;1329.9;840.08;0.79489;0.79489;0.28816;0.35662;0.1501;0.0059592;0.031186;4.2258e-4;0;0;0;0;-7.2952e-6;0.035847;140;153.94;62.819;0.020779;NaN;10.171;927.47;337.46;0.05;0.064739
3.5603;658.34;309.88;22.217;347.28;27.57;313.43;0.069384;313.43;0.012683;156.76;16.325;52;20.005;9.8101;0.0031578;1.5113e-5;0.85635;-0.16937;13025;1375.5;5.6724;0.092441;1972.4;1232.4;5.2856;1.0325;52932334;1317.7;849.13;0.79826;0.79826;0.28746;0.36133;0.14947;0.0011592;0.0061282;3.7864e-4;0;0;0;0;5.8616e-6;0.036007;140;153.94;62.812;0.02129;NaN;10.071;925.75;337.4;0.05;0.065174
3.6103;673.86;310.98;20.89;348.62;26.173;321.29;0.07224;321.29;0.012882;157.58;15.768;52;20.005;9.8101;4.0838e-4;1.3023e-5;-0.011355;0.052946;12995;1345.3;5.6577;0.092419;1972.9;1231;5.2997;1.0365;5.306e7;1306.2;857.35;0.80135;0.80135;0.28681;0.36565;0.1489;1.5008e-4;6.9075e-4;-4.9453e-4;0;0;0;0;0;0.036159;140;153.94;62.796;0.019864;NaN;9.9699;924.01;337.34;0.05;0.065608
3.6603;689.43;312.01;19.911;349.9;24.696;329.19;0.07515;329.19;0.01308;158.36;14.609;52;20.005;9.81;0.018678;7.2274e-6;0.21074;0.027367;12965;1315.3;5.6431;0.092397;1973.1;1229.5;5.3116;1.0402;53174194;1294.7;865.04;0.80428;0.80428;0.28619;0.36972;0.14837;0.0068732;0.036618;2.1664e-4;0;0;0;0;3.5001e-7;0.036303;140;153.94;62.806;0.021128;NaN;9.8687;922.27;337.28;0.05;0.066059
3.7103;705.06;312.98;18.096;351.1;23.445;337.13;0.078127;337.13;0.013278;159.11;14.906;52;20.005;9.81;0.015107;-6.3931e-6;-0.98529;-0.020133;12935;1285.4;5.6284;0.092376;1973.7;1228.1;5.3258;1.0443;53308020;1283.3;873.77;0.80755;0.80755;0.28552;0.37425;0.14778;0.0055647;0.029253;1.257e-5;0;0;0;0;-7.5938e-6;0.036439;140;153.94;62.7;0.022249;NaN;9.7671;920.53;337.22;0.05;0.066489
3.7603;720.73;313.89;17.554;352.24;22.546;345.1;0.081172;345.1;0.013477;159.81;14.148;52;20.005;9.8099;3.9889e-4;-9.3948e-6;-1.4048;1.5608;12905;1255.5;5.6137;0.092354;1974.3;1226.6;5.3408;1.0483;53431306;1279.9;882.07;0.81067;0.81067;0.28487;0.37857;0.14723;1.4703e-4;0.0012492;3.8877e-4;0;0;0;0;-1.5328e-5;0.036568;140;153.94;62.641;0.020892;NaN;9.6653;918.77;337.16;0.05;0.066924
3.8103;736.45;314.76;17.129;353.33;22.244;353.11;0.084263;353.11;0.013673;160.52;14.192;52;20.005;9.8099;0.0062135;-1.1456e-5;-1.625;0.061073;12875;1225.9;5.599;0.092332;1974.7;1225.1;5.3538;1.0521;53551353;1281.3;888.93;0.81252;0.81252;0.28423;0.3816;0.14669;0.0022925;0.012012;3.5862e-4;0;0;0;0;-2.0366e-5;0.036693;140;153.94;62.551;0.021381;NaN;9.5631;917.02;337.09;0.05;0.067337
3.8603;752.2;315.61;17.022;354.41;22.012;361.15;0.087405;361.15;0.013867;161.23;13.956;52;20.005;9.8099;7.1686e-4;0;-0.68879;-0.56662;12846;1196.4;5.5844;0.092311;1975.1;1223.7;5.3674;1.0555;53646562;1282.6;893.77;0.81325;0.81325;0.28367;0.38336;0.14622;2.6466e-4;0.0012992;-2.1987e-4;0;0;0;0;-3.6367e-6;0.036818;140;153.94;62.518;0.023155;NaN;9.4607;915.26;337.03;0.05;0.067904
3.9103;768.01;316.45;17.015;355.48;21.821;369.23;0.090622;369.23;0.014062;161.93;13.663;52;20.005;9.8098;0.0073578;1.755e-6;-0.086411;-0.015688;12816;1167;5.5697;0.09229;1975.4;1222.2;5.3795;1.0585;5.372e7;1284;897.83;0.8139;0.8139;0.28318;0.38492;0.1458;0.0027184;0.014672;-3.7383e-5;0;0;0;0;-5.6933e-8;0.036941;140;153.94;62.528;0.023029;NaN;9.358;913.49;336.97;0.05;0.068364
3.9603;783.85;317.29;17.021;356.54;21.64;377.35;0.093908;377.35;0.014259;162.62;13.362;52;20.006;9.8098;0.015459;5.6163e-6;-0.41685;-0.0021672;12787;1137.5;5.555;0.092268;1975.6;1220.8;5.3914;1.0615;53789135;1285.3;901.75;0.81453;0.81454;0.28269;0.38644;0.1454;0.0057154;0.030922;2.5974e-5;0;0;0;0;-1.3181e-6;0.037064;140;153.94;62.544;0.023081;NaN;9.255;911.72;336.91;0.05;0.068851
4.0103;799.74;318.13;16.361;357.6;21.615;385.49;0.097253;385.49;0.014455;163.31;14.125;52;20.006;9.8097;0.014063;1.9158e-6;0.02224;-0.022552;12757;1108.1;5.5402;0.092247;1975.9;1219.3;5.4045;1.0648;53877392;1286.1;906.43;0.81527;0.81527;0.28215;0.38817;0.14495;0.0052021;0.027655;-3.453e-4;0;0;0;0;0;0.037185;140;153.94;62.481;0.023186;NaN;9.1517;909.95;336.84;0.05;0.069316
4.0603;815.66;318.96;16.196;358.64;21.314;393.68;0.10066;393.68;0.014649;163.98;13.855;52;20.006;9.8097;0.0084496;4.6531e-6;-1.4233;-0.035673;12728;1078.6;5.5254;0.092226;1976.3;1217.8;5.418;1.0681;53965462;1286.5;911.14;0.81601;0.81601;0.2816;0.38991;0.1445;0.0031271;0.017414;-2.1705e-4;0;0;0;0;-1.5188e-5;0.037305;140;153.94;62.451;0.024012;NaN;9.0482;908.17;336.78;0.05;0.069761
4.1103;831.63;319.77;16.035;359.67;21.012;401.89;0.10412;401.89;0.014844;164.66;13.578;52;20.006;9.8096;0.002608;1.291e-5;-1.2375;-0.080657;12698;1049;5.5104;0.092204;1976.7;1216.3;5.4315;1.0714;54052195;1286.9;915.84;0.81675;0.81675;0.28106;0.39165;0.14405;9.6558e-4;0.0054991;9.7451e-6;0;0;0;0;-1.1415e-5;0.037424;140;153.94;62.415;0.024346;NaN;8.9444;906.38;336.72;0.05;0.070249
4.1603;847.64;320.56;16.337;360.69;20.554;410.14;0.10765;410.14;0.015038;165.33;12.472;52;20.006;9.8096;0.031328;2.0542e-5;0.8527;-0.021751;12669;1019.4;5.4954;0.092183;1976.6;1214.8;5.4417;1.0746;54129127;1287.2;920.18;0.81746;0.81746;0.28054;0.39329;0.14363;0.01161;0.062875;-1.5653e-4;0;0;0;0;5.3899e-6;0.037542;140;153.94;62.422;0.025548;NaN;8.8403;904.6;336.66;0.038719;0.070752
4.199;860.06;321.18;15.534;361.47;20.553;416.55;0.11043;416.55;0.015189;165.84;13.459;52;20.006;9.8095;0.004957;2.3074e-5;-2.6893;-0.069736;12642;993.2;5.482;0.092164;1977.2;1213.5;5.4556;1.0774;54210584;1287.6;924.42;0.81811;0.81811;0.28007;0.3948;0.14324;0.0018368;0.0097746;1.0592e-4;0;0;0;0;-5.3341e-5;0.037632;140;153.94;62.32;0.024889;NaN;8.7596;903.21;336.61;0.05;0.071251
4.249;876.14;321.95;15.557;362.46;20.088;424.86;0.11408;424.86;0.015384;166.5;12.708;52;20.006;9.8095;0.016271;3.7068e-5;2.0609;-0.043527;12616;966.97;5.4686;0.092145;1977.4;1212.1;5.4665;1.0811;54310971;1288;929.75;0.81893;0.81893;0.27947;0.3967;0.14276;0.0060326;0.03257;7.6349e-5;0;0;0;0;3.1128e-5;0.037747;140;153.94;62.256;0.025193;NaN;8.6551;901.41;336.54;0.05;0.071745
4.299;892.26;322.7;15.591;363.44;19.784;433.2;0.11779;433.2;0.015579;167.18;12.179;52;20.006;9.8094;0.030696;4.7382e-5;-0.35514;-0.018993;12587;937.4;5.4535;0.092123;1977.5;1210.6;5.4778;1.084;54375881;1288.3;933.71;0.8196;0.8196;0.27898;0.39824;0.14238;0.011387;0.062608;2.0974e-4;0;0;0;0;-9.1967e-7;0.037862;140;153.94;62.248;0.02407;NaN;8.5503;899.61;336.48;0.038128;0.072228
4.3372;904.57;323.28;14.864;364.17;19.898;439.59;0.12065;439.59;0.015726;167.67;13.23;52;20.006;9.8094;0.0063954;4.3432e-5;-1.0754;0.015841;12561;911.34;5.44;0.092104;1978;1209.2;5.491;1.0862;54423330;1288.6;936.62;0.8201;0.8201;0.27862;0.39939;0.14209;0.0023719;0.012677;-4.907e-4;0;0;0;0;-8.4023e-6;0.037948;140;153.94;62.203;0.02521;NaN;8.4703;898.26;336.43;0.05;0.072707
4.3872;920.75;324.02;14.989;365.13;19.575;447.99;0.12447;447.99;0.015919;168.32;12.59;52;20.007;9.8093;0.01177;3.8e-5;0.42274;0.017564;12535;885.29;5.4266;0.092085;1978.1;1207.9;5.5018;1.0889;54478717;1289;940.13;0.82071;0.82071;0.27818;0.40079;0.14174;0.0043664;0.023618;-1.1354e-4;0;0;0;0;1.2924e-6;0.03806;140;153.94;62.224;0.025572;NaN;8.3651;896.54;336.37;0.05;0.073187
4.4372;936.97;324.75;14.836;366.08;19.321;456.42;0.12834;456.42;0.016111;168.98;12.377;52;20.007;9.8093;0.015178;3.0268e-5;-0.51239;0.017238;12505;855.72;5.4113;0.092064;1978.3;1206.3;5.514;1.0916;54536774;1288.9;943.76;0.82134;0.82134;0.27773;0.40222;0.14139;0.0056319;0.031217;8.9998e-5;0;0;0;0;-1.8899e-6;0.038172;140;153.94;62.22;0.02773;NaN;8.2597;894.81;336.3;0.05;0.073664
4.4872;953.23;325.48;14.116;367.02;19.134;464.89;0.13229;464.89;0.016305;169.62;12.917;52;20.007;9.8092;0.0078743;4.4345e-5;0.5053;0.034361;12475;826.18;5.3959;0.092042;1978.6;1204.8;5.5274;1.0946;54606255;1287.4;947.88;0.82203;0.82203;0.27724;0.40379;0.141;0.0029219;0.015734;3.6247e-5;0;0;0;0;1.8287e-6;0.038282;140;153.94;62.164;0.025473;NaN;8.154;893.08;336.24;0.05;0.074188
4.5372;969.52;326.19;13.421;367.94;18.93;473.38;0.1363;473.38;0.016498;170.23;13.35;52;20.007;9.8092;0.02743;3.4335e-5;-1.2538;0.060448;12446;796.68;5.3805;0.092021;1978.6;1203.2;5.5383;1.0977;54680694;1286;952.22;0.82275;0.82275;0.27673;0.40542;0.1406;0.010183;0.056393;-3.7738e-4;0;0;0;0;-1.12e-5;0.038388;140;153.94;62.097;0.024192;NaN;8.0481;891.35;336.18;0.041109;0.074626
4.5783;982.94;326.76;13.736;368.68;18.282;480.39;0.13963;480.39;0.016653;170.75;12.064;52;20.007;9.8091;0.0099068;4.2828e-5;1.1045;-0.04908;12419;769.81;5.3664;0.092001;1979;1201.8;5.5515;1.1002;54742683;1284.5;955.8;0.82332;0.82332;0.27633;0.40671;0.14028;0.0036768;0.020364;3.5639e-4;0;0;0;0;8.654e-6;0.038476;140;153.94;62.086;0.028266;NaN;7.9609;889.92;336.12;0.05;0.075068
4.6283;999.3;327.43;13.131;369.56;18.068;488.94;0.14376;488.94;0.016846;171.37;12.411;52;20.007;9.8091;0.0062005;3.7422e-5;-0.13248;0.010235;12392;742.95;5.3522;0.091982;1979.3;1200.4;5.5635;1.1032;5.481e7;1282.9;959.4;0.82357;0.82357;0.27606;0.40761;0.1399;0.0023012;0.01325;3.8045e-4;0;0;0;0;-1.2387e-7;0.03858;140;153.94;62.019;0.028051;NaN;7.8546;888.18;336.06;0.05;0.075499
4.6783;1015.7;328.09;12.516;370.43;17.969;497.53;0.14796;497.53;0.017039;171.98;12.893;52;20.007;9.809;0.025901;8.8741e-6;-0.76102;0.036306;12363;713.46;5.3366;0.091961;1979.2;1198.8;5.5742;1.1059;54864026;1281.5;962.5;0.8238;0.8238;0.27582;0.40843;0.13955;0.009616;0.053935;-2.7101e-4;0;0;0;0;-4.069e-6;0.038682;140;153.94;61.973;0.028082;NaN;7.748;886.44;335.99;0.042231;0.075953
