# Time (s);Altitude (m);Vertical velocity (m/s);Vertical acceleration (m/s²);Total velocity (m/s);Total acceleration (m/s²);Position East of launch (m);Position North of launch (m);Lateral distance (m);Lateral direction (°);Lateral velocity (m/s);Lateral acceleration (m/s²);Latitude (°);Longitude (°);Gravitational acceleration (m/s²);Angle of attack (°);Roll rate (°/s);Pitch rate (°/s);Yaw rate (°/s);Mass (g);Propellant mass (g);Longitudinal moment of inertia (kg·m²);Rotational moment of inertia (kg·m²);CP location (mm);CG location (mm);Stability margin calibers (?);Mach number (?);Reynolds number (?);Thrust (N);Drag force (N);Drag coefficient (?);Axial drag coefficient (?);Friction drag coefficient (?);Pressure drag coefficient (?);Base drag coefficient (?);Normal force coefficient (?);Pitch moment coefficient (?);Yaw moment coefficient (?);Side force coefficient (?);Roll moment coefficient (?);Roll forcing coefficient (?);Roll damping coefficient (?);Pitch damping coefficient (?);Coriolis acceleration (m/s²);Reference length (mm);Reference area (cm²);Vertical orientation (zenith) (°);Lateral orientation (azimuth) (°);Wind velocity (m/s);Air temperature (°C);Air pressure (mbar);Speed of sound (m/s);Simulation time step (s);Computation time (s)
0;0;0;-3.2606;0;3.4698;0;0;0;0;0;1.1867;52;20;9.8122;70;0;0;0;16148;4498.6;6.9526;0.094708;NaN;1353.8;NaN;0.0091079;495508;92.865;0.0051894;0.68191;0.057937;0.44173;0.16608;0.074088;NaN;NaN;NaN;NaN;NaN;NaN;NaN;NaN;0;140;153.94;70;0;NaN;14.35;1001.5;340;0.01;0.0017978
0.01;0;0;23.586;0;25.1;0;0;0;0;0;8.5848;52;20;9.8122;70;0;0;0;16148;4498.6;6.9526;0.094708;NaN;1353.8;NaN;0.0090286;491190;554.21;0.0051055;0.68273;0.058007;0.44256;0.16608;0.074088;NaN;NaN;NaN;NaN;NaN;NaN;NaN;NaN;0;140;153.94;70;0;NaN;14.35;1001.5;340;0.01;0.0023549
0.02;0.0011796;0.23592;52.738;0.25106;56.123;4.2932e-4;0;4.2932e-4;0;0.085869;19.195;52;20;9.8122;65.687;0;0;0;16144;4495;6.9513;0.094705;NaN;1353.7;NaN;0.0092279;502034;1054.9;0.0090193;0.68068;0.098096;0.4405;0.16608;0.074088;NaN;NaN;NaN;NaN;NaN;NaN;NaN;NaN;2.4608e-5;140;153.94;70;0;NaN;14.35;1001.5;339.99;0.01;0.0028142
0.03;0.0061763;0.76344;81.907;0.81244;87.164;0.002248;0;0.002248;0;0.27787;29.812;52;20;9.8122;56.949;0;0;0;16140;4490.5;6.9498;0.094702;NaN;1353.6;NaN;0.0099439;540990;1555.6;0.022927;0.67375;0.21474;0.43358;0.16609;0.07409;NaN;NaN;NaN;NaN;NaN;NaN;NaN;NaN;7.9632e-5;140;153.94;70;0;NaN;14.35;1001.5;339.99;0.01;0.0032752
0.04;0.017907;1.5827;104;1.6843;110.67;0.0065176;0;0.0065176;0;0.57606;37.852;52;20;9.8122;46.059;0;0;0;16135;4486;6.9482;0.094699;NaN;1353.4;NaN;0.011472;624107;1934.6;0.058426;0.66096;0.41118;0.42078;0.16609;0.074092;NaN;NaN;NaN;NaN;NaN;NaN;NaN;NaN;1.6509e-4;140;153.94;70;0;NaN;14.35;1001.5;339.99;0.01;0.0038241
0.05;0.038935;2.623;105.55;2.7914;112.32;0.014171;0;0.014171;0;0.95471;38.416;52;20;9.8122;36.188;0;0;0;16129;4479.7;6.946;0.094694;NaN;1353.2;NaN;0.013864;754254;1960.5;0.12465;0.64486;0.60059;0.40467;0.16609;0.074097;NaN;NaN;NaN;NaN;NaN;NaN;NaN;NaN;2.736e-4;140;153.94;70;0;NaN;14.35;1001.5;339.99;0.01;0.00431
0.06;0.070445;3.679;105.81;3.9151;112.6;0.02564;0;0.02564;0;1.3391;38.512;52;20;9.8122;29.619;0;0;0;16120;4470.6;6.9428;0.094688;NaN;1352.9;NaN;0.016702;908669;1964;0.21197;0.62991;0.70371;0.38971;0.1661;0.074104;NaN;NaN;NaN;NaN;NaN;NaN;NaN;NaN;3.8375e-4;140;153.94;70;0;NaN;14.35;1001.5;339.99;0.01;0.0047825
0.07;0.11253;4.7377;106.08;5.0418;112.89;0.040957;0;0.040957;0;1.7244;38.61;52;20;9.8122;24.991;0;0;0;16110;4460.7;6.9394;0.09468;NaN;1352.6;NaN;0.019703;1071928;1967.5;0.31561;0.61734;0.75293;0.37712;0.16611;0.074113;NaN;NaN;NaN;NaN;NaN;NaN;NaN;NaN;4.9417e-4;140;153.94;70;0;NaN;14.349;1001.5;339.99;0.01;0.0052898
0.08;0.16521;5.7991;106.35;6.1712;113.18;0.060132;0;0.060132;0;2.1107;38.708;52;20;9.8122;21.594;0;0;0;16100;4450.8;6.9359;0.094673;NaN;1352.3;NaN;0.022806;1240745;1971;0.4333;0.60672;0.77154;0.36648;0.16612;0.074123;NaN;NaN;NaN;NaN;NaN;NaN;NaN;NaN;6.0488e-4;140;153.94;70;0;NaN;14.349;1001.5;339.99;0.01;0.0057404
0.09;0.22852;6.8631;106.62;7.3036;113.46;0.083175;0;0.083175;0;2.498;38.806;52;20;9.8122;19.011;0;0;0;16090;4441;6.9324;0.094666;NaN;1352;NaN;0.025978;1413304;1974.6;0.56366;0.59765;0.77354;0.35738;0.16613;0.074136;NaN;NaN;NaN;NaN;NaN;NaN;NaN;NaN;7.1587e-4;140;153.94;70;0;NaN;14.349;1001.5;339.99;0.01;0.0061794
0.1;0.30249;7.9299;106.89;8.4388;113.75;0.1101;0;0.1101;0;2.8862;38.904;52;20;9.8122;16.988;0;0;0;16080;4431.1;6.929;0.094659;NaN;1351.7;NaN;0.0292;1588542;1978.1;0.70584;0.58979;0.76673;0.34949;0.16615;0.07415;NaN;NaN;NaN;NaN;NaN;NaN;NaN;NaN;8.2714e-4;140;153.94;70;0;NaN;14.348;1001.5;339.99;0.01;0.0066745
0.11;0.38713;8.9993;107.16;9.5768;114.03;0.1409;0;0.1409;0;3.2755;39.002;52;20;9.8122;15.044;0;0;0;16070;4421.2;6.9255;0.094652;NaN;1351.4;NaN;0.03233;1758822;1981.6;0.84831;0.58316;0.7517;0.34283;0.16616;0.074166;NaN;NaN;NaN;NaN;NaN;NaN;NaN;NaN;9.3869e-4;140;153.94;70;0;NaN;14.347;1001.5;339.99;0.01;0.0071477
0.12;0.48248;10.071;107.43;10.718;114.32;0.17561;0;0.17561;0;3.6657;39.1;52;20;9.8122;13.441;0;0;0;16061;4411.3;6.9221;0.094645;NaN;1351.1;NaN;0.035499;1931211;1985.1;0.99437;0.57725;0.73083;0.33688;0.16618;0.074183;NaN;NaN;NaN;NaN;NaN;NaN;NaN;NaN;0.0010505;140;153.94;70;0;NaN;14.347;1001.5;339.99;0.01;0.0076184
0.13;0.58857;11.146;107.69;11.862;114.61;0.21422;0;0.21422;0;4.0569;39.197;52;20;9.8122;12.099;0;0;0;16051;4401.4;6.9186;0.094637;NaN;1350.7;NaN;0.0387;2105306;1988.7;1.1563;0.57689;0.7151;0.33649;0.1662;0.074202;NaN;NaN;NaN;NaN;NaN;NaN;NaN;NaN;0.0011626;140;153.94;70;0;NaN;14.346;1001.5;339.99;0.01;0.0080877
0.14;0.70542;12.224;107.96;13.008;114.89;0.25675;0;0.25675;0;4.4491;39.295;52;20;9.8122;10.96;0;0;0;16041;4391.6;6.9151;0.09463;NaN;1350.4;NaN;0.041926;2280823;1992.2;1.3285;0.57693;0.69999;0.33648;0.16622;0.074223;NaN;NaN;NaN;NaN;NaN;NaN;NaN;NaN;0.001275;140;153.94;70;0;NaN;14.345;1001.4;339.99;0.01;0.0087211
0.15;0.83306;13.304;108.23;14.158;115.18;0.30321;0;0.30321;0;4.8422;39.392;52;20;9.8122;9.9831;0;0;0;16031;4381.7;6.9116;0.094623;NaN;1350.1;NaN;0.045176;2457556;1995.7;1.5114;0.57696;0.68593;0.33647;0.16625;0.074245;NaN;NaN;NaN;NaN;NaN;NaN;NaN;NaN;0.0013877;140;153.94;70;0;NaN;14.345;1001.4;339.99;0.01;0.0093884
0.16;0.97151;14.387;108.5;15.31;115.46;0.3536;0;0.3536;0;5.2363;39.49;52;20;9.8122;9.1286;0;0;0;16021;4371.8;6.9081;0.094616;NaN;1349.8;NaN;0.048441;2635175;1999.2;1.7053;0.577;0.67314;0.33646;0.16627;0.07427;NaN;NaN;NaN;NaN;NaN;NaN;NaN;NaN;0.0015006;140;153.94;70;0;NaN;14.344;1001.4;339.99;0.01;0.0098258
0.17;1.1208;15.472;108.76;16.465;115.74;0.40794;0;0.40794;0;5.6314;39.587;52;20;9.8122;8.3809;0;0;0;16011;4361.9;6.9047;0.094609;NaN;1349.5;NaN;0.051725;2813751;2002.8;1.9115;0.57704;0.66178;0.33645;0.1663;0.074296;NaN;NaN;NaN;NaN;NaN;NaN;NaN;NaN;0.0016139;140;153.94;70;0;NaN;14.343;1001.4;339.99;0.01;0.010267
0.18;1.281;16.56;109.03;17.623;116.03;0.46623;0;0.46623;0;6.0275;39.684;52;20;9.8122;7.7214;0;0;0;16001;4352;6.9012;0.094602;NaN;1349.2;NaN;0.055024;2993192;2006.3;2.1304;0.57709;0.65179;0.33644;0.16633;0.074325;NaN;NaN;NaN;NaN;NaN;NaN;NaN;NaN;0.0017274;140;153.94;70;0;NaN;14.342;1001.4;339.99;0.01;0.010796
0.19;1.452;17.651;109.3;18.784;116.31;0.52849;0;0.52849;0;6.4245;39.781;52;20;9.8122;7.1355;0;0;0;15991;4342.2;6.8977;0.094594;NaN;1348.9;NaN;0.058338;3173428;2009.8;2.3626;0.57714;0.64304;0.33642;0.16636;0.074355;NaN;NaN;NaN;NaN;NaN;NaN;NaN;NaN;0.0018411;140;153.94;70;0;NaN;14.341;1001.4;339.99;0.01;0.011252
0.2;1.634;18.745;109.56;19.948;116.59;0.59473;0;0.59473;0;6.8225;39.877;52;20;9.8122;6.6118;0;0;0;15982;4332.3;6.8942;0.094587;NaN;1348.5;NaN;0.061666;3354403;2013.3;2.6084;0.57719;0.63539;0.33641;0.16639;0.074387;NaN;NaN;NaN;NaN;NaN;NaN;NaN;NaN;0.0019552;140;153.94;70;0;NaN;14.339;1001.3;339.99;0.01;0.011681
0.21;1.8269;19.841;109.83;21.114;116.87;0.66495;0;0.66495;0;7.2215;39.973;52;20;9.8122;6.3241;0;0;0;15972;4322.4;6.8907;0.09458;NaN;1348.2;NaN;0.065109;3541643;2016.9;2.8891;0.57725;0.63131;0.3364;0.16643;0.074422;NaN;NaN;NaN;NaN;NaN;NaN;NaN;NaN;0.0020695;140;153.94;70;0;NaN;14.338;1001.3;339.99;0.01;0.012111
0.22;2.0308;20.94;110.09;22.284;117.15;0.73916;0;0.73916;0;7.6214;40.069;52;20;9.8122;6.0645;0;0;0;15962;4312.5;6.8872;0.094573;NaN;1347.9;NaN;0.068562;3729402;2020.4;3.1853;0.57731;0.6277;0.33638;0.16647;0.074459;NaN;NaN;NaN;NaN;NaN;NaN;NaN;NaN;0.0021841;140;153.94;70;0;NaN;14.337;1001.3;339.99;0.01;0.012575
0.23;2.2457;22.041;110.35;23.456;117.43;0.81738;0;0.81738;0;8.0223;40.165;52;20;9.8122;5.8292;0;0;0;15952;4302.6;6.8837;0.094566;NaN;1347.6;NaN;0.072025;3917666;2023.9;3.4971;0.57737;0.6245;0.33636;0.16651;0.074498;NaN;NaN;NaN;NaN;NaN;NaN;NaN;NaN;0.002299;140;153.94;70;0;NaN;14.335;1001.3;339.99;0.01;0.013003
0.24;2.4717;23.145;110.61;24.631;117.71;0.89961;0;0.89961;0;8.4241;40.26;52;20;9.8122;5.6149;0;0;0;15942;4292.8;6.8802;0.094559;NaN;1347.3;NaN;0.075497;4106425;2027.4;3.8247;0.57744;0.62165;0.33635;0.16655;0.074539;NaN;NaN;NaN;NaN;NaN;NaN;NaN;NaN;0.0024142;140;153.94;70;0;NaN;14.334;1001.2;339.99;0.01;0.013448
0.25;2.7087;24.252;110.88;25.808;117.99;0.98587;0;0.98587;0;8.8269;40.356;52;20;9.8122;5.4189;0;0;0;15932;4282.9;6.8767;0.094551;NaN;1347;NaN;0.078978;4295670;2031;4.1682;0.57751;0.6191;0.33633;0.1666;0.074582;NaN;NaN;NaN;NaN;NaN;NaN;NaN;NaN;0.0025296;140;153.94;70;0;NaN;14.332;1001.2;339.98;0.01;0.013917
0.26;2.9567;25.361;111.14;26.989;118.27;1.0762;0;1.0762;0;9.2307;40.451;52;20;9.8122;5.1956;0;0;0;15922;4273;6.8732;0.094544;NaN;1346.6;NaN;0.082438;4483797;2034.5;4.5204;0.57758;0.61624;0.33631;0.16664;0.074627;NaN;NaN;NaN;NaN;NaN;NaN;NaN;NaN;0.0026453;140;153.94;70;0;NaN;14.331;1001.2;339.98;0.01;0.014367
0.27;3.2159;26.473;111.4;28.172;118.55;1.1705;0;1.1705;0;9.6354;40.546;52;20;9.8122;4.9898;0;0;0;15912;4263.1;6.8696;0.094537;NaN;1346.3;NaN;0.085908;4672418;2038;4.8884;0.57766;0.61368;0.33629;0.16669;0.074674;NaN;NaN;NaN;NaN;NaN;NaN;NaN;NaN;0.0027613;140;153.94;70;0;NaN;14.329;1001.1;339.98;0.01;0.01477
0.28;3.4862;27.587;111.66;29.358;118.82;1.2689;0;1.2689;0;10.041;40.64;52;20;9.8122;4.7995;0;0;0;15902;4253.2;6.8661;0.09453;NaN;1346;NaN;0.089387;4861525;2041.5;5.2724;0.57774;0.61138;0.33627;0.16674;0.074723;NaN;NaN;NaN;NaN;NaN;NaN;NaN;NaN;0.0028776;140;153.94;70;0;NaN;14.327;1001.1;339.98;0.01;0.01517
0.29;3.7676;28.705;111.92;30.547;119.1;1.3713;0;1.3713;0;10.448;40.735;52;20;9.8122;4.6231;0;0;0;15893;4243.4;6.8626;0.094523;NaN;1345.7;NaN;0.092875;5051110;2045.1;5.6724;0.57782;0.6093;0.33625;0.1668;0.074774;NaN;NaN;NaN;NaN;NaN;NaN;NaN;NaN;0.0029941;140;153.94;70;0;NaN;14.326;1001.1;339.98;0.01;0.015574
0.3;4.0603;29.824;112.18;31.738;119.38;1.4778;0;1.4778;0;10.855;40.829;52;20;9.8122;4.4591;0;0;0;15883;4233.5;6.8591;0.094516;NaN;1345.4;NaN;0.096372;5241167;2048.6;6.0886;0.5779;0.60743;0.33623;0.16685;0.074827;NaN;NaN;NaN;NaN;NaN;NaN;NaN;NaN;0.0031109;140;153.94;70;0;NaN;14.324;1001;339.98;0.01;0.015983
0.31;4.3641;30.946;112.43;32.933;119.65;1.5884;0;1.5884;0;11.264;40.923;52;20;9.8122;4.3428;0;0;0;15873;4223.6;6.8555;0.094508;NaN;1345;NaN;0.099907;5433257;2052.1;6.5295;0.57799;0.60616;0.3362;0.16691;0.074883;NaN;NaN;NaN;NaN;NaN;NaN;NaN;NaN;0.0032279;140;153.94;70;0;NaN;14.322;1001;339.98;0.01;0.01644
0.32;4.6792;32.071;112.69;34.13;119.92;1.7031;0;1.7031;0;11.673;41.016;52;20;9.8122;4.2341;0;0;0;15863;4213.7;6.852;0.094501;NaN;1344.7;NaN;0.10345;5625791;2055.6;6.9872;0.57809;0.605;0.33618;0.16697;0.074941;NaN;NaN;NaN;NaN;NaN;NaN;NaN;NaN;0.0033453;140;153.94;70;0;NaN;14.32;1001;339.98;0.01;0.017012
0.33;5.0056;33.199;112.15;35.329;120.22;1.8219;0;1.8219;0;12.083;43.29;52;20;9.8122;4.1323;0;0;0;15853;4203.8;6.8485;0.094494;1841.7;1344.4;3.5525;0.107;5818766;2060;7.4619;0.57819;0.60395;0.33615;0.16703;0.075001;1.3258;4.7095;-3.0198e-4;0;0;0;0;0;0.0034628;140;153.94;70;0;NaN;14.317;1000.9;339.98;0.015;0.017481
0.345;5.5162;34.883;112.59;37.134;120.66;2.008;1.5868e-7;2.008;4.5278e-6;12.733;43.385;52;20;9.8122;4.0347;0;1.0632;1.0389e-4;15841;4191.5;6.844;0.094485;1843;1344;3.5643;0.11235;6109400;2066.6;8.2135;0.57834;0.60302;0.33611;0.16713;0.075095;1.2921;4.6051;2.1649e-4;0;0;0;0;7.5162e-4;0.0036412;140;153.94;69.992;-1.9431e-6;NaN;14.314;1000.9;339.97;0.0225;0.017911
0.3675;6.3296;37.419;113.2;39.852;121.33;2.3055;1.0139e-6;2.3055;2.5198e-5;13.71;43.643;52;20;9.8121;3.7438;0;2.7811;9.1107e-5;15822;4173;6.8374;0.094472;1846.7;1343.4;3.5948;0.12029;6540706;2076.6;9.3695;0.57858;0.60013;0.33605;0.16729;0.075243;1.1923;4.2814;2.647e-4;0;0;0;0;0.0044866;0.0039098;140;153.94;69.949;-6.0816e-6;NaN;14.309;1000.8;339.97;0.03375;0.018692
0.40125;7.6571;41.246;114.04;43.954;122.32;2.7931;3.7802e-6;2.7931;7.7544e-5;15.19;44.239;52;20;9.8121;3.2483;0;5.507;2.2336e-4;15794;4145.2;6.8274;0.094451;1853;1342.5;3.6467;0.13224;7189339;2091.1;11.235;0.57898;0.59558;0.33595;0.16754;0.075485;1.0246;3.7214;-4.8427e-4;0;0;0;0;0.014558;0.0043155;140;153.94;69.81;-6.538e-6;NaN;14.3;1000.6;339.96;0.048499;0.019143
0.44975;9.7918;46.786;115.08;49.902;123.74;3.5822;1.1158e-5;3.5822;1.7846e-4;17.356;45.473;52;20;9.8121;2.6629;0;9.6545;3.2985e-4;15754;4104.6;6.8128;0.094422;1860.7;1341.1;3.7114;0.14976;8140247;2107.7;14.297;0.57962;0.59109;0.33578;0.16796;0.075881;0.8305;3.0473;5.5866e-5;0;0;0;0;0.034888;0.0049046;140;153.94;69.443;1.8528e-5;NaN;14.286;1000.4;339.96;0.046093;0.01956
0.49584;12.071;52.091;115.76;55.614;124.96;4.4309;2.2326e-5;4.4309;2.887e-4;19.48;47.06;52;20;9.8121;2.1827;0;13.732;4.2378e-4;15707;4057.8;6.7958;0.094388;1867.3;1339.6;3.7691;0.16681;9065501;2123.9;17.648;0.58034;0.58821;0.3356;0.16842;0.076315;0.67452;2.4859;2.6281e-5;0;0;0;0;0.05689;0.0054724;140;153.94;68.904;1.1653e-4;NaN;14.272;1000.1;339.95;0.045438;0.02003
0.54128;14.557;57.344;116.13;61.299;126.19;5.3653;3.7899e-5;5.3653;4.0472e-4;21.663;49.394;52;20;9.8121;1.2983;0;17.233;0.0020607;15662;4012.6;6.7794;0.094355;1879.5;1338.1;3.8672;0.1834;9964667;2140.7;21.172;0.5811;0.584;0.33541;0.16892;0.076781;0.39415;1.4497;1.3933e-4;0;0;0;0;0.074129;0.0060408;140;153.94;68.196;2.7157e-4;NaN;14.255;999.81;339.94;0.05;0.020482
0.59128;17.569;63.135;116.24;67.615;127.59;6.5114;6.1155e-5;6.5114;5.3813e-4;24.203;52.599;52;20;9.8121;0.20438;0;19.107;0.02166;15615;3965.5;6.7621;0.094321;1895.3;1336.5;3.9912;0.20166;10954327;2158.3;25.508;0.58203;0.58211;0.33517;0.16952;0.077345;0.06067;0.16666;-1.7678e-4;0;0;0;0;0.07537;0.0066779;140;153.94;67.277;5.0057e-4;NaN;14.236;999.46;339.93;0.05;0.020967
0.64128;20.871;68.927;116.2;73.992;128.92;7.7885;9.201e-5;7.7885;6.7687e-4;26.905;55.827;52;20;9.8121;0.54775;0;-18.199;0.0099511;15565;3916.1;6.744;0.094285;1890.6;1334.9;3.9697;0.22049;11973205;2175.9;30.56;0.5831;0.58363;0.3349;0.17021;0.077983;0.16403;0.70858;-3.8993e-7;0;0;0;0;-0.057207;0.007328;140;153.94;66.333;7.542e-4;NaN;14.214;999.07;339.91;0.05;0.021419
0.69128;24.462;74.718;116.24;80.427;130.21;9.2047;1.3184e-4;9.2047;8.2068e-4;29.761;58.669;52;20;9.8121;0.91991;0;-14.946;0.0064122;15516;3866.7;6.7258;0.094249;1885.7;1333.2;3.9462;0.23986;13021097;2193.2;36.284;0.58429;0.58578;0.3346;0.17099;0.078699;0.27809;1.1305;-2.5383e-4;0;0;0;0;-0.032603;0.0079905;140;153.94;65.496;0.0010639;NaN;14.191;998.65;339.9;0.047898;0.021862
0.73918;28.174;80.27;116.36;86.646;131.4;10.698;1.8004e-4;10.698;9.6422e-4;32.622;61.04;52;20;9.8121;1.2326;-3.5285e-7;-9.8872;0.0056939;15468;3818.3;6.7079;0.094214;1881.6;1331.5;3.9292;0.25827;14015827;2207.2;42.22;0.58553;0.58817;0.33429;0.1718;0.079435;0.37568;1.4886;3.5102e-4;0;0;0;0;-0.012308;0.008636;140;153.94;64.894;0.0015071;NaN;14.167;998.22;339.88;0.031303;0.022381
0.77048;30.744;83.907;116.61;90.74;132.03;11.75;2.178e-4;11.75;0.0010621;34.545;61.91;52;20;9.8121;1.172;-3.2378e-7;-5.6781;0.0053718;15428;3779.2;6.6933;0.094186;1882.7;1330.2;3.9465;0.27062;14682703;2218;46.391;0.58642;0.58881;0.33407;0.17239;0.079959;0.35714;1.4135;-4.8983e-4;0;0;0;0;-0.0036974;0.0090631;140;153.94;64.649;0.0018672;NaN;14.15;997.92;339.87;0.02997;0.022812
0.80045;33.311;87.403;117.19;94.681;132.7;12.813;2.5939e-4;12.813;0.00116;36.403;62.252;52;20;9.8121;0.94927;-7.6864e-7;-1.8696;0.0050333;15398;3748.9;6.682;0.094164;1886.1;1329.2;3.9779;0.28265;15331957;2229.2;50.601;0.58733;0.58891;0.33385;0.17298;0.080493;0.2882;1.1472;-3.2677e-4;0;0;0;0;-3.6748e-4;0.0094749;140;153.94;64.537;0.0022444;NaN;14.133;997.61;339.86;0.033805;0.023277
0.83426;36.333;91.369;117.95;99.152;133.49;14.079;3.1354e-4;14.079;0.001276;38.509;62.505;52;20;9.8121;0.81962;-8.7204e-7;2.0847;0.0063933;15367;3717.4;6.6702;0.094141;1888.2;1328.1;4.0007;0.29578;1.604e7;2241.4;55.451;0.58836;0.58955;0.33359;0.17366;0.081103;0.24847;0.99325;-2.0884e-4;0;0;0;0;4.1726e-4;0.009942;140;153.94;64.542;0.00269;NaN;14.114;997.26;339.85;0.035604;0.023759
0.86986;39.661;95.577;119.02;103.89;134.27;15.49;3.8e-4;15.49;0.0014056;40.726;62.146;52;20;9.812;0.53754;-2.9333e-7;5.6365;0.0077894;15332;3683.2;6.6573;0.094116;1892.5;1326.9;4.0399;0.30976;16793371;2256.4;60.846;0.58953;0.59005;0.33331;0.17443;0.081782;0.1622;0.65216;-3.0302e-5;0;0;0;0;0.0027813;0.010437;140;153.94;64.682;0.0031633;NaN;14.092;996.87;339.84;0.049363;0.024193
0.91922;44.524;101.48;120.88;110.51;135.36;17.575;4.9035e-4;17.575;0.0015986;43.757;60.915;52;20;9.812;0.0241;0;7.8222;0.080643;15290;3641.2;6.6415;0.094086;1900.3;1325.4;4.1063;0.32936;17847852;2273.9;68.889;0.59126;0.59126;0.33289;0.17559;0.082787;0.0072071;0.02508;-2.1787e-4;0;0;0;0;0.0047386;0.011124;140;153.94;65.03;0.0035674;NaN;14.061;996.3;339.82;0.05;0.02465
0.96922;49.75;107.55;122.67;117.28;136.36;19.838;6.2526e-4;19.838;0.0018058;46.758;59.556;52;20;9.812;0.39408;0;-5.8324;0.0018598;15241;3592.1;6.6229;0.09405;1895.5;1323.7;4.084;0.34925;18917313;2291.5;77.698;0.59313;0.59341;0.33243;0.17683;0.083871;0.11907;0.48892;2.4862e-4;0;0;0;0;-0.0023431;0.011822;140;153.94;65.387;0.0036539;NaN;14.027;995.69;339.8;0.05;0.025138
1.0192;55.281;113.7;124.07;124.09;137.34;22.25;7.8385e-4;22.25;0.0020185;49.708;58.899;52;20;9.812;0.60219;5.6297e-7;-0.60651;0.0011034;15192;3542.7;6.6041;0.094014;1893;1322;4.0791;0.36936;19996469;2305.7;87.198;0.59518;0.59584;0.33195;0.1782;0.08503;0.18321;0.74781;-2.7442e-4;0;0;0;0;-2.2658e-5;0.012521;140;153.94;65.559;0.0035416;NaN;13.991;995.04;339.78;0.030092;0.025644
1.0493;58.759;117.43;124.51;128.22;137.78;23.773;8.9043e-4;23.773;0.0021461;51.477;59;52;20;9.812;0.62803;5.7792e-7;3.7116;9.5809e-5;15152;3503.1;6.5889;0.093985;1893;1320.6;4.0889;0.38172;20659429;2315.7;93.31;0.59649;0.59721;0.33164;0.17908;0.085776;0.19148;0.78244;2.2656e-4;0;0;0;0;7.9449e-4;0.012944;140;153.94;65.513;0.003516;NaN;13.968;994.63;339.76;0.026877;0.02612
1.0762;61.96;120.78;124.67;131.92;138.3;25.177;9.9263e-4;25.177;0.0022589;53.07;59.861;52;20;9.812;0.49426;7.4969e-7;7.4449;-4.1949e-4;15124;3475;6.5781;0.093965;1895.2;1319.6;4.1118;0.39266;21245434;2326.1;98.85;0.59769;0.59814;0.33135;0.17988;0.086456;0.15049;0.61577;-8.9073e-5;0;0;0;0;0.0030213;0.013323;140;153.94;65.362;0.0036369;NaN;13.947;994.25;339.75;0.032234;0.02659
1.1084;65.918;124.79;124.6;136.38;138.97;26.92;0.0011242;26.92;0.0023928;55.022;61.549;52;20;9.812;0.23751;5.7559e-7;10.534;0.0032522;15095;3445.8;6.5669;0.093944;1899.3;1318.5;4.1482;0.40585;21951082;2340.2;105.81;0.5995;0.5996;0.331;0.1812;0.0873;0.07205;0.29318;-2.4521e-4;0;0;0;0;0.0056627;0.013781;140;153.94;65.067;0.0038391;NaN;13.922;993.79;339.74;0.048351;0.027017
1.1568;72.097;130.79;123.69;143.1;139.48;29.653;0.0013412;29.653;0.0025914;58.065;64.456;52;20;9.8119;0.20134;3.1685e-7;-10.697;0.0099771;15055;3405.6;6.5514;0.093915;1900.4;1317.1;4.1665;0.42573;23013821;2349.1;117.01;0.60293;0.603;0.33044;0.18386;0.088627;0.061209;0.26023;-3.4532e-4;0;0;0;0;-0.0053076;0.014478;140;153.94;64.531;0.0040749;NaN;13.881;993.07;339.71;0.05;0.027454
1.2068;78.79;136.94;122.58;150.06;139.58;32.638;0.0015921;32.638;0.0027949;61.355;66.758;52;20;9.8119;0.53405;0;-4.2122;0.0046701;15003;3354.1;6.5314;0.093877;1896.3;1315.2;4.1508;0.44602;24096352;2352.4;129.19;0.60653;0.60706;0.32984;0.18664;0.090047;0.16401;0.68126;4.6821e-4;0;0;0;0;-7.4985e-4;0.015207;140;153.94;64.137;0.0045778;NaN;13.838;992.28;339.68;0.022466;0.027876
1.2292;81.897;139.7;122.6;153.19;139.64;34.033;0.0017144;34.033;0.0028862;62.857;66.847;52;20;9.8119;0.49856;3.2406e-7;-0.19038;0.0033025;14964;3314.6;6.516;0.093849;1897.1;1313.8;4.1669;0.45533;24592322;2354.5;134.94;0.60822;0.60868;0.32956;0.18794;0.09072;0.15323;0.63852;-2.5426e-4;0;0;0;0;-1.47e-6;0.015535;140;153.94;64.087;0.0047522;NaN;13.818;991.92;339.67;0.022954;0.028345
1.2522;85.136;142.51;122.82;156.38;139.61;35.494;0.001846;35.494;0.0029799;64.386;66.367;52;20.001;9.8119;0.38821;9.1742e-7;3.4754;0.0035726;14939;3289.9;6.5063;0.093831;1899;1312.9;4.1868;0.4648;25096706;2356.8;140.92;0.60997;0.61025;0.32927;0.18928;0.09142;0.11922;0.4982;1.5696e-4;0;0;0;0;4.7013e-4;0.015871;140;153.94;64.126;0.0049494;NaN;13.797;991.54;339.66;0.028201;0.028776
1.2804;89.204;145.98;123.19;160.31;139.55;37.336;0.0020171;37.336;0.0030955;66.249;65.567;52;20.001;9.8119;0.27173;0;7.0421;0.0049397;14911;3262;6.4954;0.09381;1901.1;1311.8;4.2087;0.476;25692064;2359.9;148.2;0.61206;0.6122;0.32891;0.19088;0.092265;0.083401;0.34915;-1.3374e-4;0;0;0;0;0.0018407;0.016283;140;153.94;64.277;0.0052082;NaN;13.77;991.06;339.64;0.038323;0.02921
1.3187;94.889;150.72;124.23;165.65;139.39;39.922;0.0022672;39.922;0.0032539;68.724;63.214;52;20.001;9.8119;0.071736;3.0262e-7;-9.0097;0.0074847;14875;3225.8;6.4812;0.093784;1904.5;1310.5;4.2426;0.49156;26518650;2363.9;158.67;0.61502;0.61503;0.32841;0.19314;0.093474;0.021985;0.095881;3.6073e-4;0;0;0;0;-0.0028256;0.01684;140;153.94;64.601;0.0056352;NaN;13.733;990.39;339.62;0.05;0.029686
1.3687;102.58;156.97;125.31;172.61;139.17;43.436;0.002626;43.436;0.0034639;71.803;60.534;52;20.001;9.8119;0.41889;6.9695e-7;-2.5156;-0.0048629;14827;3177.7;6.4621;0.093749;1900.4;1308.7;4.226;0.51211;27608391;2367.2;173.27;0.61903;0.61937;0.32771;0.19619;0.095129;0.12981;0.54876;4.8485e-4;0;0;0;0;-2.0299e-4;0.017558;140;153.94;64.917;0.0062176;NaN;13.683;989.49;339.59;0.02099;0.030117
1.3897;105.9;159.6;125.32;175.53;139.18;44.956;0.0027882;44.956;0.0035535;73.073;60.54;52;20.001;9.8118;0.399;6.4675e-7;1.541;-0.0047274;14788;3139;6.4468;0.093721;1901;1307.3;4.2412;0.52059;28056984;2369.1;179.46;0.62072;0.62102;0.32742;0.19747;0.095832;0.12379;0.52503;-3.1437e-4;0;0;0;0;7.3717e-5;0.017858;140;153.94;64.927;0.0064916;NaN;13.662;989.1;339.58;0.021189;0.03059
1.4109;109.31;162.25;125.04;178.48;139.11;46.518;0.0029594;46.518;0.0036451;74.361;60.947;52;20.001;9.8118;0.33807;0;5.2416;-0.0043855;14765;3116.1;6.4376;0.093704;1902.3;1306.4;4.2567;0.52931;28518508;2371.2;185.95;0.62248;0.6227;0.32711;0.1988;0.096567;0.10493;0.44631;-2.7777e-4;0;0;0;0;8.2505e-4;0.018161;140;153.94;64.854;0.0066106;NaN;13.639;988.7;339.56;0.024086;0.031057
1.435;113.26;165.26;124.48;181.83;139.02;48.327;0.0031632;48.327;0.0037503;75.839;61.881;52;20.001;9.8118;0.22666;0;8.7203;-0.0042637;14741;3091.4;6.4278;0.093687;1904.5;1305.5;4.2785;0.53941;29052256;2373.8;193.63;0.62454;0.62463;0.32675;0.20036;0.097433;0.070328;0.29882;3.4381e-4;0;0;0;0;0.0021991;0.018506;140;153.94;64.684;0.0065918;NaN;13.614;988.24;339.55;0.034604;0.031525
1.4696;119.05;169.54;123.08;186.63;138.91;50.989;0.003473;50.989;0.0039026;78.019;64.393;52;20.001;9.8118;0.072977;7.6788e-7;-10.371;-0.0041334;14709;3059.4;6.415;0.093663;1907.5;1304.3;4.309;0.55365;29803613;2377.7;204.77;0.62748;0.62749;0.32622;0.20258;0.098682;0.022637;0.10023;-3.1028e-4;0;0;0;0;-0.0029527;0.019005;140;153.94;64.338;0.0065747;NaN;13.576;987.56;339.53;0.05;0.03198
1.5196;127.68;175.65;121.45;193.56;138.71;54.972;0.0039555;54.972;0.0041227;81.321;67.01;52;20.001;9.8118;0.35281;-7.7651e-7;-2.9774;4.5456e-4;14663;3013.4;6.3965;0.09363;1905.1;1302.5;4.3037;0.57403;30876862;2380.9;221.5;0.6318;0.63204;0.32545;0.20582;0.10053;0.11056;0.47563;4.1569e-4;0;0;0;0;-2.2645e-4;0.019732;140;153.94;63.978;0.0064128;NaN;13.52;986.55;339.49;0.019136;0.032447
1.5387;131.06;177.97;121.46;196.21;138.65;56.541;0.0041507;56.541;0.0042061;82.604;66.882;52;20.001;9.8118;0.32071;-4.4331e-7;0.98114;1.48e-4;14625;2975.7;6.3813;0.093603;1906.1;1301.1;4.3215;0.5819;3.129e7;2382.7;228.11;0.63349;0.63369;0.32514;0.20709;0.10126;0.10061;0.43467;-1.9976e-4;0;0;0;0;2.3931e-5;0.020011;140;153.94;63.96;0.0064043;NaN;13.498;986.15;339.48;0.020337;0.032902
1.5591;134.71;180.44;121.7;199.02;138.48;58.234;0.0043643;58.234;0.004294;83.957;66.072;52;20.001;9.8118;0.22496;-3.9558e-7;4.4598;-4.9396e-4;14603;2954.2;6.3726;0.093587;1908.1;1300.3;4.3418;0.5902;31726442;2384.9;235.19;0.6353;0.6354;0.32482;0.20845;0.10204;0.070566;0.30616;3.3484e-4;0;0;0;0;4.8069e-4;0.020307;140;153.94;64.017;0.0065094;NaN;13.474;985.72;339.46;0.028041;0.033371
1.5871;139.82;183.87;122.35;202.89;138.2;60.614;0.0046693;60.614;0.0044137;85.785;64.254;52;20.001;9.8117;0.036033;0;6.8822;-0.012194;14577;2927.9;6.3619;0.093568;1911.8;1299.3;4.3749;0.60154;32321127;2388.1;245.09;0.6378;0.6378;0.32436;0.21031;0.10312;0.011288;0.048758;-4.4791e-4;0;0;0;0;0.0011021;0.020713;140;153.94;64.183;0.0069043;NaN;13.441;985.12;339.44;0.042061;0.033828
1.6292;147.66;189.04;123.4;208.69;137.73;64.278;0.0051526;64.278;0.0045929;88.421;61.171;52;20.001;9.8117;0.26258;-1.9599e-6;-3.3031;-0.0093312;14539;2889.7;6.3463;0.09354;1910.1;1297.8;4.3739;0.61881;33225643;2391;260.75;0.64167;0.6418;0.32365;0.2132;0.10481;0.082987;0.36321;9.5535e-5;0;0;0;0;-2.3994e-4;0.021315;140;153.94;64.425;0.0081705;NaN;13.39;984.2;339.41;0.021446;0.03432
1.6506;151.74;191.68;123.53;211.64;137.58;66.189;0.0054132;66.189;0.0046859;89.724;60.563;52;20.001;9.8117;0.31345;-1.8303e-6;1.3081;-0.011993;14504;2855.1;6.3322;0.093515;1910.3;1296.5;4.3845;0.62766;33688444;2392.8;269;0.64368;0.64388;0.32328;0.2147;0.1057;0.099382;0.43547;2.8527e-4;0;0;0;0;3.658e-5;0.02162;140;153.94;64.448;0.0087634;NaN;13.364;983.73;339.4;0.017356;0.034759
1.668;155.09;193.83;123.08;214.03;137.45;67.755;0.0056321;67.755;0.0047627;90.78;61.174;52;20.001;9.8117;0.24184;-2.0467e-6;4.9637;-0.016489;14483;2834;6.3235;0.0935;1912;1295.6;4.4025;0.63461;34051128;2394.6;275.53;0.64528;0.64539;0.32299;0.21589;0.1064;0.076699;0.33709;-3.1702e-4;0;0;0;0;5.1528e-4;0.021866;140;153.94;64.392;0.0090791;NaN;13.342;983.33;339.38;0.021912;0.035322
1.6899;159.36;196.51;122.11;217.04;137.27;69.759;0.0059193;69.759;0.0048617;92.136;62.71;52;20.001;9.8117;0.085421;-2.5503e-6;7.7716;-0.03463;14462;2812.6;6.3147;0.093484;1915.1;1294.8;4.4305;0.64337;34508004;2392.9;283.89;0.64731;0.64732;0.32261;0.2174;0.1073;0.027066;0.11877;4.106e-4;0;0;0;0;0.0012291;0.022178;140;153.94;64.248;0.0090629;NaN;13.314;982.83;339.37;0.032869;0.035761
1.7227;165.89;200.49;117.34;221.54;133.62;72.822;0.0063719;72.822;0.0050134;94.24;63.916;52;20.001;9.8117;0.1699;-2.6918e-6;-6.4707;-0.011146;14432;2782.8;6.3024;0.093463;1915.3;1293.6;4.4402;0.65642;35187326;2354.1;296.71;0.65037;0.65043;0.32204;0.21967;0.10866;0.054113;0.24076;2.2615e-4;0;0;0;0;-8.1863e-4;0.022648;140;153.94;63.997;0.0084594;NaN;13.272;982.07;339.34;0.028616;0.036245
1.7514;171.67;203.84;107.22;225.35;123.08;75.545;0.0067847;75.545;0.0051458;96.092;60.437;52;20.001;9.8116;0.26444;-2.7877e-6;-0.87556;-0.0082623;14399;2749.4;6.2886;0.093438;1915.2;1292.3;4.449;0.66752;35763575;2265.8;307.9;0.65302;0.65316;0.32154;0.22163;0.10984;0.084638;0.3765;-3.8876e-4;0;0;0;0;-1.4496e-5;0.023051;140;153.94;63.887;0.0077589;NaN;13.234;981.39;339.32;0.017669;0.036707
1.769;175.29;205.79;100.77;227.59;115.42;77.252;0.0070465;77.252;0.0052262;97.181;56.268;52;20.001;9.8116;0.17743;-2.7625e-6;2.5818;-0.012729;14374;2724.7;6.2784;0.09342;1917.2;1291.3;4.4701;0.67435;36117416;2093.2;314.84;0.65466;0.65472;0.32123;0.22285;0.11058;0.056797;0.25333;3.7332e-4;0;0;0;0;1.2352e-4;0.023286;140;153.94;63.904;0.0074622;NaN;13.211;980.96;339.3;0.0257;0.03714
1.7947;180.61;208.38;99.431;230.53;112.73;79.768;0.0074349;79.768;0.0053403;98.597;53.113;52;20.001;9.8116;0.011906;-3.395e-6;-4.5154;-0.211;14353;2703.5;6.2695;0.093405;1920.5;1290.5;4.5001;0.6834;36584550;2062.5;324.2;0.65685;0.65685;0.32082;0.22447;0.11156;0.0038081;0.017202;-4.8189e-4;0;0;0;0;-3.6791e-4;0.023597;140;153.94;64.004;0.0073666;NaN;13.176;980.34;339.28;0.03855;0.037631
1.8333;188.72;212.22;97.361;234.85;109.37;83.608;0.0080331;83.608;0.005505;100.59;49.823;52;20.001;9.8116;0.16916;-4.9222e-6;-0.5792;-0.02057;14323;2673.7;6.2571;0.093383;1919.9;1289.3;4.5039;0.6963;37247862;2036.3;337.88;0.66002;0.66008;0.32022;0.22681;0.11299;0.054478;0.24543;3.9023e-4;0;0;0;0;-5.8324e-6;0.024047;140;153.94;64.117;0.0085482;NaN;13.123;979.39;339.25;0.024837;0.038063
1.8581;194.02;214.64;96.042;237.57;107.96;86.122;0.0084322;86.122;0.0056099;101.83;49.303;52;20.001;9.8116;0.16179;-4.9673e-6;3.4847;-0.024005;14294;2644.5;6.2449;0.093362;1921;1288.1;4.5201;0.70447;37666731;2015.6;346.69;0.66205;0.66211;0.31984;0.22831;0.11391;0.052225;0.23536;3.5263e-4;0;0;0;0;2.0627e-4;0.024329;140;153.94;64.08;0.0097027;NaN;13.089;978.77;339.23;0.025269;0.038533
1.8834;199.48;217.06;93.82;240.29;106.07;88.71;0.0088535;88.71;0.0057182;103.09;49.473;52;20.001;9.8116;0.086993;-6.5498e-6;6.7514;-0.046981;14271;2621.4;6.2352;0.093345;1923;1287.2;4.5416;0.7128;38093577;1989.5;355.81;0.66414;0.66416;0.31944;0.22984;0.11486;0.028109;0.12702;4.8096e-4;0;0;0;0;7.5637e-4;0.024613;140;153.94;63.947;0.010358;NaN;13.053;978.13;339.21;0.037903;0.038979
1.9213;207.77;220.57;89.466;244.29;102.94;92.654;0.009518;92.654;0.0058858;105;50.919;52;20.001;9.8115;0.12933;-1.1352e-5;-6.1868;-0.022417;14241;2592.2;6.2229;0.093324;1924;1286.1;4.5567;0.72474;38702154;1961.8;369.14;0.66717;0.6672;0.31886;0.23207;0.11624;0.04198;0.19148;5.449e-5;0;0;0;0;-6.1453e-4;0.025033;140;153.94;63.677;0.0099126;NaN;12.999;977.15;339.18;0.029292;0.039407
1.9506;214.27;223.18;87.204;247.3;101.1;95.752;0.010054;95.752;0.0060161;106.52;51.156;52;20.001;9.8115;0.2039;-1.29e-5;-0.49345;-0.012251;14210;2561.2;6.2098;0.093302;1924.1;1284.8;4.5665;0.73355;3.915e7;1942.2;379.19;0.66943;0.66951;0.31843;0.23373;0.11727;0.066465;0.30314;-1.6875e-4;0;0;0;0;-3.8165e-6;0.025354;140;153.94;63.575;0.0089663;NaN;12.957;976.39;339.15;0.018036;0.039833
1.9686;218.31;224.76;86.691;249.12;100.06;97.681;0.010391;97.681;0.0060952;107.43;49.963;52;20.001;9.8115;0.14054;-1.2929e-5;3.018;-0.013081;14189;2539.4;6.2005;0.093286;1925.7;1283.9;4.5842;0.73902;39427061;1924.9;385.46;0.67084;0.67088;0.31816;0.23477;0.11791;0.045837;0.20968;3.6599e-4;0;0;0;0;1.4067e-4;0.025548;140;153.94;63.599;0.0086558;NaN;12.931;975.92;339.14;0.025665;0.040304
1.9943;224.11;226.99;86.258;251.67;98.337;100.45;0.010879;100.45;0.0062051;108.69;47.22;52;20.001;9.8115;0.014964;-1.3439e-5;-4.8789;-0.14572;14169;2519.6;6.1921;0.093272;1928.5;1283.1;4.6098;0.74669;39815298;1908.4;394.38;0.67283;0.67283;0.31778;0.23623;0.11883;0.0048804;0.022932;-1.247e-4;0;0;0;0;-3.6017e-4;0.025818;140;153.94;63.71;0.0088717;NaN;12.893;975.24;339.11;0.038497;0.040752
2.0328;232.91;230.32;85.387;255.43;96.041;104.67;0.01163;104.67;0.0063661;110.44;43.965;52;20.002;9.8115;0.18139;-1.6564e-5;0.40766;-0.021935;14141;2491.8;6.1803;0.093251;1927.7;1282;4.6126;0.75813;40392943;1895.2;407.98;0.67584;0.67591;0.3172;0.23843;0.12021;0.05958;0.27503;4.01e-4;0;0;0;0;2.4397e-6;0.026211;140;153.94;63.814;0.010578;NaN;12.836;974.21;339.08;0.018565;0.04119
2.0513;237.2;231.91;84.735;257.22;95.486;106.73;0.012004;106.73;0.0064441;111.26;44.018;52;20.002;9.8114;0.16063;-1.6116e-5;4.3693;-0.025016;14117;2467.6;6.17;0.093234;1928.8;1281;4.6271;0.76356;40666066;1886.2;414.49;0.67728;0.67733;0.31692;0.23949;0.12087;0.052837;0.2442;2.8262e-4;0;0;0;0;2.7632e-4;0.026397;140;153.94;63.769;0.011289;NaN;12.808;973.7;339.06;0.020589;0.041637
2.0719;241.99;233.64;82.858;259.18;94.484;109.03;0.01243;109.03;0.0065322;112.19;45.407;52;20.002;9.8114;0.02982;-1.5646e-5;6.834;-0.11781;14100;2451;6.1629;0.093222;1931.4;1280.3;4.6506;0.76924;40950665;1874.3;421.35;0.67879;0.67879;0.31662;0.2406;0.12157;0.0098031;0.045028;1.819e-4;0;0;0;0;6.6611e-4;0.026603;140;153.94;63.648;0.011546;NaN;12.777;973.14;339.04;0.030883;0.04207
2.1028;249.25;236.17;79.933;262.08;92.9;112.52;0.013093;112.52;0.006667;113.63;47.34;52;20.002;9.8114;0.15267;-1.4583e-5;-4.0747;-0.018028;14078;2429.2;6.1535;0.093206;1930.9;1279.4;4.6534;0.77763;4.137e7;1862.4;431.67;0.68104;0.68109;0.31619;0.24224;0.12261;0.050459;0.23482;1.7287e-4;0;0;0;0;-2.3176e-4;0.026911;140;153.94;63.463;0.01109;NaN;12.73;972.29;339.01;0.020618;0.042512
2.1234;254.13;237.81;78.883;263.99;92.119;114.87;0.013548;114.87;0.0067577;114.61;47.574;52;20.002;9.8114;0.19062;-1.5547e-5;0.68912;-0.012189;14057;2407.3;6.1441;0.09319;1931.1;1278.5;4.6617;0.78308;41641361;1853.9;438.45;0.68252;0.68259;0.3159;0.24332;0.1233;0.063171;0.29414;-3.5099e-4;0;0;0;0;6.5377e-6;0.027115;140;153.94;63.427;0.010462;NaN;12.698;971.72;338.99;0.016217;0.042935
2.1397;258;239.09;78.534;265.48;91.347;116.74;0.013913;116.74;0.0068285;115.38;46.654;52;20.002;9.8114;0.14964;-1.6624e-5;4.3874;-0.014862;14041;2391.7;6.1374;0.093179;1932.3;1277.9;4.6747;0.78733;41852174;1845.5;443.74;0.68367;0.68372;0.31568;0.24416;0.12383;0.049628;0.23209;4.6721e-5;0;0;0;0;2.6217e-4;0.027275;140;153.94;63.469;0.010157;NaN;12.673;971.26;338.98;0.020318;0.043372
2.16;262.87;240.69;78.529;267.32;90.106;119.09;0.014375;119.09;0.006916;116.31;44.185;52;20.002;9.8114;0.018966;-1.6322e-5;6.8972;-0.13618;14025;2376.2;6.1307;0.093167;1934.9;1277.2;4.6978;0.79271;4.212e7;1833.8;450.5;0.68514;0.68514;0.31539;0.24524;0.12451;0.0062862;0.029056;-3.5433e-4;0;0;0;0;6.3921e-4;0.027472;140;153.94;63.59;0.010133;NaN;12.641;970.69;338.96;0.030478;0.043806
2.1904;270.25;243.1;78.434;270.05;88.22;122.65;0.015081;122.65;0.0070449;117.6;40.385;52;20.002;9.8113;0.17395;-1.5919e-5;-3.1459;-0.01989;14004;2354.7;6.1214;0.093152;1934;1276.3;4.6975;0.80087;42524197;1822.9;460.95;0.68738;0.68745;0.31495;0.24687;0.12556;0.058005;0.2726;-5.5734e-5;0;0;0;0;-1.3031e-4;0.027758;140;153.94;63.76;0.010919;NaN;12.593;969.83;338.93;0.0167;0.044239
2.2071;274.32;244.42;78.058;271.53;87.625;124.62;0.015476;124.62;0.0071149;118.27;39.813;52;20.002;9.8113;0.1913;-1.6147e-5;1.2677;-0.016418;13984;2334.7;6.1127;0.093137;1934.4;1275.5;4.7064;0.80524;4.274e7;1815.6;466.6;0.68859;0.68867;0.31472;0.24775;0.12612;0.06392;0.30099;3.7062e-4;0;0;0;0;2.0933e-5;0.027911;140;153.94;63.777;0.011553;NaN;12.567;969.35;338.91;0.014947;0.044752
2.2221;277.98;245.58;77.022;272.83;86.916;126.4;0.015834;126.4;0.0071777;118.87;40.274;52;20.002;9.8113;0.14083;-1.6841e-5;4.8471;-0.022322;13971;2321.3;6.1069;0.093128;1935.6;1274.9;4.7195;0.80908;4.293e7;1807.5;471.55;0.68966;0.6897;0.31451;0.24853;0.12662;0.047077;0.22203;3.2407e-4;0;0;0;0;3.0316e-4;0.028047;140;153.94;63.73;0.012035;NaN;12.543;968.92;338.9;0.02006;0.045232
2.2422;282.92;247.11;75.025;274.57;85.877;128.79;0.016325;128.79;0.0072627;119.69;41.785;52;20.002;9.8113;0.016494;-1.8054e-5;7.1673;-0.15958;13956;2306.4;6.1004;0.093117;1938.1;1274.3;4.7416;0.81419;43181311;1795.9;478.2;0.69108;0.69108;0.31423;0.24957;0.12728;0.0055111;0.025369;-1.8991e-4;0;0;0;0;6.5462e-4;0.02823;140;153.94;63.603;0.012382;NaN;12.511;968.34;338.88;0.030091;0.045712
2.2722;290.39;249.33;72.068;277.14;84.353;132.41;0.017083;132.41;0.0073919;120.99;43.835;52;20.002;9.8113;0.15232;-1.7925e-5;-3.7231;-0.01033;13934;2285.1;6.0912;0.093101;1937.4;1273.4;4.7428;0.82167;43547959;1784.9;488.09;0.69318;0.69323;0.31382;0.2511;0.12826;0.051178;0.24246;1.6527e-4;0;0;0;0;-1.7347e-4;0.028504;140;153.94;63.423;0.012091;NaN;12.462;967.46;338.85;0.017793;0.046192
2.29;294.84;250.62;71.306;278.64;83.719;134.57;0.017542;134.57;0.0074687;121.78;43.866;52;20.002;9.8113;0.16915;-1.742e-5;0.71173;-0.0062273;13914;2264.8;6.0823;0.093087;1937.8;1272.5;4.752;0.82601;4.376e7;1777.1;493.87;0.69441;0.69447;0.31358;0.25199;0.12884;0.05695;0.27066;-3.6561e-4;0;0;0;0;6.2736e-6;0.028665;140;153.94;63.396;0.011783;NaN;12.434;966.94;338.83;0.015758;0.046628
2.3058;298.8;251.74;71.073;279.95;82.893;136.49;0.017954;136.49;0.0075364;122.47;42.659;52;20.002;9.8112;0.11509;-1.6766e-5;4.2341;-0.0074727;13900;2250.6;6.0761;0.093076;1939.2;1271.9;4.7658;0.82985;43947656;1768.6;499;0.6955;0.69552;0.31336;0.25278;0.12935;0.038767;0.18455;-2.0765e-4;0;0;0;0;2.1999e-4;0.028806;140;153.94;63.437;0.011661;NaN;12.408;966.48;338.82;0.022885;0.047022
2.3287;304.58;253.38;71.197;281.83;81.492;139.31;0.018561;139.31;0.0076341;123.41;39.647;52;20.002;9.8112;0.031435;-1.6231e-5;-5.7322;-0.038804;13884;2234.8;6.0692;0.093065;1941.2;1271.3;4.785;0.83546;44221323;1756.6;506.56;0.69709;0.6971;0.31305;0.25395;0.1301;0.010596;0.050956;7.594e-5;0;0;0;0;-3.9786e-4;0.029007;140;153.94;63.56;0.011737;NaN;12.37;965.8;338.8;0.034327;0.047418
2.363;313.32;255.83;70.65;284.61;79.525;143.57;0.019492;143.57;0.0077791;124.72;36.507;52;20.002;9.8112;0.16331;-1.2452e-5;0.37754;-0.010753;13862;2212.3;6.0593;0.093049;1940.7;1270.3;4.7883;0.84383;44628292;1746.3;518.02;0.69949;0.69955;0.31258;0.25569;0.13123;0.055379;0.26479;-7.7515e-5;0;0;0;0;1.6922e-6;0.029298;140;153.94;63.666;0.012421;NaN;12.313;964.77;338.76;0.01541;0.048038
2.3784;317.27;256.92;70.103;285.84;79.105;145.49;0.019918;145.49;0.0078438;125.28;36.65;52;20.002;9.8112;0.14433;-1.3288e-5;4.2914;-0.011575;13842;2192.9;6.0507;0.093034;1941.5;1269.5;4.8003;0.8476;44811027;1739.5;523.2;0.70058;0.70062;0.31236;0.25648;0.13174;0.049001;0.23466;2.7198e-4;0;0;0;0;2.1671e-4;0.029426;140;153.94;63.63;0.012754;NaN;12.288;964.31;338.75;0.017218;0.049003
2.3956;321.7;258.12;68.601;287.2;78.279;147.66;0.020401;147.66;0.0079164;125.92;37.702;52;20.002;9.8112;0.064311;-1.2249e-5;7.3043;-0.024724;13829;2180.1;6.0451;0.093025;1943.3;1268.9;4.8167;0.85177;45013000;1730.6;528.96;0.70179;0.7018;0.31212;0.25736;0.13231;0.02184;0.10441;4.3561e-4;0;0;0;0;6.2179e-4;0.029568;140;153.94;63.527;0.012981;NaN;12.259;963.79;338.73;0.025828;0.049475
2.4215;328.39;259.86;65.862;289.21;77.066;150.92;0.02114;150.92;0.0080258;126.93;40.017;52;20.002;9.8112;0.096447;-1.1775e-5;-6.467;-0.012348;13813;2163.3;6.0376;0.093013;1943.8;1268.2;4.8256;0.85782;45304818;1720.1;537.42;0.70355;0.70357;0.31177;0.25864;0.13314;0.032858;0.15945;-4.1481e-4;0;0;0;0;-4.8062e-4;0.029782;140;153.94;63.335;0.013169;NaN;12.215;963.01;338.7;0.02472;0.049946
2.4462;334.83;261.48;64.24;291.1;75.989;154.07;0.021865;154.07;0.0081311;127.94;40.59;52;20.002;9.8111;0.15227;-1.1442e-5;-0.79609;-0.0038714;13793;2143.5;6.0289;0.092999;1944;1267.4;4.8327;0.8635;45577495;1711.7;545.44;0.70521;0.70526;0.31145;0.25984;0.13392;0.052061;0.25137;3.6712e-4;0;0;0;0;-7.1888e-6;0.029987;140;153.94;63.242;0.013028;NaN;12.174;962.25;338.68;0.015464;0.050442
2.4616;338.88;262.47;64.088;292.27;75.323;156.05;0.022326;156.05;0.008197;128.56;39.576;52;20.002;9.8111;0.10885;-1.1618e-5;2.7816;-0.0030923;13777;2127.8;6.0219;0.092987;1945.1;1266.7;4.8458;0.86703;45746722;1704;550.43;0.70625;0.70627;0.31124;0.26059;0.13441;0.037241;0.18031;3.9476e-4;0;0;0;0;8.7061e-5;0.030113;140;153.94;63.259;0.012927;NaN;12.147;961.78;338.66;0.021369;0.050984
2.483;344.51;263.85;64.151;293.87;74.007;158.81;0.022972;158.81;0.0082877;129.38;36.901;52;20.002;9.8111;0.0094129;-1.1902e-5;-4.6908;-0.065968;13763;2113.4;6.0155;0.092977;1947.3;1266.1;4.8655;0.87187;45978016;1692.9;557.31;0.70767;0.70767;0.31096;0.26163;0.13509;0.0032214;0.01624;-3.767e-4;0;0;0;0;-2.4488e-4;0.030285;140;153.94;63.346;0.01288;NaN;12.111;961.12;338.64;0.032054;0.051479
2.5151;353;265.92;63.658;296.22;72.154;162.98;0.023958;162.98;0.0084226;130.52;33.967;52;20.002;9.8111;0.12292;-1.3099e-5;-0.02078;-0.0098224;13742;2092.5;6.0062;0.092962;1946.9;1265.2;4.8693;0.87898;46316637;1682.5;567.56;0.70978;0.70982;0.31054;0.26316;0.13609;0.042293;0.20609;-1.3937e-4;0;0;0;0;0;0.030533;140;153.94;63.434;0.013222;NaN;12.056;960.12;338.6;0.018176;0.051962
2.5332;357.84;267.07;62.847;297.53;71.53;165.35;0.024527;165.35;0.0084988;131.14;34.158;52;20.002;9.8111;0.097637;-1.3535e-5;3.7679;-0.0065455;13722;2072.8;5.9974;0.092947;1947.9;1264.3;4.8824;0.88293;46503909;1674;573.28;0.71096;0.71098;0.3103;0.26401;0.13665;0.033639;0.16375;-8.091e-5;0;0;0;0;1.5411e-4;0.03067;140;153.94;63.398;0.013542;NaN;12.024;959.55;338.59;0.022651;0.052459
2.5559;363.91;268.48;60.79;299.15;70.471;168.33;0.025248;168.33;0.0085936;131.93;35.647;52;20.002;9.811;0.0056205;-1.3603e-5;-5.8352;0.0031282;13706;2056.9;5.9903;0.092936;1949.9;1263.6;4.902;0.88776;46731502;1662.2;580.28;0.71241;0.71241;0.31002;0.26506;0.13733;0.0019374;0.0097304;1.6038e-4;0;0;0;0;-3.6566e-4;0.030841;140;153.94;63.282;0.013591;NaN;11.985;958.84;338.56;0.033976;0.052963
2.5899;373.07;270.51;58.04;301.52;68.857;172.84;0.02635;172.84;0.0087352;133.18;37.049;52;20.003;9.811;0.11628;-1.136e-5;-0.86091;0.0072238;13684;2034.7;5.9803;0.09292;1949.6;1262.7;4.9064;0.89468;47055945;1651.4;590.46;0.71449;0.71452;0.3096;0.26657;0.13832;0.040296;0.19725;4.3923e-4;0;0;0;0;-7.8383e-6;0.031097;140;153.94;63.155;0.01375;NaN;11.925;957.77;338.53;0.018296;0.053472
2.6082;378.02;271.58;57.873;302.77;68.178;175.28;0.026955;175.28;0.0088112;133.86;36.042;52;20.003;9.811;0.077402;-1.2724e-5;2.7727;0.0071002;13664;2014.3;5.9712;0.092905;1950.7;1261.8;4.921;0.89841;4.723e7;1641.9;595.95;0.71562;0.71563;0.30938;0.26738;0.13886;0.026852;0.13173;-3.0134e-4;0;0;0;0;8.0639e-5;0.031234;140;153.94;63.175;0.013981;NaN;11.893;957.19;338.51;0.027142;0.053947
2.6353;385.42;273.16;57.838;304.6;66.478;178.93;0.027868;178.93;0.0089239;134.8;32.774;52;20.003;9.811;0.052974;-1.2567e-5;-3.3063;6.3094e-4;13646;1996.5;5.9631;0.092892;1952;1261;4.9356;0.90398;4.749e7;1628.6;604.99;0.7182;0.71821;0.30862;0.26991;0.13967;0.018418;0.090809;-2.7887e-4;0;0;0;0;-1.1327e-4;0.03143;140;153.94;63.272;0.014471;NaN;11.845;956.32;338.48;0.038874;0.054498
2.6742;396.08;275.4;56.132;307.17;64.366;184.19;0.029209;184.19;0.0090862;136.04;31.499;52;20.003;9.8109;0.069272;-4.4978e-6;3.1133;6.6689e-4;13621;1971.6;5.9519;0.092874;1953.1;1259.9;4.9511;0.91172;47848878;1615.5;618.08;0.72229;0.7223;0.30735;0.27415;0.14079;0.024183;0.12003;-2.1059e-4;0;0;0;0;9.8763e-5;0.0317;140;153.94;63.264;0.014493;NaN;11.775;955.07;338.43;0.028897;0.054982
2.7031;404.06;277;53.977;309.02;63.263;188.13;0.030229;188.13;0.0092063;136.97;32.994;52;20.003;9.8109;0.028533;-3.0349e-6;-4.2869;0.0050565;13596;1946.9;5.9407;0.092856;1954.5;1258.8;4.9695;0.91729;48106610;1601.5;627.62;0.72525;0.72525;0.30643;0.27721;0.14161;0.0099805;0.049654;2.611e-4;0;0;0;0;-1.8502e-4;0.031898;140;153.94;63.144;0.014571;NaN;11.724;954.15;338.4;0.043346;0.055486
2.7464;416.12;279.31;51.708;311.72;60.958;194.1;0.031797;194.1;0.0093858;138.42;32.283;52;20.003;9.8109;0.041894;-3.2083e-6;0.6767;0.0052406;13570;1920.5;5.9287;0.092837;1955.7;1257.6;4.9864;0.92543;48481933;1584.2;641.72;0.72959;0.7296;0.30509;0.28169;0.14281;0.014717;0.07293;3.1064e-4;0;0;0;0;4.5309e-6;0.032191;140;153.94;63.084;0.01497;NaN;11.645;952.81;338.36;0.04609;0.056002
2.7925;429.05;281.7;50.506;314.5;58.5;200.52;0.033512;200.52;0.0095758;139.84;29.519;52;20.003;9.8108;0.041069;-4.5152e-6;1.3676;-0.0088311;13537;1887.9;5.9139;0.092813;1957.2;1256.2;5.0072;0.93413;48882055;1566.5;657.02;0.73426;0.73427;0.30366;0.28649;0.14411;0.014488;0.073022;3.429e-4;0;0;0;0;1.8169e-5;0.032488;140;153.94;63.092;0.015424;NaN;11.561;951.36;338.3;0.045134;0.056522
2.8377;441.81;283.95;47.845;317.12;56.466;206.86;0.035245;206.86;0.0097622;141.2;29.989;52;20.003;9.8108;0.022965;-4.6682e-6;-1.8766;-0.012147;13504;1854.7;5.8986;0.092789;1958.8;1254.7;5.0289;0.94206;49241534;1548;671.1;0.73854;0.73854;0.30235;0.29088;0.14531;0.0081298;0.041415;-1.6808e-4;0;0;0;0;-3.3645e-5;0.03277;140;153.94;62.987;0.015908;NaN;11.478;949.94;338.25;0.05;0.057016
2.8877;456.07;286.32;45.987;319.9;54.177;213.95;0.037234;213.95;0.009971;142.69;28.641;52;20.003;9.8108;0.0078998;-7.3854e-6;0.43;-0.02357;13469;1820.1;5.8827;0.092764;1960.3;1253.1;5.051;0.95019;49604235;1530.8;685.68;0.74296;0.74296;0.30101;0.29541;0.14654;0.0028068;0.014396;-4.1088e-4;0;0;0;0;1.737e-6;0.033072;140;153.94;62.989;0.015366;NaN;11.386;948.34;338.2;0.05;0.05752
2.9377;470.44;288.61;44.412;322.58;52.023;221.12;0.03928;221.12;0.010178;144.08;27.091;52;20.003;9.8107;0.019671;-1.3003e-5;1.1783;0.030354;13434;1784.7;5.8664;0.092738;1961.5;1251.5;5.0708;0.95833;49965200;1515.3;700.78;0.74776;0.74776;0.29968;0.3003;0.14779;0.0070173;0.035088;-2.8552e-4;0;0;0;0;1.2827e-5;0.03336;140;153.94;62.974;0.015369;NaN;11.292;946.74;338.14;0.05;0.057985
2.9877;484.93;290.8;42.108;325.15;50.058;228.36;0.041373;228.36;0.01038;145.46;27.067;52;20.003;9.8107;0.018598;-7.6875e-6;-0.40897;0.0076015;13399;1750.2;5.8504;0.092713;1962.7;1250;5.0908;0.96597;50298709;1499.9;715.07;0.75229;0.75229;0.29842;0.3049;0.14897;0.006658;0.034196;-2.6495e-4;0;0;0;0;-1.5214e-6;0.033639;140;153.94;62.911;0.016575;NaN;11.198;945.12;338.08;0.05;0.05861
3.0377;499.52;292.9;40.623;327.62;47.957;235.67;0.043532;235.67;0.010584;146.78;25.489;52;20.003;9.8106;0.0097407;-7.7873e-6;0.47662;0.023868;13365;1715.8;5.8344;0.092688;1964;1248.4;5.1111;0.97331;50615525;1484.5;728.95;0.75666;0.75666;0.29721;0.30934;0.15011;0.003498;0.017435;-3.1593e-4;0;0;0;0;2.0359e-6;0.033907;140;153.94;62.915;0.015906;NaN;11.103;943.49;338.03;0.05;0.05937
3.0877;514.21;294.91;38.76;329.99;45.873;243.04;0.045736;243.04;0.010782;148.05;24.536;52;20.004;9.8106;0.012204;-1.4832e-5;1.799;-0.041995;13331;1681.3;5.8183;0.092663;1965.1;1246.8;5.1304;0.98084;5.094e7;1469.1;743.37;0.76116;0.76116;0.29597;0.3139;0.15129;0.0043971;0.022897;1.2538e-4;0;0;0;0;2.8572e-5;0.034163;140;153.94;62.841;0.017437;NaN;11.008;941.85;337.97;0.05;0.059834
3.1377;529.01;296.82;36.555;332.25;43.812;250.47;0.048011;250.47;0.010983;149.29;24.149;52;20.004;9.8105;0.0093485;-1.4582e-5;-1.3857;0.0027513;13296;1646.9;5.8022;0.092638;1966.2;1245.2;5.1498;0.98803;51245662;1452.7;757.24;0.76548;0.76548;0.29479;0.31826;0.15243;0.0033784;0.017405;3.7628e-4;0;0;0;0;-1.6711e-5;0.03441;140;153.94;62.744;0.017474;NaN;10.911;940.19;337.91;0.05;0.060294
3.1877;543.89;298.64;34.72;334.4;41.597;257.97;0.05035;257.97;0.011183;150.47;22.91;52;20.004;9.8105;0.0021291;-1.4114e-5;1.3531;0.2333;13263;1613.4;5.7864;0.092614;1967.3;1243.7;5.1688;0.99484;5.153e7;1434.9;770.46;0.76958;0.76958;0.29366;0.3224;0.15351;7.7147e-4;0.0043942;4.3289e-4;0;0;0;0;1.5724e-5;0.034646;140;153.94;62.689;0.016728;NaN;10.815;938.53;337.85;0.05;0.060736
3.2377;558.87;300.35;32.652;336.45;39.445;265.52;0.052736;265.52;0.01138;151.62;22.129;52;20.004;9.8104;0.0055178;-1.026e-5;-0.75824;-0.029449;13230;1580.8;5.7709;0.09259;1968.2;1242.2;5.1858;1.0011;51786516;1417.2;783.42;0.77409;0.77409;0.29263;0.3273;0.15416;0.0020043;0.010357;3.5474e-4;0;0;0;0;-4.8769e-6;0.034871;140;153.94;62.636;0.018182;NaN;10.717;936.86;337.79;0.05;0.061167
3.2877;573.93;301.97;30.798;338.39;37.279;273.13;0.055188;273.13;0.011577;152.71;21.005;52;20.004;9.8104;7.195e-4;-1.1125e-5;0.59041;-0.48919;13198;1548.3;5.7555;0.092567;1969.1;1240.7;5.2031;1.007;52020814;1399.5;795.81;0.77856;0.77856;0.29166;0.33364;0.15326;2.6191e-4;0.001017;1.0487e-4;0;0;0;0;2.9235e-6;0.035084;140;153.94;62.607;0.019065;NaN;10.619;935.18;337.73;0.05;0.061617
3.3377;589.06;303.5;28.934;340.22;35.103;280.79;0.057718;280.79;0.011778;153.75;19.875;52;20.004;9.8104;0.0071922;-5.3311e-6;1.3905;0.11177;13165;1515.8;5.74;0.092543;1969.8;1239.1;5.2191;1.0129;52251609;1381.8;808.22;0.78302;0.78302;0.29069;0.33995;0.15237;0.0026239;0.013461;1.0172e-4;0;0;0;0;1.6034e-5;0.035286;140;153.94;62.55;0.017594;NaN;10.521;933.49;337.67;0.05;0.062049
3.3877;604.28;304.92;26.87;341.94;33.284;288.5;0.060296;288.5;0.011975;154.76;19.643;52;20.004;9.8103;0.017831;8.6926e-6;0.24451;0.010578;13133;1483.3;5.7244;0.092519;1970.3;1237.6;5.2339;1.0179;52437290;1365.4;818.7;0.78684;0.78684;0.28987;0.34534;0.15163;0.0065175;0.033683;1.2839e-5;0;0;0;0;4.911e-7;0.035478;140;153.94;62.516;0.019255;NaN;10.422;931.79;337.61;0.05;0.062502
3.4377;619.55;306.26;25.687;343.57;31.375;296.26;0.062942;296.26;0.012173;155.7;18.015;52;20.004;9.8103;0.012891;1.3481e-5;1.0244;0.040059;13101;1451.4;5.7092;0.092496;1971;1236.1;5.2498;1.0228;52617198;1350.9;829.07;0.79063;0.79063;0.28906;0.35067;0.1509;0.0047193;0.024702;4.8208e-4;0;0;0;0;8.541e-6;0.035658;140;153.94;62.523;0.018249;NaN;10.323;930.08;337.55;0.05;0.062934
3.4877;634.9;307.52;23.899;345.11;29.675;304.07;0.065634;304.07;0.012367;156.62;17.591;52;20.004;9.8102;0.0013007;1.3793e-5;-0.32974;-0.0028178;13070;1420.4;5.6942;0.092474;1971.8;1234.6;5.2658;1.0275;52786209;1336.3;839.07;0.79431;0.79431;0.28829;0.35582;0.15021;4.7675e-4;0.0024357;-1.3538e-4;0;0;0;0;-8.7717e-7;0.035831;140;153.94;62.473;0.019402;NaN;10.223;928.36;337.49;0.05;0.063369
3.5377;650.31;308.71;22.424;346.56;27.994;311.92;0.068387;311.92;0.012562;157.48;16.758;52;20.005;9.8102;0.001601;1.3746e-5;1.1636;0.021842;13039;1389.4;5.6792;0.092451;1972.4;1233.1;5.2806;1.0321;52949079;1322.9;848.89;0.79792;0.79792;0.28753;0.36086;0.14953;5.8764e-4;0.003172;1.7831e-4;0;0;0;0;1.0829e-5;0.035993;140;153.94;62.426;0.01975;NaN;10.123;926.64;337.43;0.05;0.0638
3.5877;665.77;309.81;21.022;347.92;26.527;319.82;0.071201;319.82;0.012756;158.32;16.178;52;20.005;9.8101;0.0018354;1.4559e-5;-0.90614;-0.11284;13008;1358.9;5.6643;0.092429;1972.9;1231.6;5.2949;1.0365;53097129;1311.4;858.11;0.80133;0.80133;0.28681;0.36561;0.14891;6.7453e-4;0.0035692;-2.081e-4;0;0;0;0;-6.5147e-6;0.036147;140;153.94;62.374;0.020641;NaN;10.023;924.92;337.37;0.05;0.06436
3.6377;681.29;310.85;19.721;349.21;25.123;327.76;0.074086;327.76;0.012951;159.12;15.564;52;20.005;9.8101;0.0032221;1.1463e-5;-0.50933;0.055962;12978;1328.9;5.6497;0.092407;1973.4;1230.2;5.3085;1.0404;53222419;1299.9;866.31;0.80441;0.80441;0.28617;0.3699;0.14835;0.0011854;0.0059746;-3.9979e-4;0;0;0;0;-2.0435e-6;0.036294;140;153.94;62.346;0.019741;NaN;9.9216;923.18;337.31;0.05;0.064836
3.6877;696.85;311.83;18.557;350.43;23.694;335.73;0.077025;335.73;0.013145;159.89;14.732;52;20.005;9.81;0.0036421;8.7108e-6;0.70481;0.085121;12948;1299;5.635;0.092386;1973.8;1228.7;5.322;1.0441;53338062;1288.4;874.14;0.80739;0.80739;0.28555;0.37403;0.14781;0.0013412;0.0067784;-3.0727e-4;0;0;0;0;3.8864e-6;0.036433;140;153.94;62.323;0.020295;NaN;9.8205;921.44;337.25;0.05;0.065278
3.7377;712.47;312.75;17.48;351.58;22.567;343.74;0.080017;343.74;0.013337;160.63;14.273;52;20.005;9.81;0.0013645;7.5768e-6;0.71722;-0.14747;12918;1269.1;5.6203;0.092364;1974.3;1227.3;5.3356;1.0478;53447879;1279.9;881.76;0.81029;0.81029;0.28495;0.37805;0.1473;5.0293e-4;0.0023487;-2.3393e-4;0;0;0;0;3.9979e-6;0.036564;140;153.94;62.279;0.021649;NaN;9.719;919.7;337.19;0.05;0.065715
3.7877;728.13;313.61;17.058;352.68;22.31;351.79;0.083073;351.79;0.01353;161.34;14.379;52;20.005;9.8099;0.0076149;2.8477e-6;-0.075433;0.016227;12889;1239.3;5.6056;0.092342;1974.5;1225.8;5.348;1.051;53532966;1280.7;887.58;0.81227;0.81227;0.28442;0.38099;0.14685;0.002809;0.014767;-2.1401e-4;0;0;0;0;-4.3973e-8;0.036691;140;153.94;62.259;0.020743;NaN;9.6172;917.95;337.13;0.05;0.066154
3.8377;743.83;314.47;17.098;353.76;21.991;359.88;0.08618;359.88;0.013721;162.04;13.83;52;20.005;9.8099;0.0089436;0;1.3815;-0.010233;12859;1209.8;5.591;0.092321;1974.9;1224.3;5.3611;1.0545;53634529;1282;892.66;0.81302;0.81302;0.28384;0.38282;0.14636;0.0033017;0.01738;-3.4425e-4;0;0;0;0;1.4657e-5;0.036815;140;153.94;62.229;0.022047;NaN;9.5151;916.19;337.07;0.05;0.066618
3.8877;759.57;315.3;16.734;354.83;21.889;368;0.089355;368;0.013912;162.75;14.111;52;20.005;9.8098;0.003546;2.1171e-6;-0.18507;0.026591;12830;1180.3;5.5764;0.092299;1975.3;1222.9;5.3746;1.0578;53725010;1283.4;897.34;0.81374;0.81374;0.2833;0.38454;0.1459;0.0013098;0.0073943;-1.1228e-4;0;0;0;0;-2.6145e-7;0.036939;140;153.94;62.184;0.022482;NaN;9.4128;914.43;337;0.05;0.067045
3.9377;775.36;316.14;16.568;355.89;21.743;376.15;0.092599;376.15;0.014105;163.45;14.081;52;20.005;9.8098;0.0049153;-1.1161e-6;-0.37525;0.022124;12800;1150.9;5.5617;0.092278;1975.6;1221.4;5.3872;1.0609;53803953;1284.7;901.63;0.81441;0.81441;0.28278;0.38615;0.14547;0.0018168;0.010205;-4.6073e-4;0;0;0;0;-1.0691e-6;0.037062;140;153.94;62.171;0.02186;NaN;9.3102;912.67;336.94;0.05;0.067475
3.9877;791.19;316.97;16.525;356.95;21.526;384.34;0.095902;384.34;0.014297;164.14;13.795;52;20.006;9.8097;0.0024361;-4.1384e-6;0.48636;0.058985;12771;1121.4;5.5469;0.092257;1976;1219.9;5.4002;1.064;53881033;1285.9;905.87;0.8151;0.8151;0.28228;0.38777;0.14505;9.0086e-4;0.0051226;-8.735e-5;0;0;0;0;1.7861e-6;0.037183;140;153.94;62.167;0.022771;NaN;9.2073;910.9;336.88;0.05;0.067947
4.0377;807.06;317.79;16.368;357.99;21.165;392.57;0.099266;392.57;0.014488;164.82;13.418;52;20.006;9.8097;0.011428;-3.1133e-5;1.4464;-0.095895;12741;1091.9;5.5321;0.092235;1976.2;1218.5;5.4126;1.0677;53985933;1286.3;911.22;0.81591;0.81591;0.28168;0.38967;0.14456;0.0042293;0.023265;-2.2557e-4;0;0;0;0;1.5694e-5;0.037304;140;153.94;62.106;0.025164;NaN;9.1041;909.13;336.82;0.05;0.0684
4.0877;822.97;318.59;15.794;359.02;21.019;400.82;0.10271;400.82;0.014681;165.52;13.869;52;20.006;9.8096;0.0078963;-4.9211e-5;-0.55107;-0.0075052;12712;1062.4;5.5172;0.092214;1976.6;1217;5.426;1.0711;54081528;1286.7;916.25;0.81669;0.81669;0.2811;0.3915;0.14409;0.0029236;0.016183;9.7125e-5;0;0;0;0;-2.2643e-6;0.037424;140;153.94;62.026;0.02484;NaN;9.0007;907.35;336.75;0.05;0.068883
4.1377;838.91;319.38;15.532;360.03;20.742;409.12;0.10621;409.12;0.014875;166.19;13.747;52;20.006;9.8096;0.0074863;-5.7275e-5;-1.5062;0.21901;12682;1032.8;5.5022;0.092192;1976.9;1215.5;5.439;1.0745;54172780;1287.1;921.15;0.81745;0.81745;0.28054;0.39328;0.14363;0.0027731;0.015092;-4.2105e-4;0;0;0;0;-1.6815e-5;0.037541;140;153.94;61.972;0.021717;NaN;8.8971;905.57;336.69;0.05;0.069379
4.1877;854.9;320.16;15.455;361.03;20.327;417.44;0.10977;417.44;0.015066;166.85;13.203;52;20.006;9.8095;0.0071149;-7.3458e-5;2.0414;0.407;12653;1003.3;5.4872;0.092171;1977.3;1214;5.4522;1.0782;54274458;1287.5;926.49;0.81828;0.81828;0.27994;0.39519;0.14315;0.0026367;0.014459;4.4352e-4;0;0;0;0;3.0691e-5;0.037657;140;153.94;61.905;0.021555;NaN;8.7931;903.78;336.63;0.05;0.06983
4.2377;870.93;320.91;15.136;362.01;20.138;425.8;0.11337;425.8;0.015254;167.54;13.284;52;20.006;9.8095;9.9608e-4;-6.3403e-5;0.26307;-0.0031644;12623;973.69;5.4721;0.092149;1977.6;1212.5;5.4656;1.0813;54348882;1287.9;930.79;0.81898;0.81898;0.27943;0.39682;0.14273;3.6921e-4;0.0019583;2.7748e-4;0;0;0;0;5.0691e-7;0.037773;140;153.94;61.863;0.025374;NaN;8.689;901.99;336.56;0.05;0.070266
4.2877;886.99;321.66;14.93;362.99;20.009;434.2;0.11704;434.2;0.015444;168.21;13.321;52;20.006;9.8094;0.0031875;-5.5866e-5;0.38108;0.11832;12593;944.13;5.4569;0.092128;1977.8;1210.9;5.4778;1.0839;54396964;1288.3;934.08;0.81958;0.81958;0.279;0.39818;0.14239;0.0011818;0.006911;-1.05e-4;0;0;0;0;1.059e-6;0.037888;140;153.94;61.871;0.02645;NaN;8.5845;900.2;336.5;0.05;0.070764
4.3377;903.1;322.41;14.839;363.95;19.746;442.62;0.12078;442.62;0.015634;168.86;13.027;52;20.006;9.8094;0.0036063;-5.2869e-5;0.67849;-0.16322;12564;914.56;5.4417;0.092107;1978.1;1209.4;5.4905;1.0868;54462072;1288.6;938.04;0.82025;0.82025;0.27852;0.39972;0.14201;0.0013374;0.007193;-4.8518e-4;0;0;0;0;3.3403e-6;0.038;140;153.94;61.858;0.02614;NaN;8.4799;898.42;336.44;0.05;0.071254
4.3877;919.23;323.14;14.563;364.91;19.559;451.08;0.12459;451.08;0.015825;169.52;13.056;52;20.007;9.8093;0.0010746;-5.2394e-5;-0.12917;0.3189;12534;884.99;5.4264;0.092085;1978.4;1207.9;5.5034;1.0898;54532103;1289;942.13;0.82093;0.82093;0.27803;0.40127;0.14162;3.9861e-4;0.0022719;-2.8592e-4;0;0;0;0;-1.2046e-7;0.038112;140;153.94;61.826;0.023196;NaN;8.375;896.7;336.37;0.05;0.07173
4.4377;935.41;323.87;14.292;365.85;19.304;459.57;0.12845;459.58;0.016014;170.16;12.976;52;20.007;9.8093;0.002527;-4.4286e-5;-0.51939;0.42748;12505;855.42;5.4111;0.092064;1978.6;1206.3;5.516;1.0928;54602791;1288.9;946.27;0.82161;0.82161;0.27754;0.40284;0.14123;9.3752e-4;0.0055646;-5.246e-5;0;0;0;0;-1.9376e-6;0.038223;140;153.94;61.792;0.022042;NaN;8.2698;894.98;336.31;0.05;0.072209
4.4877;951.62;324.58;13.914;366.78;18.894;468.1;0.13234;468.1;0.016199;170.8;12.783;52;20.007;9.8092;0.0013136;-4.3934e-5;-1.1897;-0.5543;12475;825.88;5.3957;0.092042;1978.8;1204.8;5.5289;1.096;54684006;1287.4;950.86;0.82236;0.82236;0.27701;0.40453;0.14082;4.874e-4;0.0031309;-3.8649e-4;0;0;0;0;-1.011e-5;0.038332;140;153.94;61.735;0.027257;NaN;8.1645;893.25;336.25;0.05;0.07269
4.5377;967.87;325.27;13.555;367.69;18.554;476.66;0.1363;476.66;0.016384;171.44;12.67;52;20.007;9.8092;0.0039106;-1.5287e-6;-0.48353;-0.45592;12446;796.39;5.3803;0.092021;1979;1203.2;5.5412;1.0988;54745313;1285.8;954.68;0.82302;0.82302;0.27655;0.40601;0.14046;0.0014512;0.0085077;-8.5288e-5;0;0;0;0;-1.6622e-6;0.03844;140;153.94;61.705;0.031905;NaN;8.0589;891.53;336.18;0.05;0.07317
4.5877;984.15;325.95;13.411;368.58;18.152;485.24;0.14036;485.24;0.016573;172.07;12.233;52;20.007;9.8091;0.006513;4.1578e-5;0.74299;-0.33879;12416;766.9;5.3648;0.091999;1979.2;1201.7;5.5535;1.1015;54800984;1284.2;958.03;0.82343;0.82343;0.27621;0.4071;0.14011;0.0024171;0.013825;7.0143e-5;0;0;0;0;3.9067e-6;0.038545;140;153.94;61.692;0.028175;NaN;7.953;889.79;336.12;0.05;0.07365
4.6377;1000.5;326.61;13.181;369.45;17.837;493.86;0.14451;493.86;0.016765;172.69;12.018;52;20.007;9.8091;0.0095841;1.0639e-4;0.008063;-0.14974;12387;737.41;5.3493;0.091978;1979.3;1200.1;5.5657;1.1042;54851640;1282.6;961.01;0.82365;0.82365;0.27598;0.4079;0.13978;0.0035572;0.019799;-4.4872e-4;0;0;0;0;0;0.03865;140;153.94;61.675;0.018948;NaN;7.847;888.06;336.05;0.05;0.074138
4.6877;1016.8;327.25;12.683;370.31;17.676;502.51;0.14867;502.51;0.016951;173.31;12.311;52;20.007;9.809;0.0060679;2.0495e-4;0.23293;-0.46178;12357;707.92;5.3337;0.091957;1979.5;1198.5;5.5785;1.1068;54899254;1281.1;963.88;0.82387;0.82387;0.27574;0.40868;0.13945;0.0022519;0.012774;4.1151e-4;0;0;0;0;3.8063e-7;0.038752;140;153.94;61.643;0.020174;NaN;7.7407;886.32;335.99;0.05;0.074634
4.7377;1033.2;327.89;12.143;371.16;17.561;511.19;0.15283;511.19;0.017129;173.91;12.686;52;20.007;9.809;0.021336;4.0033e-4;-0.46111;-0.45221;12328;678.43;5.3181;0.091935;1979.5;1196.9;5.5896;1.1093;54945042;1279.5;966.71;0.8241;0.8241;0.27551;0.40946;0.13913;0.0079199;0.044053;-7.4486e-5;0;0;0;0;-1.4854e-6;0.038852;140;153.94;61.609;0.037331;NaN;7.6343;884.58;335.93;0.05;0.075071
4.7877;1049.6;328.52;12.085;371.99;17.061;519.9;0.15708;519.9;0.017311;174.49;12.042;52;20.008;9.8089;0.011458;7.5727e-4;-1.3755;-2.2401;12298;648.97;5.3024;0.091914;1979.8;1195.4;5.6031;1.1121;5.5e7;1277.5;969.9;0.82434;0.82434;0.27526;0.41029;0.13878;0.0042522;0.02421;1.0757e-4;0;0;0;0;-1.3156e-5;0.038951;140;153.94;61.585;0.048813;NaN;7.5276;882.83;335.86;0.05;0.075506
4.8377;1066;329.12;12.487;372.8;16.387;528.64;0.16156;528.64;0.017511;175.09;10.612;52;20.008;9.8089;0.034947;0.0015846;1.3838;-0.97247;12269;619.65;5.2867;0.091892;1979.6;1193.8;5.6133;1.1145;55037659;1275.8;972.45;0.82455;0.82455;0.27504;0.41103;0.13848;0.012973;0.07266;-4.0097e-4;0;0;0;0;1.3263e-5;0.03905;140;153.94;61.608;0.025324;NaN;7.4208;881.08;335.8;0.030765;0.07594
4.8684;1076.2;329.49;11.566;373.29;16.647;534.04;0.16415;534.04;0.017611;175.45;11.973;52;20.008;9.8089;0.015;0.0014552;-1.0855;-1.4657;12245;596.06;5.274;0.091875;1980;1192.5;5.625;1.1161;55064411;1274.1;974.16;0.82469;0.82469;0.2749;0.4115;0.13828;0.0055659;0.030929;-3.6594e-4;0;0;0;0;-8.1411e-6;0.039108;140;153.94;61.545;0.052566;NaN;7.3549;880.01;335.76;0.046147;0.0764
4.9146;1091.4;330.03;11.85;374.02;15.895;542.14;0.16837;542.14;0.017794;175.99;10.594;52;20.008;9.8088;0.02782;0.0017912;1.936;-0.65971;12223;573.59;5.2619;0.091859;1980;1191.3;5.6336;1.1188;5.512e7;1272.3;977.34;0.82493;0.82493;0.27466;0.41232;0.13795;0.010323;0.058111;1.7171e-4;0;0;0;0;2.578e-5;0.039196;140;153.94;61.52;0.031206;NaN;7.256;878.39;335.7;0.038113;0.076844
4.9527;1104;330.46;10.835;374.6;16.009;548.86;0.17181;548.86;0.017935;176.42;11.784;52;20.008;9.8088;0.013407;0.0016495;-2.4467;-0.38552;12198;548.98;5.2486;0.091841;1980.3;1189.9;5.6455;1.1212;55178307;1270.4;980.4;0.82514;0.82514;0.27444;0.41306;0.13765;0.0049729;0.028178;-3.7738e-5;0;0;0;0;-4.1003e-5;0.039266;140;153.94;61.4;0.03179;NaN;7.1742;877.05;335.65;0.05;0.077293
